$GPRMC,031507.682,A,1513.1473,N,14543.0215,E,5.07,208.77,020217,,,A*6A
$GPRMC,031508.678,A,1513.1452,N,14543.0181,E,3.65,211.92,020217,,,A*6C
$MOTION,6244.00,0.96,-0.09,-0.05,-3.16,0.55,5.92,0.25,-0.15,-0.07
$MOTION,192.00,1.00,0.02,0.28,-6.42,3.27,5.71,0.24,-0.16,-0.07
$MOTION,217.00,1.03,-0.10,-0.03,-5.35,-7.04,15.25,0.26,-0.17,-0.07
$MOTION,233.00,0.94,-0.08,-0.07,-2.65,-1.08,9.20,0.25,-0.15,-0.08
$MOTION,230.00,1.02,-0.06,0.01,-2.80,-0.39,0.21,0.27,-0.16,-0.07
$GPRMC,031509.677,A,1513.1454,N,14543.0180,E,1.73,218.29,020217,,,A*69
$MOTION,210.00,0.96,-0.10,-0.08,-0.43,-0.61,5.83,0.27,-0.15,-0.09
$MOTION,192.00,0.92,-0.11,-0.04,-19.86,-2.98,16.88,0.26,-0.13,-0.10
$MOTION,196.00,0.94,-0.12,0.06,5.94,3.66,-16.91,0.24,-0.09,-0.11
$MOTION,231.00,0.98,-0.16,-0.12,-3.57,-2.49,-10.95,0.25,-0.11,-0.10
$GPRMC,031510.676,A,1513.1459,N,14543.0184,E,0.50,218.29,020217,,,A*69
$MOTION,235.00,1.00,-0.13,-0.06,-0.34,0.82,8.17,0.26,-0.11,-0.10
$MOTION,192.00,0.96,-0.13,-0.08,-3.99,-0.10,5.05,0.25,-0.10,-0.09
$MOTION,192.00,0.94,-0.14,-0.06,5.35,0.73,2.74,0.24,-0.10,-0.10
$MOTION,216.00,0.97,-0.13,-0.07,-0.07,-0.93,0.53,0.24,-0.10,-0.09
$MOTION,206.00,0.97,-0.15,-0.03,-2.20,1.00,9.91,0.24,-0.10,-0.09
$GPRMC,031511.677,A,1513.1463,N,14543.0188,E,0.23,218.29,020217,,,A*68
$MOTION,204.00,0.98,-0.13,-0.08,-2.24,0.88,5.70,0.24,-0.11,-0.09
$MOTION,192.00,1.21,-0.22,-0.13,-2.60,0.90,6.99,0.25,-0.11,-0.09
$MOTION,192.00,0.97,-0.10,-0.04,-2.44,0.57,5.30,0.24,-0.12,-0.09
$MOTION,192.00,0.96,-0.12,-0.07,-5.24,-1.50,8.55,0.24,-0.11,-0.09
$MOTION,226.00,0.95,-0.06,0.01,3.51,5.83,5.32,0.25,-0.13,-0.09
$GPRMC,031512.677,A,1513.1465,N,14543.0188,E,0.11,218.29,020217,,,A*6C
$MOTION,206.00,0.79,-0.45,-0.73,-62.63,-7.08,10.79,0.29,-0.19,-0.07
$MOTION,193.00,0.97,-0.05,-0.06,-0.41,4.22,19.20,0.28,-0.18,-0.08
$MOTION,192.00,0.97,-0.03,-0.09,-2.08,2.30,9.81,0.26,-0.18,-0.08
$MOTION,199.00,0.96,-0.01,-0.08,-2.83,0.50,5.17,0.26,-0.18,-0.07
$MOTION,230.00,1.00,-0.03,-0.05,-13.23,-14.67,-24.54,0.27,-0.19,-0.07
$GPRMC,031513.672,A,1513.1459,N,14543.0164,E,0.13,218.29,020217,,,A*67
$MOTION,207.00,0.97,-0.06,-0.06,0.40,4.60,20.91,0.28,-0.19,-0.07
$MOTION,206.00,0.98,0.17,-0.03,-9.00,-4.71,-4.30,0.25,-0.19,-0.08
$MOTION,192.00,0.92,0.04,-0.09,-2.30,0.76,5.15,0.25,-0.20,-0.08
$MOTION,192.00,0.89,0.08,-0.08,-3.88,-0.84,7.45,0.25,-0.19,-0.08
$MOTION,227.00,0.95,0.10,-0.11,-2.67,-0.22,7.45,0.23,-0.20,-0.08
$GPRMC,031515.000,A,1513.1457,N,14543.0166,E,0.17,218.29,020217,,,A*6A
$MOTION,205.00,0.95,0.09,-0.12,-3.07,0.59,5.81,0.23,-0.19,-0.08
$MOTION,192.00,0.97,0.08,-0.11,-2.09,-0.24,4.74,0.23,-0.20,-0.08
$MOTION,192.00,0.94,0.08,-0.12,-2.85,1.50,6.67,0.23,-0.19,-0.08
$MOTION,192.00,0.94,0.10,-0.12,-2.50,0.47,6.64,0.23,-0.20,-0.08
$MOTION,192.00,0.97,0.13,-0.11,-3.08,0.58,7.37,0.23,-0.20,-0.09
$MOTION,226.00,0.96,0.16,-0.11,-2.91,0.84,6.13,0.22,-0.20,-0.08
$MOTION,232.00,0.95,0.17,-0.10,-2.20,0.55,8.28,0.22,-0.20,-0.09
$GPRMC,031516.000,A,1513.1457,N,14543.0168,E,0.05,218.29,020217,,,A*64
$MOTION,211.00,0.95,0.16,-0.12,-2.83,0.68,5.63,0.22,-0.20,-0.08
$MOTION,192.00,0.94,0.15,-0.12,-3.10,0.49,5.89,0.22,-0.20,-0.07
$MOTION,192.00,0.95,0.14,-0.12,-2.56,0.34,5.17,0.22,-0.20,-0.08
$MOTION,222.00,0.97,0.15,-0.12,-2.73,0.54,5.64,0.22,-0.20,-0.08
$MOTION,230.00,0.96,0.15,-0.11,-2.85,0.69,5.29,0.21,-0.21,-0.08
$GPRMC,031517.000,A,1513.1457,N,14543.0171,E,0.14,218.29,020217,,,A*6D
$MOTION,206.00,0.94,0.15,-0.12,-2.92,0.01,4.70,0.22,-0.20,-0.08
$MOTION,192.00,0.95,0.16,-0.11,-3.18,0.30,5.97,0.21,-0.20,-0.08
$MOTION,193.00,0.95,0.16,-0.11,-2.53,0.06,4.79,0.21,-0.20,-0.08
$MOTION,205.00,0.94,0.14,-0.12,-3.20,0.22,7.10,0.21,-0.20,-0.08
$GPRMC,031518.000,A,1513.1459,N,14543.0172,E,0.08,218.29,020217,,,A*62
$MOTION,246.00,0.95,0.16,-0.12,-2.91,0.27,4.97,0.21,-0.20,-0.08
$MOTION,207.00,0.96,0.15,-0.13,-2.92,0.37,5.95,0.22,-0.20,-0.08
$MOTION,192.00,0.96,0.17,-0.12,-2.91,0.02,5.60,0.22,-0.20,-0.08
$MOTION,192.00,0.95,0.16,-0.12,-2.83,-0.16,5.46,0.21,-0.20,-0.08
$MOTION,224.00,0.96,0.17,-0.10,-2.94,0.02,5.11,0.21,-0.20,-0.08
$GPRMC,031519.000,A,1513.1460,N,14543.0171,E,0.23,218.29,020217,,,A*63
$MOTION,206.00,0.94,0.16,-0.13,-2.88,0.17,5.73,0.21,-0.20,-0.08
$MOTION,192.00,0.92,0.16,-0.13,-2.97,-0.54,4.94,0.22,-0.20,-0.08
$MOTION,192.00,0.95,0.16,-0.12,-2.66,0.15,4.39,0.22,-0.20,-0.08
$MOTION,192.00,0.96,0.14,-0.12,-2.89,0.36,5.44,0.21,-0.20,-0.08
$MOTION,227.00,0.95,0.16,-0.12,-2.70,0.18,4.54,0.22,-0.20,-0.08
$GPRMC,031520.000,A,1513.1461,N,14543.0172,E,0.26,218.29,020217,,,A*6E
$MOTION,205.00,0.95,0.16,-0.12,-2.94,0.20,5.14,0.21,-0.20,-0.08
$MOTION,192.00,0.94,0.15,-0.13,-2.77,0.23,4.79,0.21,-0.20,-0.08
$MOTION,192.00,0.94,0.16,-0.12,-2.42,0.23,4.66,0.21,-0.20,-0.08
$MOTION,200.00,0.95,0.16,-0.12,-2.53,0.59,5.53,0.21,-0.20,-0.08
$MOTION,234.00,0.95,0.17,-0.12,-3.26,0.16,5.18,0.21,-0.20,-0.08
$GPRMC,031521.000,A,1513.1460,N,14543.0172,E,0.18,218.29,020217,,,A*63
$MOTION,204.00,0.96,0.17,-0.11,-3.40,0.31,5.87,0.21,-0.20,-0.08
$MOTION,192.00,0.95,0.16,-0.13,-2.25,0.35,5.26,0.21,-0.20,-0.09
$MOTION,192.00,0.96,0.19,-0.20,-0.13,-5.30,3.69,0.19,-0.20,-0.08
$MOTION,193.00,0.91,0.26,-0.15,0.93,-0.04,4.08,0.19,-0.20,-0.08
$MOTION,228.00,0.94,0.21,-0.13,-2.53,0.28,5.50,0.19,-0.20,-0.08
$GPRMC,031522.000,A,1513.1461,N,14543.0174,E,0.20,218.29,020217,,,A*6C
$MOTION,206.00,0.91,0.20,-0.14,-1.21,1.47,4.96,0.20,-0.20,-0.08
$MOTION,192.00,0.95,0.21,-0.14,-3.37,-0.73,4.02,0.19,-0.20,-0.07
$MOTION,192.00,0.94,0.20,-0.12,-2.96,0.10,4.66,0.20,-0.20,-0.08
$MOTION,227.00,0.95,0.13,-0.12,0.90,4.49,-11.40,0.20,-0.20,-0.08
$MOTION,205.00,0.95,0.12,-0.11,-4.02,-6.01,-9.70,0.24,-0.19,-0.08
$GPRMC,031523.000,A,1513.1462,N,14543.0174,E,0.22,218.29,020217,,,A*6C
$MOTION,204.00,0.99,-0.02,-0.13,-0.14,2.33,0.66,0.27,-0.18,-0.08
$MOTION,192.00,0.98,-0.06,-0.13,-5.68,-2.90,-0.70,0.29,-0.18,-0.08
$MOTION,217.00,0.89,-0.17,-0.12,10.29,1.39,11.88,0.30,-0.16,-0.09
$MOTION,205.00,0.92,-0.11,-0.13,-11.20,1.47,20.38,0.30,-0.17,-0.09
$MOTION,203.00,1.00,-0.05,-0.12,-4.28,0.49,4.84,0.28,-0.18,-0.08
$GPRMC,031524.000,A,1513.1462,N,14543.0175,E,0.13,218.29,020217,,,A*68
$MOTION,205.00,0.96,-0.02,-0.09,-6.15,0.73,-0.46,0.28,-0.18,-0.09
$MOTION,192.00,0.95,-0.01,0.00,-7.81,-2.03,0.72,0.28,-0.18,-0.08
$MOTION,192.00,1.00,-0.13,-0.17,-16.13,-3.51,-28.25,0.30,-0.17,-0.10
$MOTION,226.00,0.95,-0.14,-0.11,-3.48,1.82,12.70,0.31,-0.17,-0.08
$GPRMC,031525.000,A,1513.1463,N,14543.0175,E,0.10,218.29,020217,,,A*6B
$MOTION,253.00,0.90,-0.01,-0.11,5.67,2.42,23.61,0.28,-0.18,-0.09
$MOTION,193.00,0.97,-0.02,-0.13,-2.20,0.43,10.30,0.27,-0.18,-0.09
$MOTION,192.00,0.96,-0.00,-0.13,-0.38,0.88,7.13,0.27,-0.19,-0.09
$MOTION,193.00,0.96,-0.03,-0.14,-1.48,1.02,6.42,0.26,-0.19,-0.09
$MOTION,229.00,0.94,0.02,-0.12,-3.96,0.15,4.80,0.26,-0.19,-0.09
$GPRMC,031526.000,A,1513.1465,N,14543.0175,E,0.14,218.29,020217,,,A*6A
$MOTION,205.00,0.96,0.01,-0.13,-3.07,0.33,5.26,0.26,-0.18,-0.09
$MOTION,192.00,0.96,0.01,-0.14,-2.99,0.40,5.32,0.26,-0.19,-0.09
$MOTION,192.00,0.96,0.00,-0.13,-3.25,0.43,5.57,0.26,-0.19,-0.09
$MOTION,192.00,0.97,0.01,-0.13,-3.44,0.41,5.49,0.26,-0.18,-0.08
$MOTION,227.00,0.96,0.01,-0.13,-3.34,0.35,5.53,0.26,-0.18,-0.08
$GPRMC,031527.000,A,1513.1466,N,14543.0175,E,0.08,218.29,020217,,,A*65
$MOTION,205.00,0.95,0.01,-0.14,-3.45,0.30,5.11,0.26,-0.18,-0.09
$MOTION,192.00,0.94,0.04,-0.15,-7.49,0.94,10.12,0.26,-0.19,-0.08
$MOTION,192.00,0.96,0.01,-0.16,-3.19,0.42,5.53,0.25,-0.18,-0.08
$MOTION,192.00,0.98,-0.01,-0.03,-2.16,1.07,6.92,0.25,-0.19,-0.08
$MOTION,225.00,0.94,0.04,-0.13,-3.27,-0.25,4.85,0.26,-0.19,-0.08
$GPRMC,031528.000,A,1513.1466,N,14543.0176,E,0.04,218.29,020217,,,A*65
$MOTION,205.00,0.97,0.01,-0.13,-3.40,0.22,5.93,0.25,-0.19,-0.08
$MOTION,192.00,0.98,-0.01,-0.14,-2.85,0.04,2.44,0.26,-0.19,-0.09
$MOTION,192.00,0.96,0.06,-0.10,-2.86,0.66,6.95,0.26,-0.19,-0.09
$MOTION,206.00,0.93,0.02,-0.14,-2.89,0.26,4.42,0.25,-0.19,-0.09
$MOTION,232.00,0.97,0.00,-0.14,-3.22,0.08,6.08,0.25,-0.19,-0.09
$GPRMC,031529.000,A,1513.1466,N,14543.0175,E,0.12,218.29,020217,,,A*60
$MOTION,204.00,0.96,0.03,-0.13,-3.16,0.27,5.46,0.25,-0.19,-0.09
$MOTION,192.00,0.95,0.03,-0.14,-2.96,0.18,5.20,0.25,-0.19,-0.08
$MOTION,192.00,0.97,0.02,-0.13,-2.94,0.10,5.22,0.26,-0.19,-0.08
$MOTION,222.00,0.95,0.02,-0.15,-2.57,0.24,3.83,0.25,-0.19,-0.08
$MOTION,204.00,0.95,0.03,-0.16,-2.14,0.57,4.44,0.25,-0.19,-0.08
$GPRMC,031530.000,A,1513.1467,N,14543.0175,E,0.16,218.29,020217,,,A*6D
$MOTION,205.00,0.97,0.05,-0.14,-4.59,-1.40,3.45,0.25,-0.19,-0.08
$MOTION,194.00,0.92,0.08,-0.11,0.51,0.54,-2.33,0.26,-0.19,-0.08
$MOTION,209.00,0.99,0.03,-0.11,-2.74,-0.95,8.94,0.26,-0.19,-0.08
$MOTION,205.00,0.98,0.04,-0.13,-3.06,2.98,8.25,0.25,-0.19,-0.08
$MOTION,222.00,0.96,0.05,-0.12,-2.71,0.72,4.85,0.22,-0.19,-0.08
$GPRMC,031531.000,A,1513.1468,N,14543.0176,E,0.09,218.29,020217,,,A*6E
$MOTION,206.00,0.95,0.04,-0.13,-1.78,1.38,3.53,0.26,-0.19,-0.09
$MOTION,192.00,0.91,0.06,-0.14,-2.16,1.40,3.35,0.26,-0.19,-0.09
$MOTION,203.00,0.97,0.02,-0.13,-3.33,0.07,4.48,0.26,-0.19,-0.08
$MOTION,206.00,0.96,0.04,-0.12,-2.69,0.52,5.60,0.26,-0.19,-0.08
$MOTION,207.00,0.99,0.00,-0.15,-4.33,-0.67,8.16,0.25,-0.19,-0.09
$GPRMC,031532.000,A,1513.1468,N,14543.0176,E,0.07,218.29,020217,,,A*63
$MOTION,208.00,0.97,0.03,-0.13,-2.65,0.93,5.14,0.25,-0.19,-0.08
$MOTION,192.00,0.96,0.04,-0.13,-2.71,0.58,6.35,0.25,-0.19,-0.08
$MOTION,206.00,0.95,0.04,-0.14,-2.95,0.13,5.20,0.25,-0.19,-0.08
$GPRMC,031533.000,A,1513.1468,N,14543.0178,E,0.10,218.29,020217,,,A*6A
$MOTION,212.00,0.92,0.04,-0.18,-3.54,0.28,4.81,0.25,-0.19,-0.08
$MOTION,195.00,0.97,0.06,-0.18,-7.37,0.18,2.68,0.24,-0.19,-0.09
$MOTION,192.00,0.94,0.06,-0.16,-2.56,0.59,6.54,0.25,-0.19,-0.09
$MOTION,192.00,0.98,0.08,-0.12,-3.43,0.40,5.70,0.25,-0.19,-0.08
$MOTION,205.00,0.94,0.06,-0.16,-3.53,0.15,5.57,0.25,-0.19,-0.08
$MOTION,230.00,0.97,0.05,-0.15,-3.15,0.51,6.23,0.25,-0.19,-0.08
$MOTION,205.00,0.96,0.06,-0.13,-2.68,0.22,4.82,0.25,-0.19,-0.09
$GPRMC,031534.000,A,1513.1468,N,14543.0180,E,0.08,218.29,020217,,,A*63
$MOTION,204.00,0.94,0.06,-0.13,-3.07,0.19,5.29,0.25,-0.19,-0.08
$MOTION,194.00,0.96,0.05,-0.14,-2.84,0.18,4.65,0.25,-0.19,-0.08
$MOTION,209.00,0.96,0.07,-0.13,-2.91,0.55,5.38,0.24,-0.19,-0.08
$MOTION,205.00,0.96,0.01,-0.13,-2.77,0.39,5.66,0.24,-0.19,-0.09
$GPRMC,031535.000,A,1513.1468,N,14543.0181,E,0.14,218.29,020217,,,A*6E
$MOTION,212.00,0.97,0.04,-0.15,-0.19,-1.17,6.12,0.24,-0.19,-0.08
$MOTION,201.00,0.96,0.06,-0.12,-2.72,0.42,5.50,0.24,-0.19,-0.09
$MOTION,192.00,0.93,0.11,-0.11,-2.77,1.00,7.10,0.24,-0.19,-0.09
$MOTION,192.00,0.96,0.09,-0.12,-2.39,0.85,4.06,0.24,-0.19,-0.09
$MOTION,226.00,0.96,0.06,-0.13,-2.27,0.89,6.05,0.24,-0.19,-0.09
$GPRMC,031536.000,A,1513.1469,N,14543.0180,E,0.21,218.29,020217,,,A*6B
$MOTION,204.00,0.97,0.06,-0.15,11.16,-0.20,15.02,0.24,-0.19,-0.09
$MOTION,192.00,0.97,0.09,-0.10,2.37,-3.01,8.00,0.23,-0.19,-0.11
$MOTION,192.00,0.93,0.05,-0.11,-1.39,-1.39,6.01,0.23,-0.19,-0.11
$MOTION,192.00,0.97,0.10,-0.09,-0.35,2.83,5.76,0.23,-0.19,-0.11
$MOTION,228.00,0.91,0.16,-0.09,-0.45,-12.94,5.02,0.22,-0.19,-0.11
$GPRMC,031537.000,A,1513.1469,N,14543.0180,E,0.12,218.29,020217,,,A*6A
$MOTION,248.00,0.93,0.11,-0.06,-3.59,0.73,5.00,0.23,-0.18,-0.11
$MOTION,192.00,0.97,0.16,-0.07,-2.60,0.14,4.76,0.23,-0.19,-0.11
$MOTION,192.00,1.06,0.23,0.18,-5.15,2.09,7.87,0.22,-0.19,-0.11
$MOTION,196.00,0.93,0.15,-0.08,-5.43,-1.23,3.78,0.23,-0.18,-0.11
$MOTION,230.00,0.88,0.14,-0.13,-5.00,0.53,5.54,0.23,-0.18,-0.11
$GPRMC,031538.000,A,1513.1469,N,14543.0181,E,0.22,218.29,020217,,,A*67
$MOTION,205.00,0.98,0.15,-0.08,-4.85,2.78,5.18,0.22,-0.19,-0.11
$MOTION,192.00,0.94,0.14,-0.11,-3.21,0.41,4.87,0.22,-0.19,-0.11
$MOTION,194.00,0.96,0.11,-0.11,-1.92,1.00,5.54,0.23,-0.19,-0.10
$MOTION,206.00,0.96,0.14,-0.10,-2.87,0.60,5.08,0.22,-0.18,-0.10
$MOTION,231.00,0.97,0.12,-0.10,-3.04,0.50,5.67,0.23,-0.19,-0.11
$GPRMC,031539.000,A,1513.1470,N,14543.0182,E,0.24,218.29,020217,,,A*6B
$MOTION,204.00,0.96,0.13,-0.10,-3.13,0.07,5.69,0.23,-0.19,-0.10
$MOTION,193.00,0.96,0.12,-0.10,-2.94,0.06,4.80,0.23,-0.18,-0.10
$MOTION,193.00,0.95,0.12,-0.11,-2.83,0.73,5.81,0.23,-0.19,-0.10
$MOTION,192.00,0.94,0.12,-0.10,-3.13,0.46,5.61,0.23,-0.19,-0.10
$MOTION,229.00,0.96,0.08,-0.08,-4.98,1.56,9.82,0.22,-0.19,-0.10
$GPRMC,031540.000,A,1513.1470,N,14543.0184,E,0.24,218.29,020217,,,A*63
$MOTION,205.00,0.97,0.13,-0.11,-3.48,0.19,5.23,0.23,-0.19,-0.10
$MOTION,192.00,0.97,0.12,-0.10,-3.22,0.62,5.23,0.22,-0.19,-0.11
$MOTION,192.00,0.97,0.11,-0.11,-3.04,0.40,6.52,0.23,-0.19,-0.10
$MOTION,201.00,0.95,0.09,-0.11,-5.47,-0.07,1.40,0.24,-0.20,-0.11
$MOTION,231.00,0.95,0.08,-0.25,-3.86,0.40,6.70,0.24,-0.20,-0.09
$GPRMC,031541.000,A,1513.1470,N,14543.0185,E,0.19,218.29,020217,,,A*6D
$MOTION,206.00,0.85,0.28,-0.10,3.18,-10.69,18.39,0.23,-0.19,-0.11
$MOTION,193.00,0.97,0.14,-0.05,3.81,3.03,11.96,0.22,-0.19,-0.10
$MOTION,192.00,0.93,0.12,-0.08,-3.64,0.67,7.36,0.22,-0.19,-0.10
$MOTION,216.00,1.03,0.12,-0.09,-3.06,1.64,5.40,0.22,-0.19,-0.10
$MOTION,230.00,0.95,0.14,-0.09,-3.40,0.08,5.76,0.22,-0.19,-0.11
$GPRMC,031542.000,A,1513.1471,N,14543.0185,E,0.16,218.29,020217,,,A*60
$MOTION,206.00,0.96,0.13,-0.08,-2.64,1.64,6.09,0.22,-0.19,-0.11
$MOTION,192.00,0.96,0.16,-0.09,-2.98,0.64,5.78,0.22,-0.19,-0.11
$MOTION,192.00,0.96,0.14,-0.09,-2.83,0.38,4.78,0.22,-0.19,-0.11
$MOTION,217.00,0.95,0.14,-0.09,-2.74,0.20,5.05,0.21,-0.19,-0.10
$MOTION,204.00,0.96,0.13,-0.09,-3.35,-0.09,5.59,0.22,-0.19,-0.10
$GPRMC,031543.000,A,1513.1471,N,14543.0185,E,0.21,218.29,020217,,,A*65
$MOTION,207.00,0.95,0.14,-0.08,-3.30,0.52,5.46,0.22,-0.19,-0.10
$MOTION,192.00,0.93,0.13,-0.09,-1.61,1.81,4.54,0.22,-0.19,-0.10
$MOTION,199.00,0.97,0.14,-0.11,1.01,1.27,5.02,0.22,-0.19,-0.10
$MOTION,231.00,0.94,0.15,-0.10,-3.69,1.88,5.26,0.22,-0.19,-0.11
$MOTION,206.00,0.95,0.13,-0.10,-3.82,0.49,4.62,0.22,-0.19,-0.11
$GPRMC,031544.000,A,1513.1472,N,14543.0185,E,0.34,218.29,020217,,,A*65
$MOTION,204.00,0.97,0.13,-0.11,-3.51,-0.04,6.05,0.22,-0.19,-0.10
$MOTION,192.00,0.95,0.18,-0.03,-4.88,-0.70,6.83,0.22,-0.19,-0.11
$MOTION,192.00,0.97,0.11,-0.11,-4.12,-0.91,5.91,0.22,-0.19,-0.11
$MOTION,222.00,0.99,0.21,-0.18,-3.42,0.53,5.09,0.23,-0.19,-0.11
$MOTION,204.00,0.97,0.15,0.51,-1.29,0.68,6.15,0.22,-0.19,-0.11
$GPRMC,031545.000,A,1513.1473,N,14543.0185,E,0.34,218.29,020217,,,A*65
$MOTION,206.00,0.95,0.17,-0.16,-6.45,-0.30,9.50,0.23,-0.19,-0.12
$MOTION,192.00,0.94,0.16,-0.12,-3.69,-0.90,5.94,0.23,-0.20,-0.11
$MOTION,195.00,0.96,0.16,-0.11,-2.11,0.72,4.42,0.22,-0.19,-0.11
$MOTION,228.00,0.95,0.14,-0.14,-5.45,1.85,4.67,0.22,-0.20,-0.11
$GPRMC,031546.000,A,1513.1473,N,14543.0184,E,0.34,218.29,020217,,,A*67
$MOTION,219.00,0.92,0.20,-0.25,3.30,2.20,2.48,0.23,-0.19,-0.12
$MOTION,207.00,0.92,0.15,-0.12,-4.77,-0.10,5.05,0.23,-0.19,-0.12
$MOTION,192.00,0.92,0.14,-0.14,-2.44,0.37,5.35,0.22,-0.19,-0.11
$MOTION,202.00,0.96,0.15,-0.12,-2.90,0.19,5.79,0.22,-0.19,-0.12
$MOTION,204.00,0.95,0.14,-0.12,-2.62,0.46,5.47,0.22,-0.19,-0.12
$GPRMC,031547.000,A,1513.1474,N,14543.0184,E,0.14,218.29,020217,,,A*63
$MOTION,203.00,0.97,0.12,-0.12,-4.53,-2.41,-2.09,0.25,-0.21,-0.12
$MOTION,192.00,0.99,0.12,-0.12,0.80,5.94,12.90,0.24,-0.20,-0.12
$MOTION,192.00,0.93,0.09,-0.12,-2.65,5.70,12.49,0.27,-0.21,-0.12
$MOTION,195.00,0.97,0.09,-0.13,-4.47,-1.44,6.77,0.24,-0.19,-0.12
$MOTION,204.00,0.96,0.10,-0.11,-3.89,-1.70,-12.49,0.25,-0.21,-0.12
$GPRMC,031548.000,A,1513.1475,N,14543.0184,E,0.14,218.29,020217,,,A*6D
$MOTION,206.00,0.92,0.02,-0.08,-1.28,-0.51,-16.98,0.28,-0.22,-0.12
$MOTION,192.00,0.98,-0.01,-0.19,-3.30,-3.16,1.63,0.29,-0.22,-0.11
$MOTION,192.00,0.97,0.04,-0.11,3.76,6.71,21.15,0.28,-0.21,-0.11
$MOTION,212.00,0.96,0.07,-0.13,-2.41,0.70,4.76,0.26,-0.20,-0.12
$MOTION,206.00,0.96,0.07,-0.12,-3.18,0.27,7.63,0.25,-0.19,-0.11
$GPRMC,031549.000,A,1513.1475,N,14543.0184,E,0.21,218.29,020217,,,A*6A
$MOTION,205.00,1.04,-0.01,-0.17,0.61,0.61,8.91,0.26,-0.19,-0.12
$MOTION,192.00,0.96,0.07,-0.13,-3.30,0.23,4.34,0.26,-0.19,-0.13
$MOTION,192.00,0.97,0.11,-0.04,-4.46,-0.49,6.64,0.25,-0.19,-0.11
$MOTION,192.00,0.97,0.09,-0.12,-1.01,0.67,6.68,0.25,-0.19,-0.11
$MOTION,227.00,0.94,0.09,-0.11,-2.65,0.26,5.17,0.25,-0.19,-0.12
$GPRMC,031550.000,A,1513.1475,N,14543.0183,E,0.15,218.29,020217,,,A*62
$MOTION,211.00,0.98,0.08,-0.12,-2.12,0.19,5.06,0.24,-0.18,-0.13
$MOTION,205.00,0.95,0.08,-0.12,-2.31,0.81,5.15,0.25,-0.19,-0.13
$MOTION,192.00,0.96,0.08,-0.13,-4.43,-0.31,5.29,0.25,-0.19,-0.13
$MOTION,214.00,0.94,0.07,-0.12,-4.37,-0.52,4.87,0.25,-0.19,-0.12
$MOTION,228.00,0.95,0.08,-0.12,-2.40,0.23,5.35,0.25,-0.19,-0.12
$GPRMC,031551.000,A,1513.1476,N,14543.0183,E,0.06,218.29,020217,,,A*62
$MOTION,207.00,0.96,0.08,-0.12,-2.76,0.63,4.96,0.24,-0.19,-0.12
$MOTION,192.00,0.96,0.08,-0.11,-4.10,-0.03,5.09,0.25,-0.19,-0.13
$MOTION,202.00,0.94,0.08,-0.12,-3.52,0.24,5.17,0.25,-0.19,-0.13
$MOTION,205.00,0.97,0.07,-0.12,-3.39,1.84,6.01,0.26,-0.19,-0.12
$MOTION,223.00,0.96,0.08,-0.12,-3.51,0.29,5.64,0.25,-0.19,-0.12
$GPRMC,031552.000,A,1513.1476,N,14543.0183,E,0.10,218.29,020217,,,A*66
$MOTION,205.00,0.95,0.09,-0.11,-3.90,0.10,5.58,0.25,-0.19,-0.12
$MOTION,193.00,0.95,0.09,-0.11,-5.03,-0.90,5.06,0.24,-0.19,-0.11
$MOTION,193.00,0.96,0.08,-0.11,-4.16,1.88,4.56,0.25,-0.20,-0.12
$MOTION,226.00,0.97,0.08,-0.11,-4.19,0.39,4.90,0.24,-0.19,-0.11
$MOTION,231.00,0.98,0.08,-0.12,-3.90,0.11,5.44,0.24,-0.19,-0.11
$GPRMC,031553.000,A,1513.1476,N,14543.0183,E,0.02,218.29,020217,,,A*64
$MOTION,205.00,0.96,0.08,-0.11,-3.55,0.13,4.95,0.24,-0.19,-0.11
$MOTION,192.00,0.96,0.08,-0.11,-2.80,0.23,5.38,0.24,-0.19,-0.11
$MOTION,195.00,0.90,0.17,-0.20,-3.90,1.00,6.80,0.25,-0.19,-0.12
$MOTION,227.00,0.94,0.10,-0.12,-3.13,0.07,5.82,0.25,-0.19,-0.11
$GPRMC,031554.000,A,1513.1476,N,14543.0183,E,0.05,218.29,020217,,,A*64
$MOTION,240.00,0.98,0.09,-0.14,-2.87,0.67,6.50,0.25,-0.19,-0.12
$MOTION,192.00,0.97,0.08,-0.12,-2.84,0.42,5.59,0.25,-0.20,-0.12
$MOTION,192.00,0.95,0.08,-0.11,-2.72,0.49,5.32,0.25,-0.19,-0.11
$MOTION,192.00,0.96,0.08,-0.11,-3.12,0.48,5.27,0.25,-0.19,-0.11
$MOTION,205.00,0.94,0.07,-0.11,-3.16,0.08,5.40,0.24,-0.19,-0.11
$GPRMC,031555.000,A,1513.1476,N,14543.0183,E,0.09,218.29,020217,,,A*69
$MOTION,250.00,0.96,0.08,-0.12,-2.92,0.34,5.37,0.24,-0.19,-0.12
$MOTION,208.00,0.95,0.07,-0.13,-4.02,0.31,4.66,0.25,-0.19,-0.12
$MOTION,192.00,0.98,0.10,-0.12,-2.75,0.55,5.56,0.24,-0.19,-0.11
$MOTION,211.00,0.96,0.07,-0.12,-2.80,0.23,5.58,0.24,-0.19,-0.11
$MOTION,206.00,0.96,0.09,-0.11,-3.51,0.42,5.65,0.24,-0.19,-0.11
$GPRMC,031556.000,A,1513.1476,N,14543.0183,E,0.05,218.29,020217,,,A*66
$MOTION,204.00,0.96,0.09,-0.12,-2.83,0.44,5.63,0.25,-0.19,-0.11
$MOTION,192.00,0.96,0.09,-0.12,-3.39,0.24,4.99,0.25,-0.19,-0.11
$MOTION,192.00,0.97,0.09,-0.13,-2.93,-1.91,4.64,0.25,-0.19,-0.11
$MOTION,192.00,0.97,0.10,-0.12,-3.25,0.37,5.19,0.25,-0.19,-0.11
$MOTION,228.00,0.97,0.09,-0.12,-3.90,-1.88,7.30,0.25,-0.19,-0.11
$GPRMC,031557.000,A,1513.1476,N,14543.0183,E,0.03,218.29,020217,,,A*61
$MOTION,204.00,0.96,0.08,-0.11,-3.29,0.36,5.12,0.24,-0.19,-0.11
$MOTION,194.00,0.96,0.09,-0.10,-3.47,0.21,5.17,0.25,-0.19,-0.11
$MOTION,192.00,0.87,0.21,-0.17,-2.01,0.68,5.79,0.24,-0.19,-0.11
$MOTION,192.00,0.96,0.19,-0.12,-2.71,0.59,5.79,0.25,-0.19,-0.11
$MOTION,227.00,0.94,0.08,-0.10,-3.69,0.46,5.37,0.25,-0.19,-0.11
$GPRMC,031558.000,A,1513.1476,N,14543.0183,E,0.04,218.29,020217,,,A*69
$MOTION,204.00,0.93,0.07,-0.11,-2.38,0.55,5.45,0.25,-0.19,-0.11
$MOTION,192.00,0.95,0.09,-0.13,-3.06,-0.19,5.32,0.24,-0.18,-0.11
$MOTION,192.00,0.91,0.07,-0.17,-3.22,0.10,6.50,0.25,-0.19,-0.11
$MOTION,192.00,0.92,0.07,-0.12,-3.40,0.52,5.62,0.25,-0.19,-0.07
$MOTION,226.00,0.96,0.11,-0.08,-3.22,-0.25,4.72,0.25,-0.19,-0.11
$GPRMC,031559.000,A,1513.1476,N,14543.0183,E,0.05,218.29,020217,,,A*69
$MOTION,205.00,0.94,0.08,-0.12,-3.10,0.07,5.54,0.24,-0.19,-0.11
$MOTION,192.00,0.95,0.06,-0.12,-2.98,0.65,5.30,0.24,-0.19,-0.11
$MOTION,192.00,0.95,0.10,-0.12,-3.84,-0.16,5.50,0.24,-0.19,-0.11
$MOTION,215.00,0.94,0.10,-0.12,-2.44,0.04,4.35,0.25,-0.19,-0.11
$MOTION,227.00,0.89,0.07,-0.13,-2.57,0.23,4.28,0.24,-0.18,-0.11
$GPRMC,031600.000,A,1513.1476,N,14543.0183,E,0.04,218.29,020217,,,A*67
$MOTION,205.00,0.92,0.07,-0.13,-2.00,0.66,7.04,0.24,-0.19,-0.10
$MOTION,192.00,0.96,0.09,-0.12,-3.02,0.34,5.10,0.24,-0.18,-0.10
$MOTION,192.00,0.94,0.08,-0.13,-2.59,0.60,3.77,0.24,-0.19,-0.10
$MOTION,198.00,0.96,0.10,-0.14,-4.97,-0.77,5.51,0.24,-0.19,-0.11
$MOTION,204.00,0.95,0.09,-0.10,-3.39,0.00,4.54,0.24,-0.19,-0.11
$GPRMC,031601.000,A,1513.1476,N,14543.0183,E,0.06,218.29,020217,,,A*64
$MOTION,203.00,0.97,0.10,-0.13,-2.86,0.14,4.43,0.25,-0.18,-0.11
$MOTION,192.00,1.02,0.11,-0.13,-3.12,0.67,6.26,0.24,-0.19,-0.11
$MOTION,192.00,0.94,0.06,-0.13,-2.86,0.34,5.15,0.24,-0.19,-0.11
$MOTION,201.00,0.98,0.11,-0.11,-3.20,0.62,5.59,0.24,-0.19,-0.10
$MOTION,226.00,0.95,0.08,-0.12,-3.30,0.33,4.87,0.24,-0.19,-0.11
$GPRMC,031602.000,A,1513.1476,N,14543.0183,E,0.10,218.29,020217,,,A*60
$MOTION,205.00,0.97,0.09,-0.12,-3.57,0.20,6.12,0.24,-0.19,-0.11
$MOTION,192.00,0.91,0.08,-0.09,-3.00,0.07,5.14,0.24,-0.19,-0.11
$MOTION,192.00,0.97,0.11,-0.10,-2.89,0.41,5.33,0.24,-0.19,-0.11
$MOTION,198.00,0.95,0.08,-0.09,-5.44,-0.06,4.87,0.24,-0.19,-0.11
$MOTION,204.00,0.95,0.08,-0.13,-3.31,0.22,4.65,0.25,-0.19,-0.11
$GPRMC,031603.000,A,1513.1476,N,14543.0183,E,0.12,218.29,020217,,,A*63
$MOTION,204.00,0.96,0.09,-0.12,-2.99,0.35,5.24,0.25,-0.19,-0.12
$MOTION,192.00,0.97,0.10,-0.12,-3.08,0.28,5.82,0.25,-0.19,-0.11
$MOTION,202.00,0.94,0.08,-0.10,-3.13,0.11,4.79,0.24,-0.19,-0.11
$MOTION,204.00,0.94,0.08,-0.12,-3.33,0.10,5.27,0.24,-0.19,-0.11
$MOTION,224.00,0.98,0.12,-0.11,-3.04,0.10,5.37,0.24,-0.19,-0.10
$GPRMC,031604.000,A,1513.1475,N,14543.0183,E,0.02,218.29,020217,,,A*66
$MOTION,206.00,0.96,0.08,-0.13,-2.89,0.44,5.14,0.24,-0.19,-0.11
$MOTION,192.00,0.97,0.10,-0.12,-3.13,0.24,5.06,0.24,-0.19,-0.11
$MOTION,205.00,0.95,0.09,-0.12,-3.07,0.21,5.52,0.24,-0.19,-0.11
$MOTION,231.00,0.98,0.10,-0.12,-3.13,0.19,4.88,0.24,-0.19,-0.11
$MOTION,230.00,0.96,0.10,-0.12,-3.15,0.37,5.58,0.24,-0.19,-0.11
$GPRMC,031605.000,A,1513.1475,N,14543.0183,E,0.07,218.29,020217,,,A*62
$MOTION,204.00,0.95,0.10,-0.16,-3.10,0.32,5.46,0.24,-0.19,-0.11
$MOTION,192.00,0.96,0.07,-0.13,-2.97,0.25,4.73,0.24,-0.19,-0.11
$MOTION,192.00,0.94,0.07,-0.14,-3.52,0.32,5.56,0.24,-0.19,-0.11
$MOTION,227.00,0.91,0.08,-0.17,-2.93,-0.11,5.28,0.24,-0.19,-0.11
$GPRMC,031606.000,A,1513.1475,N,14543.0183,E,0.08,218.29,020217,,,A*6E
$MOTION,249.00,0.95,0.09,-0.12,-3.10,0.23,4.99,0.24,-0.19,-0.11
$MOTION,192.00,0.94,0.09,-0.12,-3.33,0.31,4.70,0.24,-0.19,-0.11
$MOTION,192.00,0.99,0.13,-0.12,-3.36,0.56,6.30,0.24,-0.19,-0.11
$MOTION,193.00,0.94,0.07,-0.13,-2.91,0.43,4.91,0.24,-0.19,-0.11
$MOTION,228.00,0.98,0.12,-0.13,-2.87,0.35,4.93,0.24,-0.18,-0.11
$GPRMC,031607.000,A,1513.1475,N,14543.0183,E,0.03,218.29,020217,,,A*64
$MOTION,205.00,0.95,0.09,-0.13,-3.14,0.19,5.71,0.25,-0.19,-0.10
$MOTION,192.00,0.96,0.10,-0.08,-3.54,0.54,6.00,0.24,-0.19,-0.10
$MOTION,192.00,0.97,0.10,-0.11,-3.69,0.04,4.96,0.24,-0.18,-0.11
$MOTION,194.00,0.92,0.09,-0.12,-2.77,0.12,4.49,0.24,-0.18,-0.11
$MOTION,232.00,0.96,0.10,-0.12,-3.14,0.17,5.52,0.24,-0.19,-0.11
$GPRMC,031608.000,A,1513.1475,N,14543.0183,E,0.05,218.29,020217,,,A*6D
$MOTION,207.00,0.95,0.08,-0.13,-3.02,0.24,4.90,0.24,-0.19,-0.11
$MOTION,192.00,0.96,0.10,-0.12,-2.98,0.71,4.66,0.24,-0.19,-0.11
$MOTION,207.00,0.96,0.10,-0.12,-3.24,0.25,5.11,0.24,-0.19,-0.14
$MOTION,205.00,0.96,0.11,-0.11,-3.39,0.24,0.84,0.25,-0.19,-0.11
$MOTION,225.00,1.08,0.04,-0.08,-3.35,0.25,8.05,0.24,-0.19,-0.11
$GPRMC,031609.000,A,1513.1475,N,14543.0183,E,0.02,218.29,020217,,,A*6B
$MOTION,204.00,0.98,0.09,-0.11,-3.21,0.34,5.46,0.24,-0.19,-0.11
$MOTION,192.00,0.96,0.08,-0.12,-3.44,0.10,4.77,0.24,-0.19,-0.11
$MOTION,192.00,1.00,0.04,-0.11,-3.58,-0.02,-5.59,0.25,-0.20,-0.11
$MOTION,229.00,0.76,-0.08,-0.06,-6.72,-0.19,-24.72,0.30,-0.19,-0.10
$MOTION,207.00,1.00,-0.05,-0.06,-0.65,2.59,40.04,0.28,-0.18,-0.10
$GPRMC,031610.000,A,1513.1475,N,14543.0183,E,0.06,218.29,020217,,,A*67
$MOTION,204.00,0.96,-0.01,-0.11,-3.14,-0.08,5.70,0.27,-0.18,-0.11
$MOTION,192.00,0.96,-0.02,-0.11,-3.27,0.31,5.32,0.28,-0.18,-0.11
$MOTION,193.00,0.96,-0.01,-0.10,-3.16,0.26,5.88,0.27,-0.18,-0.10
$MOTION,231.00,0.96,-0.01,-0.10,-3.27,0.30,5.23,0.28,-0.18,-0.10
$GPRMC,031611.000,A,1513.1475,N,14543.0183,E,0.14,218.29,020217,,,A*65
$MOTION,219.00,0.96,-0.01,-0.10,-3.08,0.46,5.38,0.27,-0.18,-0.10
$MOTION,205.00,0.96,-0.01,-0.11,-3.22,0.10,5.14,0.27,-0.18,-0.10
$MOTION,192.00,0.96,-0.01,-0.11,-2.95,0.30,5.38,0.27,-0.18,-0.10
$MOTION,192.00,0.96,-0.01,-0.11,-3.11,0.18,5.25,0.27,-0.18,-0.10
$MOTION,227.00,0.96,-0.01,-0.12,-3.31,-0.10,5.01,0.27,-0.19,-0.10
$GPRMC,031612.000,A,1513.1475,N,14543.0183,E,0.14,218.29,020217,,,A*66
$MOTION,204.00,0.97,-0.01,-0.11,-2.81,0.37,5.52,0.27,-0.18,-0.11
$MOTION,204.00,0.96,-0.00,-0.11,-3.22,0.50,5.97,0.27,-0.18,-0.10
$MOTION,192.00,0.96,0.00,-0.10,-3.28,0.24,5.18,0.27,-0.18,-0.10
$MOTION,192.00,0.97,-0.06,-0.13,-3.33,0.49,5.27,0.26,-0.18,-0.11
$MOTION,228.00,0.97,-0.01,-0.11,-2.86,0.34,5.51,0.27,-0.18,-0.10
$GPRMC,031613.000,A,1513.1476,N,14543.0183,E,0.11,218.29,020217,,,A*61
$MOTION,205.00,0.96,-0.01,-0.13,-2.90,0.41,5.10,0.27,-0.18,-0.11
$MOTION,192.00,0.96,0.01,-0.08,-3.48,0.19,4.86,0.27,-0.18,-0.11
$MOTION,192.00,0.96,-0.02,-0.11,-2.53,0.67,2.53,0.27,-0.19,-0.11
$MOTION,192.00,0.95,-0.03,-0.10,-2.77,0.50,3.99,0.28,-0.19,-0.11
$MOTION,228.00,0.92,0.00,-0.11,-3.46,0.16,6.09,0.26,-0.18,-0.10
$GPRMC,031614.000,A,1513.1476,N,14543.0183,E,0.11,218.29,020217,,,A*66
$MOTION,206.00,0.97,-0.00,-0.10,-2.88,0.43,5.66,0.27,-0.19,-0.11
$MOTION,192.00,0.96,-0.01,-0.10,-3.10,0.17,5.54,0.27,-0.19,-0.11
$MOTION,192.00,0.96,-0.01,-0.11,-2.96,0.43,5.45,0.27,-0.18,-0.10
$MOTION,213.00,0.96,0.00,-0.10,-4.58,-0.91,4.53,0.27,-0.19,-0.10
$MOTION,206.00,0.96,0.00,-0.12,-3.56,-0.22,4.86,0.27,-0.19,-0.11
$GPRMC,031615.000,A,1513.1476,N,14543.0182,E,0.18,218.29,020217,,,A*6F
$MOTION,205.00,0.96,-0.01,-0.08,-3.57,0.08,6.96,0.27,-0.18,-0.10
$MOTION,193.00,0.95,-0.02,-0.11,-4.55,-0.87,0.10,0.28,-0.20,-0.11
$MOTION,192.00,0.96,-0.04,-0.10,-3.13,0.06,7.88,0.29,-0.19,-0.10
$MOTION,195.00,0.99,-0.03,-0.10,-3.04,0.20,6.04,0.28,-0.18,-0.11
$MOTION,204.00,0.96,-0.02,-0.12,-2.98,0.41,4.77,0.27,-0.18,-0.10
$GPRMC,031616.000,A,1513.1476,N,14543.0182,E,0.22,218.29,020217,,,A*65
$MOTION,205.00,0.98,0.00,-0.08,-2.00,0.73,7.25,0.28,-0.18,-0.11
$MOTION,198.00,0.95,-0.01,-0.10,-4.31,-0.58,5.35,0.27,-0.18,-0.11
$MOTION,192.00,0.96,-0.01,-0.10,-6.30,-1.61,5.05,0.27,-0.18,-0.11
$MOTION,192.00,0.96,-0.04,-0.11,-4.60,-0.78,3.72,0.27,-0.18,-0.11
$MOTION,227.00,0.94,0.02,-0.08,-9.33,-3.00,4.26,0.27,-0.18,-0.10
$GPRMC,031617.000,A,1513.1476,N,14543.0181,E,0.08,218.29,020217,,,A*6F
$MOTION,205.00,0.98,0.00,-0.08,-3.03,0.64,5.95,0.27,-0.18,-0.11
$MOTION,192.00,0.96,-0.01,-0.10,-3.10,0.37,5.56,0.27,-0.19,-0.11
$MOTION,192.00,0.97,-0.00,-0.10,-2.90,0.48,5.44,0.27,-0.18,-0.11
$MOTION,192.00,0.97,-0.00,-0.10,-3.13,0.57,5.38,0.27,-0.18,-0.11
$MOTION,226.00,0.96,-0.01,-0.11,-3.35,0.22,5.62,0.27,-0.18,-0.10
$GPRMC,031618.000,A,1513.1476,N,14543.0181,E,0.09,218.29,020217,,,A*61
$MOTION,204.00,0.97,-0.00,-0.10,-3.07,0.23,5.26,0.27,-0.19,-0.11
$MOTION,192.00,0.96,-0.00,-0.10,-2.93,0.22,5.23,0.27,-0.18,-0.10
$MOTION,192.00,0.96,-0.01,-0.11,-2.92,0.40,5.22,0.27,-0.18,-0.10
$MOTION,203.00,0.97,-0.01,-0.10,-3.09,0.24,4.99,0.27,-0.18,-0.11
$MOTION,206.00,0.96,-0.00,-0.10,-3.13,0.19,5.11,0.27,-0.18,-0.10
$GPRMC,031619.000,A,1513.1477,N,14543.0181,E,0.12,218.29,020217,,,A*6B
$MOTION,233.00,0.97,-0.03,-0.11,-3.40,0.21,5.52,0.27,-0.18,-0.10
$MOTION,192.00,0.93,0.01,-0.14,-3.32,-0.25,5.76,0.28,-0.19,-0.10
$MOTION,192.00,1.01,-0.04,-0.13,-1.88,0.73,6.19,0.27,-0.18,-0.10
$MOTION,194.00,0.97,0.01,-0.11,-3.01,0.41,5.64,0.27,-0.18,-0.10
$MOTION,228.00,1.04,0.06,-0.08,-3.40,-0.10,6.52,0.27,-0.18,-0.10
$GPRMC,031620.000,A,1513.1476,N,14543.0180,E,0.20,218.29,020217,,,A*60
$MOTION,205.00,0.96,0.01,-0.10,-3.49,0.15,4.31,0.27,-0.18,-0.10
$MOTION,192.00,0.95,-0.05,-0.10,-2.07,1.31,6.03,0.27,-0.18,-0.10
$MOTION,192.00,0.95,0.01,-0.10,-3.16,0.13,4.82,0.27,-0.18,-0.10
$MOTION,192.00,0.95,-0.01,-0.10,-3.01,0.02,5.03,0.27,-0.18,-0.10
$MOTION,225.00,0.94,-0.01,-0.10,-3.41,0.30,5.10,0.28,-0.19,-0.11
$GPRMC,031621.000,A,1513.1476,N,14543.0180,E,0.15,218.29,020217,,,A*67
$MOTION,206.00,0.95,-0.00,-0.10,-3.33,0.18,5.82,0.27,-0.18,-0.10
$MOTION,192.00,0.96,0.00,-0.08,-3.19,0.69,6.22,0.27,-0.19,-0.10
$MOTION,192.00,0.96,-0.01,-0.10,-3.29,0.35,5.59,0.27,-0.19,-0.10
$MOTION,192.00,0.97,-0.00,-0.10,-3.11,0.57,5.02,0.28,-0.18,-0.10
$MOTION,225.00,0.96,-0.00,-0.10,-3.23,0.39,4.13,0.27,-0.18,-0.10
$GPRMC,031622.000,A,1513.1475,N,14543.0180,E,0.13,218.29,020217,,,A*61
$MOTION,204.00,0.95,-0.01,-0.09,-2.98,0.34,5.97,0.27,-0.18,-0.10
$MOTION,194.00,0.96,-0.01,-0.10,-2.92,0.16,4.79,0.27,-0.18,-0.11
$MOTION,192.00,0.97,0.00,-0.10,-3.00,0.46,4.89,0.27,-0.18,-0.10
$MOTION,193.00,0.95,-0.01,-0.10,-3.23,0.12,4.69,0.27,-0.18,-0.10
$MOTION,224.00,0.96,-0.01,-0.11,-3.12,0.32,5.28,0.27,-0.18,-0.11
$GPRMC,031623.000,A,1513.1475,N,14543.0180,E,0.09,218.29,020217,,,A*6B
$MOTION,205.00,0.96,-0.01,-0.10,-2.80,0.32,5.05,0.28,-0.18,-0.11
$MOTION,192.00,0.96,-0.02,-0.12,-2.79,0.72,5.78,0.28,-0.18,-0.11
$MOTION,192.00,0.97,-0.00,-0.10,-3.39,0.38,5.57,0.27,-0.18,-0.10
$MOTION,209.00,0.93,0.02,0.01,-5.62,-3.81,5.14,0.27,-0.18,-0.11
$MOTION,204.00,0.95,-0.02,-0.12,-3.72,0.81,4.15,0.27,-0.19,-0.11
$GPRMC,031624.000,A,1513.1475,N,14543.0180,E,0.07,218.29,020217,,,A*62
$MOTION,204.00,0.92,-0.01,-0.12,-3.36,0.39,5.36,0.27,-0.19,-0.10
$MOTION,192.00,0.95,0.02,-0.10,-3.72,-0.61,4.12,0.26,-0.19,-0.11
$MOTION,192.00,0.97,-0.04,-0.12,-3.14,0.19,4.31,0.27,-0.19,-0.10
$MOTION,194.00,0.97,-0.01,-0.10,-3.48,0.52,5.31,0.27,-0.19,-0.10
$MOTION,229.00,0.95,0.02,-0.11,-2.94,-1.88,4.75,0.27,-0.18,-0.10
$GPRMC,031625.000,A,1513.1475,N,14543.0180,E,0.09,218.29,020217,,,A*6D
$MOTION,206.00,0.98,-0.01,-0.10,-2.99,0.52,5.20,0.27,-0.19,-0.10
$MOTION,192.00,0.95,-0.01,-0.10,-2.92,0.21,4.91,0.27,-0.18,-0.10
$MOTION,192.00,0.96,0.01,-0.08,-2.83,0.71,5.70,0.27,-0.19,-0.10
$MOTION,211.00,0.97,-0.01,-0.12,-2.46,0.93,6.60,0.27,-0.19,-0.10
$MOTION,207.00,0.95,-0.01,-0.09,-2.80,0.25,5.56,0.27,-0.18,-0.10
$GPRMC,031626.000,A,1513.1475,N,14543.0180,E,0.11,218.29,020217,,,A*67
$MOTION,204.00,0.96,-0.00,-0.10,-3.09,0.17,5.27,0.27,-0.18,-0.10
$MOTION,192.00,0.94,-0.01,-0.10,-3.39,0.13,5.39,0.27,-0.18,-0.10
$MOTION,192.00,0.96,-0.00,-0.10,-3.16,0.50,5.29,0.27,-0.18,-0.10
$MOTION,201.00,0.96,-0.02,-0.10,-3.08,0.37,5.59,0.27,-0.18,-0.10
$MOTION,205.00,0.97,-0.00,-0.10,-3.00,0.11,5.57,0.27,-0.18,-0.10
$GPRMC,031627.000,A,1513.1475,N,14543.0180,E,0.10,218.29,020217,,,A*67
$MOTION,204.00,0.96,-0.00,-0.10,-3.06,0.28,5.13,0.27,-0.19,-0.11
$MOTION,192.00,0.96,-0.02,-0.11,-2.98,0.25,5.44,0.27,-0.18,-0.10
$MOTION,196.00,0.96,-0.02,-0.10,-3.32,0.16,5.24,0.27,-0.18,-0.10
$MOTION,229.00,0.97,-0.00,-0.10,-3.37,0.20,5.64,0.27,-0.18,-0.10
$MOTION,205.00,0.97,-0.01,-0.09,-3.15,0.43,5.17,0.27,-0.18,-0.10
$GPRMC,031628.000,A,1513.1475,N,14543.0179,E,0.11,218.29,020217,,,A*6F
$MOTION,204.00,0.96,-0.01,-0.12,-3.04,0.33,4.91,0.27,-0.18,-0.10
$MOTION,192.00,0.94,0.02,-0.14,-3.11,0.64,5.85,0.27,-0.18,-0.10
$MOTION,193.00,1.00,0.03,-0.11,-3.02,0.51,6.23,0.27,-0.18,-0.10
$MOTION,232.00,0.94,-0.02,-0.10,-3.14,0.35,5.39,0.27,-0.18,-0.08
$GPRMC,031629.000,A,1513.1475,N,14543.0179,E,0.12,218.29,020217,,,A*6D
$MOTION,204.00,0.94,-0.01,-0.10,-3.10,0.22,4.76,0.27,-0.18,-0.10
$MOTION,204.00,0.97,0.01,-0.09,-3.52,-0.10,4.75,0.27,-0.18,-0.10
$MOTION,192.00,0.96,-0.02,-0.10,-3.21,0.30,5.09,0.27,-0.18,-0.10
$MOTION,196.00,0.97,-0.00,-0.12,-4.09,-0.39,4.70,0.27,-0.18,-0.10
$MOTION,206.00,0.96,-0.01,-0.11,-2.93,0.37,5.13,0.27,-0.18,-0.10
$GPRMC,031630.000,A,1513.1475,N,14543.0179,E,0.06,218.29,020217,,,A*60
$MOTION,251.00,0.95,0.01,-0.10,-3.35,0.31,4.72,0.27,-0.19,-0.10
$MOTION,208.00,0.98,-0.02,-0.09,-3.51,-0.02,5.04,0.27,-0.19,-0.10
$MOTION,192.00,0.97,0.01,-0.11,-2.26,1.59,4.70,0.28,-0.18,-0.10
$MOTION,192.00,0.96,0.00,-0.12,-0.50,1.53,4.65,0.28,-0.19,-0.10
$MOTION,224.00,0.94,-0.01,-0.09,-2.84,1.23,5.86,0.27,-0.19,-0.10
$GPRMC,031631.000,A,1513.1474,N,14543.0179,E,0.04,218.29,020217,,,A*62
$MOTION,205.00,1.03,0.08,-0.21,-6.45,-3.15,5.73,0.28,-0.19,-0.10
$MOTION,192.00,0.98,-0.18,-0.06,1.19,2.96,5.02,0.27,-0.18,-0.11
$MOTION,192.00,1.04,-0.01,-0.13,-2.89,1.47,9.10,0.27,-0.19,-0.10
$MOTION,210.00,0.93,0.02,-0.14,-3.23,-1.08,4.38,0.27,-0.20,-0.11
$MOTION,204.00,0.93,0.01,-0.13,-1.94,1.11,4.96,0.27,-0.19,-0.11
$GPRMC,031632.000,A,1513.1474,N,14543.0179,E,0.13,218.29,020217,,,A*67
$MOTION,204.00,0.93,-0.01,-0.15,-5.89,-1.02,5.68,0.27,-0.19,-0.10
$MOTION,192.00,0.98,0.03,-0.09,-0.15,2.15,5.86,0.28,-0.20,-0.11
$MOTION,192.00,0.95,0.01,-0.09,-1.05,1.55,4.82,0.28,-0.20,-0.11
$MOTION,193.00,0.95,0.00,-0.14,-1.16,1.61,5.26,0.28,-0.19,-0.12
$MOTION,203.00,0.96,0.00,-0.13,-3.90,0.12,7.54,0.28,-0.19,-0.12
$GPRMC,031633.000,A,1513.1475,N,14543.0179,E,0.21,218.29,020217,,,A*66
$MOTION,204.00,1.02,-0.04,-0.32,0.37,1.74,7.87,0.28,-0.19,-0.11
$MOTION,193.00,0.97,0.00,-0.13,-2.76,0.32,5.00,0.28,-0.19,-0.10
$MOTION,194.00,0.96,0.01,-0.11,-1.50,0.81,5.16,0.27,-0.19,-0.11
$MOTION,192.00,0.96,0.01,-0.13,-3.23,0.44,5.86,0.28,-0.19,-0.11
$MOTION,227.00,1.00,-0.00,-0.14,-2.56,0.30,5.68,0.28,-0.19,-0.11
$GPRMC,031634.000,A,1513.1475,N,14543.0179,E,0.20,218.29,020217,,,A*60
$MOTION,205.00,0.97,0.01,-0.13,-2.59,0.57,5.32,0.28,-0.19,-0.11
$MOTION,192.00,0.96,0.03,-0.13,-3.54,0.25,5.24,0.28,-0.19,-0.11
$MOTION,192.00,0.97,-0.01,-0.13,-3.11,0.20,5.47,0.27,-0.19,-0.10
$MOTION,196.00,0.95,0.01,-0.12,-2.86,0.13,3.95,0.28,-0.19,-0.10
$MOTION,232.00,0.96,0.01,-0.11,-2.90,0.52,5.54,0.28,-0.19,-0.11
$GPRMC,031635.000,A,1513.1476,N,14543.0179,E,0.21,218.29,020217,,,A*63
$MOTION,205.00,0.96,0.01,-0.13,-2.67,0.49,5.50,0.28,-0.19,-0.11
$MOTION,192.00,0.96,0.01,-0.12,-3.25,0.05,5.47,0.28,-0.19,-0.11
$MOTION,192.00,0.95,0.00,-0.13,-3.09,0.46,5.56,0.28,-0.19,-0.11
$MOTION,192.00,0.92,-0.00,-0.07,-3.57,1.30,4.92,0.28,-0.19,-0.11
$MOTION,232.00,0.96,0.03,-0.12,0.28,2.08,4.45,0.28,-0.19,-0.11
$GPRMC,031636.000,A,1513.1476,N,14543.0179,E,0.14,218.29,020217,,,A*66
$MOTION,204.00,0.95,-0.00,-0.14,-3.57,0.17,5.25,0.28,-0.19,-0.11
$MOTION,192.00,0.95,0.02,-0.12,-4.49,-0.05,5.62,0.27,-0.19,-0.11
$MOTION,192.00,0.96,0.01,-0.12,-1.87,1.19,5.48,0.28,-0.19,-0.11
$MOTION,212.00,0.94,-0.00,-0.14,-1.37,2.67,6.88,0.27,-0.19,-0.11
$MOTION,206.00,1.02,0.15,-0.23,-8.41,-0.81,6.44,0.27,-0.19,-0.12
$GPRMC,031637.000,A,1513.1476,N,14543.0178,E,0.07,218.29,020217,,,A*64
$MOTION,204.00,0.96,0.02,-0.09,-0.10,1.73,4.36,0.27,-0.19,-0.11
$MOTION,192.00,0.97,0.02,-0.13,-3.38,-0.03,5.46,0.27,-0.19,-0.11
$MOTION,192.00,0.95,0.01,-0.13,-3.89,-0.07,5.81,0.27,-0.19,-0.11
$MOTION,203.00,0.96,0.02,-0.14,-2.44,0.49,5.37,0.27,-0.19,-0.11
$MOTION,205.00,0.94,-0.60,-0.60,-2.55,-2.30,4.99,0.26,-0.18,-0.11
$GPRMC,031638.000,A,1513.1476,N,14543.0178,E,0.05,218.29,020217,,,A*69
$MOTION,204.00,0.98,0.03,-0.14,-4.17,0.34,5.61,0.27,-0.18,-0.11
$MOTION,192.00,0.96,0.02,-0.13,-3.05,0.27,5.75,0.27,-0.18,-0.11
$MOTION,192.00,0.99,-0.01,-0.16,-4.58,-0.16,5.21,0.27,-0.18,-0.11
$MOTION,193.00,0.96,0.03,-0.12,-3.15,0.07,5.35,0.26,-0.18,-0.10
$MOTION,229.00,0.87,0.25,0.04,-4.66,4.40,10.95,0.26,-0.18,-0.11
$GPRMC,031639.000,A,1513.1476,N,14543.0178,E,0.08,218.29,020217,,,A*65
$MOTION,205.00,0.99,0.07,-0.14,-2.68,0.36,6.33,0.26,-0.18,-0.10
$MOTION,192.00,0.92,0.00,-0.09,-3.58,0.22,4.88,0.25,-0.18,-0.11
$MOTION,192.00,0.96,0.03,-0.10,-4.77,-0.27,4.66,0.26,-0.19,-0.11
$MOTION,225.00,0.95,0.02,-0.14,-3.39,0.33,5.31,0.26,-0.18,-0.11
$MOTION,206.00,0.96,0.03,-0.14,-3.30,0.46,5.53,0.25,-0.18,-0.10
$GPRMC,031640.000,A,1513.1476,N,14543.0178,E,0.12,218.29,020217,,,A*60
$MOTION,205.00,0.96,0.01,-0.13,-3.01,0.59,4.92,0.25,-0.19,-0.11
$MOTION,192.00,0.97,0.05,-0.11,-2.76,0.24,5.06,0.26,-0.19,-0.11
$MOTION,192.00,0.97,0.04,-0.13,-1.97,0.58,4.73,0.26,-0.18,-0.11
$MOTION,213.00,0.91,0.01,-0.10,-4.41,0.86,6.42,0.26,-0.18,-0.11
$MOTION,230.00,0.98,-0.00,-0.13,-3.00,0.25,5.11,0.26,-0.18,-0.10
$GPRMC,031641.000,A,1513.1476,N,14543.0178,E,0.25,218.29,020217,,,A*65
$MOTION,204.00,0.94,0.04,-0.11,-1.73,0.49,5.32,0.26,-0.19,-0.10
$MOTION,192.00,0.95,0.04,-0.14,-3.19,0.21,5.31,0.27,-0.19,-0.10
$MOTION,192.00,1.04,0.17,-0.09,-2.94,0.64,6.77,0.26,-0.18,-0.10
$MOTION,225.00,0.96,0.03,-0.13,-3.54,0.13,4.47,0.26,-0.19,-0.11
$MOTION,204.00,0.96,0.03,-0.11,-2.32,0.63,5.34,0.26,-0.19,-0.11
$GPRMC,031642.000,A,1513.1477,N,14543.0177,E,0.18,218.29,020217,,,A*66
$MOTION,205.00,0.95,0.02,-0.15,-4.70,0.34,5.42,0.27,-0.20,-0.11
$MOTION,192.00,0.96,0.02,-0.12,-4.04,-0.05,4.32,0.27,-0.19,-0.11
$MOTION,195.00,1.19,-0.20,-0.18,-6.00,3.42,7.21,0.27,-0.20,-0.12
$MOTION,206.00,1.23,0.73,0.75,-3.81,3.10,1.61,0.27,-0.19,-0.11
$GPRMC,031643.000,A,1513.1477,N,14543.0177,E,0.07,218.29,020217,,,A*69
$MOTION,249.00,0.98,0.04,-0.13,-2.54,0.62,5.44,0.27,-0.19,-0.11
$MOTION,203.00,0.96,0.02,-0.12,-3.34,0.34,4.58,0.27,-0.19,-0.11
$MOTION,192.00,0.96,0.03,-0.12,-3.56,0.28,5.40,0.27,-0.19,-0.11
$MOTION,207.00,0.97,0.02,-0.12,-3.44,0.90,5.71,0.27,-0.19,-0.11
$MOTION,227.00,0.96,0.03,-0.11,-3.22,0.31,5.72,0.26,-0.19,-0.11
$GPRMC,031644.000,A,1513.1477,N,14543.0177,E,0.10,218.29,020217,,,A*68
$MOTION,246.00,0.97,0.04,-0.11,-3.08,0.10,7.50,0.26,-0.19,-0.11
$MOTION,192.00,0.95,0.06,-0.11,-3.74,0.11,5.05,0.26,-0.19,-0.11
$MOTION,192.00,0.96,0.05,-0.12,-2.95,0.37,4.70,0.26,-0.18,-0.11
$MOTION,192.00,0.98,0.02,-0.13,-3.08,0.39,5.70,0.26,-0.19,-0.11
$MOTION,224.00,1.01,0.00,-0.15,-2.30,0.28,5.77,0.26,-0.19,-0.11
$GPRMC,031645.000,A,1513.1477,N,14543.0177,E,0.14,218.29,020217,,,A*6D
$MOTION,209.00,0.98,0.02,-0.13,-3.47,0.10,5.47,0.26,-0.18,-0.10
$MOTION,194.00,0.83,-0.02,-0.13,-4.74,0.14,1.47,0.27,-0.19,-0.10
$MOTION,192.00,0.97,0.00,-0.14,-3.34,0.29,6.89,0.26,-0.19,-0.11
$MOTION,216.00,0.99,0.03,-0.10,-0.46,1.21,8.27,0.26,-0.19,-0.11
$MOTION,229.00,0.97,-0.10,-0.13,-8.85,-2.68,-2.14,0.27,-0.19,-0.11
$GPRMC,031646.000,A,1513.1477,N,14543.0176,E,0.04,218.29,020217,,,A*6E
$MOTION,208.00,0.91,0.13,-0.12,-8.20,0.18,4.56,0.28,-0.19,-0.10
$MOTION,192.00,0.84,-0.14,-0.35,-9.41,-4.87,7.10,0.28,-0.19,-0.09
$MOTION,200.00,1.01,0.02,-0.09,-3.57,0.73,7.61,0.27,-0.19,-0.09
$MOTION,206.00,0.95,-0.01,-0.09,-2.56,0.55,5.21,0.27,-0.19,-0.09
$MOTION,222.00,0.95,-0.04,-0.14,-3.69,0.01,5.22,0.27,-0.19,-0.09
$GPRMC,031647.000,A,1513.1477,N,14543.0176,E,0.12,218.29,020217,,,A*68
$MOTION,206.00,0.88,0.11,-0.27,-3.17,-0.02,5.56,0.27,-0.19,-0.09
$MOTION,193.00,0.97,0.02,-0.11,-2.92,0.12,5.29,0.28,-0.19,-0.09
$MOTION,208.00,0.92,-0.07,-0.10,-3.01,-0.26,4.41,0.27,-0.19,-0.10
$MOTION,205.00,0.70,-0.18,-0.22,-5.00,1.26,5.08,0.28,-0.19,-0.10
$MOTION,226.00,0.92,-0.03,-0.08,-3.33,0.43,4.58,0.27,-0.19,-0.10
$GPRMC,031648.000,A,1513.1477,N,14543.0176,E,0.15,218.29,020217,,,A*60
$MOTION,205.00,0.95,-0.01,-0.07,-3.01,0.74,5.73,0.27,-0.19,-0.10
$MOTION,192.00,0.98,-0.00,-0.10,-3.22,0.13,5.20,0.28,-0.19,-0.09
$MOTION,203.00,0.95,-0.03,-0.12,-3.02,0.07,4.67,0.27,-0.19,-0.10
$MOTION,204.00,0.98,-0.01,-0.09,-3.24,0.27,5.32,0.27,-0.19,-0.09
$GPRMC,031649.000,A,1513.1477,N,14543.0176,E,0.12,218.29,020217,,,A*66
$MOTION,247.00,0.99,-0.09,-0.24,-3.71,-1.72,7.09,0.27,-0.19,-0.09
$MOTION,198.00,0.94,-0.02,-0.10,-3.24,0.22,5.36,0.27,-0.19,-0.09
$MOTION,192.00,0.98,-0.06,-0.10,-5.11,-2.46,2.30,0.27,-0.19,-0.09
$MOTION,192.00,0.97,-0.01,-0.06,-2.40,0.31,4.79,0.28,-0.19,-0.09
$MOTION,227.00,0.99,-0.05,-0.12,-3.43,-0.64,4.08,0.29,-0.19,-0.10
$GPRMC,031650.000,A,1513.1477,N,14543.0176,E,0.04,218.29,020217,,,A*69
$MOTION,205.00,0.91,-0.04,-0.14,-3.78,0.43,4.04,0.28,-0.20,-0.10
$MOTION,192.00,0.97,-0.02,-0.09,-2.06,1.49,7.17,0.29,-0.19,-0.09
$MOTION,192.00,0.94,-0.04,-0.10,-2.89,0.94,5.61,0.28,-0.19,-0.09
$MOTION,192.00,0.96,-0.04,-0.12,-2.81,1.13,5.88,0.28,-0.19,-0.09
$MOTION,226.00,0.98,-0.02,-0.10,-2.00,1.38,6.84,0.28,-0.19,-0.09
$GPRMC,031651.000,A,1513.1477,N,14543.0176,E,0.15,218.29,020217,,,A*68
$MOTION,206.00,0.96,-0.03,-0.11,-2.44,0.90,5.92,0.27,-0.19,-0.09
$MOTION,192.00,0.96,-0.02,-0.10,-2.71,0.52,4.90,0.27,-0.19,-0.09
$MOTION,192.00,0.96,-0.02,-0.11,-2.66,0.54,5.56,0.27,-0.18,-0.09
$MOTION,192.00,0.96,-0.02,-0.11,-3.03,0.14,5.36,0.27,-0.19,-0.09
$MOTION,221.00,0.97,-0.01,-0.11,-3.38,0.43,5.44,0.27,-0.18,-0.09
$GPRMC,031652.000,A,1513.1477,N,14543.0176,E,0.16,218.29,020217,,,A*68
$MOTION,206.00,0.91,0.01,-0.10,-3.69,-0.18,4.83,0.27,-0.19,-0.09
$MOTION,192.00,0.96,0.00,-0.09,-1.99,0.92,5.94,0.27,-0.19,-0.10
$MOTION,192.00,0.94,-0.04,-0.13,-2.44,0.41,6.06,0.27,-0.19,-0.09
$MOTION,192.00,0.94,-0.02,-0.12,-3.02,0.49,5.29,0.27,-0.18,-0.09
$MOTION,227.00,0.98,-0.01,-0.10,-2.08,0.18,6.00,0.28,-0.19,-0.09
$GPRMC,031653.000,A,1513.1477,N,14543.0176,E,0.09,218.29,020217,,,A*67
$MOTION,206.00,0.90,-0.09,-0.06,-2.51,0.30,6.39,0.27,-0.18,-0.09
$MOTION,192.00,0.95,-0.02,-0.17,-2.30,1.15,4.64,0.27,-0.18,-0.09
$MOTION,201.00,0.98,-0.00,-0.12,-2.19,0.58,6.27,0.27,-0.19,-0.09
$MOTION,227.00,1.00,-0.04,-0.07,-3.66,0.40,5.89,0.27,-0.18,-0.09
$MOTION,206.00,0.98,0.03,-0.03,-4.40,-1.55,4.37,0.27,-0.19,-0.10
$GPRMC,031654.000,A,1513.1476,N,14543.0176,E,0.07,218.29,020217,,,A*6F
$MOTION,204.00,0.98,0.02,-0.09,-4.14,-0.44,5.05,0.27,-0.19,-0.10
$MOTION,192.00,0.93,0.00,-0.12,-3.05,-0.64,3.66,0.27,-0.19,-0.10
$MOTION,192.00,0.97,0.00,-0.11,-3.65,0.91,5.45,0.27,-0.19,-0.09
$MOTION,202.00,0.96,-0.01,-0.11,-3.24,0.25,5.31,0.27,-0.18,-0.09
$MOTION,205.00,0.98,-0.00,-0.12,-3.06,0.52,4.81,0.27,-0.18,-0.09
$GPRMC,031655.000,A,1513.1476,N,14543.0176,E,0.03,218.29,020217,,,A*6A
$MOTION,203.00,0.97,-0.00,-0.11,-3.31,0.15,5.59,0.27,-0.18,-0.09
$MOTION,192.00,1.03,-0.13,-0.12,-1.22,2.02,10.09,0.26,-0.18,-0.09
$MOTION,193.00,0.98,-0.02,-0.11,-2.28,0.92,5.21,0.26,-0.18,-0.09
$MOTION,192.00,0.97,-0.01,-0.10,-3.91,-0.16,4.84,0.26,-0.18,-0.09
$MOTION,227.00,0.94,-0.02,-0.11,-4.60,-0.86,5.04,0.27,-0.19,-0.08
$GPRMC,031656.000,A,1513.1476,N,14543.0176,E,0.04,218.29,020217,,,A*6E
$MOTION,206.00,1.00,-0.05,-0.14,-1.20,2.00,6.62,0.27,-0.18,-0.09
$MOTION,192.00,0.96,-0.01,-0.11,-3.18,0.37,5.10,0.27,-0.18,-0.09
$MOTION,194.00,0.94,-0.00,-0.10,-4.56,-0.93,4.02,0.27,-0.18,-0.09
$MOTION,230.00,0.97,-0.02,-0.12,-4.52,-0.19,5.56,0.27,-0.18,-0.09
$MOTION,205.00,1.00,-0.02,0.00,-0.90,0.31,4.64,0.26,-0.18,-0.09
$GPRMC,031657.000,A,1513.1476,N,14543.0176,E,0.04,218.29,020217,,,A*6F
$MOTION,207.00,0.95,-0.03,-0.09,-4.01,-1.65,4.41,0.28,-0.19,-0.09
$MOTION,192.00,0.93,-0.02,-0.04,0.10,7.29,14.06,0.29,-0.20,-0.08
$MOTION,208.00,0.97,-0.02,-0.07,-2.25,1.30,5.92,0.28,-0.18,-0.08
$MOTION,204.00,0.96,-0.02,-0.08,-3.21,0.37,5.35,0.27,-0.18,-0.09
$MOTION,225.00,0.96,-0.00,-0.08,-4.07,-0.89,4.71,0.27,-0.18,-0.08
$GPRMC,031658.000,A,1513.1476,N,14543.0176,E,0.03,218.29,020217,,,A*67
$MOTION,205.00,0.93,-0.02,-0.10,-2.45,1.55,6.87,0.27,-0.18,-0.08
$MOTION,192.00,0.97,-0.02,-0.09,-3.38,0.52,5.73,0.27,-0.18,-0.09
$MOTION,206.00,0.96,-0.01,-0.09,-3.10,0.64,6.06,0.27,-0.19,-0.09
$MOTION,204.00,0.99,0.01,-0.09,-0.93,1.64,7.12,0.27,-0.18,-0.08
$GPRMC,031659.000,A,1513.1476,N,14543.0176,E,0.15,218.29,020217,,,A*61
$MOTION,225.00,0.99,-0.07,-0.10,-4.88,-0.28,7.51,0.27,-0.18,-0.09
$MOTION,205.00,0.96,-0.01,-0.08,-3.22,0.28,4.76,0.28,-0.19,-0.09
$MOTION,192.00,0.93,0.01,-0.10,-3.16,0.65,6.00,0.27,-0.19,-0.09
$MOTION,192.00,0.96,-0.02,-0.09,-3.28,0.34,5.49,0.27,-0.18,-0.08
$MOTION,227.00,0.96,-0.02,-0.09,-3.00,0.27,5.20,0.27,-0.19,-0.08
$GPRMC,031700.000,A,1513.1476,N,14543.0176,E,0.16,218.29,020217,,,A*6F
$MOTION,213.00,0.96,-0.02,-0.09,-2.91,0.41,5.44,0.27,-0.19,-0.09
$MOTION,205.00,0.96,-0.03,-0.09,-2.65,0.79,6.00,0.27,-0.18,-0.09
$MOTION,192.00,0.95,-0.02,-0.10,-1.44,1.82,5.93,0.27,-0.18,-0.09
$MOTION,204.00,0.97,-0.05,-0.10,-1.96,1.02,9.56,0.27,-0.18,-0.09
$MOTION,229.00,0.94,-0.00,-0.11,-2.23,0.05,4.70,0.26,-0.18,-0.09
$GPRMC,031701.000,A,1513.1476,N,14543.0177,E,0.16,218.29,020217,,,A*6F
$MOTION,206.00,0.95,-0.00,-0.11,-8.22,-0.82,6.00,0.26,-0.18,-0.09
$MOTION,193.00,0.96,-0.04,-0.11,-1.85,2.12,10.96,0.26,-0.18,-0.09
$MOTION,192.00,1.01,0.02,-0.09,-11.28,-2.09,22.86,0.25,-0.18,-0.10
$MOTION,206.00,0.99,0.07,-0.11,-1.35,1.23,7.01,0.24,-0.18,-0.10
$MOTION,206.00,0.94,0.05,-0.10,-4.93,0.07,5.07,0.24,-0.18,-0.09
$GPRMC,031702.000,A,1513.1476,N,14543.0177,E,0.17,218.29,020217,,,A*6D
$MOTION,250.00,1.00,0.01,-0.09,-3.48,0.75,9.36,0.24,-0.19,-0.09
$MOTION,194.00,0.97,0.04,-0.10,-3.11,0.25,5.41,0.24,-0.18,-0.09
$MOTION,192.00,0.96,0.07,-0.12,-1.92,0.43,5.81,0.24,-0.19,-0.09
$MOTION,206.00,0.97,0.05,-0.10,-4.19,-1.74,4.93,0.24,-0.19,-0.09
$MOTION,204.00,0.96,0.06,-0.10,-2.96,0.87,6.07,0.23,-0.18,-0.09
$GPRMC,031703.000,A,1513.1476,N,14543.0178,E,0.12,218.29,020217,,,A*66
$MOTION,207.00,0.96,0.06,-0.10,-4.03,-0.52,3.66,0.23,-0.18,-0.09
$MOTION,192.00,0.98,0.06,-0.11,-3.66,0.37,5.76,0.24,-0.19,-0.09
$MOTION,192.00,0.94,0.12,-0.14,-3.19,0.09,4.50,0.24,-0.18,-0.09
$MOTION,222.00,0.97,0.07,-0.09,-1.20,1.64,8.04,0.24,-0.19,-0.09
$MOTION,205.00,0.96,0.05,-0.10,-2.69,0.66,6.83,0.24,-0.19,-0.09
$GPRMC,031704.000,A,1513.1476,N,14543.0178,E,0.17,218.29,020217,,,A*64
$MOTION,206.00,0.92,0.06,-0.12,-6.19,-2.52,0.67,0.24,-0.19,-0.09
$MOTION,192.00,0.96,0.06,-0.10,-3.07,0.39,5.61,0.24,-0.19,-0.09
$MOTION,193.00,0.96,0.07,-0.10,-2.99,0.46,5.13,0.24,-0.19,-0.08
$MOTION,211.00,0.96,0.06,-0.09,-2.88,0.71,4.81,0.24,-0.19,-0.08
$MOTION,205.00,0.97,0.09,-0.12,-3.18,0.37,5.92,0.24,-0.19,-0.09
$GPRMC,031705.000,A,1513.1475,N,14543.0178,E,0.04,218.29,020217,,,A*64
$MOTION,205.00,0.96,0.06,-0.10,-3.31,0.16,5.72,0.24,-0.19,-0.09
$MOTION,192.00,0.96,0.06,-0.10,-2.88,0.27,5.64,0.24,-0.19,-0.10
$MOTION,192.00,0.97,0.07,-0.10,-3.08,-0.05,4.68,0.24,-0.19,-0.09
$MOTION,227.00,0.98,0.08,-0.10,-2.73,0.58,5.19,0.24,-0.19,-0.09
$MOTION,204.00,0.94,0.06,-0.08,-3.30,-0.09,5.70,0.24,-0.19,-0.09
$GPRMC,031706.000,A,1513.1475,N,14543.0178,E,0.06,218.29,020217,,,A*65
$MOTION,205.00,0.99,0.06,-0.11,-2.94,0.25,5.83,0.24,-0.19,-0.09
$MOTION,192.00,0.97,0.05,-0.09,-3.10,0.73,5.85,0.24,-0.19,-0.09
$MOTION,192.00,0.96,0.08,-0.10,-3.24,0.43,5.16,0.24,-0.19,-0.09
$MOTION,226.00,0.97,0.07,-0.08,-3.21,0.48,5.50,0.24,-0.19,-0.09
$GPRMC,031707.000,A,1513.1475,N,14543.0179,E,0.06,218.29,020217,,,A*65
$MOTION,256.00,0.95,0.05,-0.11,-2.76,0.26,5.16,0.24,-0.19,-0.09
$MOTION,192.00,0.97,0.06,-0.13,-2.88,0.73,6.14,0.24,-0.19,-0.09
$MOTION,192.00,0.95,0.06,-0.09,-2.76,0.61,6.27,0.24,-0.19,-0.10
$MOTION,192.00,0.97,0.05,-0.09,-3.91,0.30,5.29,0.24,-0.19,-0.09
$MOTION,227.00,0.97,0.04,-0.11,-3.70,0.32,5.38,0.24,-0.19,-0.10
$GPRMC,031708.000,A,1513.1475,N,14543.0179,E,0.09,218.29,020217,,,A*65
$MOTION,259.00,0.96,0.05,-0.11,-3.04,0.50,5.72,0.24,-0.19,-0.09
$MOTION,203.00,0.95,0.08,-0.10,-3.24,0.26,5.15,0.24,-0.19,-0.09
$MOTION,193.00,0.97,0.05,-0.11,-3.02,0.26,5.03,0.24,-0.20,-0.09
$MOTION,193.00,0.96,0.07,-0.10,-2.99,0.46,5.55,0.24,-0.19,-0.09
$MOTION,223.00,0.96,0.06,-0.10,-3.36,0.52,5.41,0.24,-0.19,-0.08
$GPRMC,031709.000,A,1513.1475,N,14543.0179,E,0.14,218.29,020217,,,A*68
$MOTION,205.00,0.97,0.04,-0.12,-2.83,0.58,4.67,0.24,-0.19,-0.09
$MOTION,192.00,0.96,0.07,-0.11,-2.93,0.45,5.41,0.24,-0.19,-0.10
$MOTION,192.00,0.96,0.06,-0.10,-2.91,0.04,5.35,0.24,-0.19,-0.09
$MOTION,192.00,0.97,0.07,-0.10,-3.10,0.45,4.96,0.24,-0.19,-0.09
$MOTION,225.00,0.96,0.06,-0.10,-2.53,0.31,4.90,0.24,-0.19,-0.08
$GPRMC,031710.000,A,1513.1475,N,14543.0178,E,0.13,218.29,020217,,,A*66
$MOTION,207.00,0.96,0.08,-0.11,-3.64,0.87,6.22,0.24,-0.19,-0.08
$MOTION,192.00,0.98,0.04,-0.10,-3.57,-0.31,4.01,0.24,-0.19,-0.09
$MOTION,192.00,0.96,0.03,-0.10,-3.36,-0.07,5.29,0.24,-0.19,-0.10
$MOTION,206.00,0.97,0.06,-0.08,-2.77,0.48,6.13,0.24,-0.19,-0.09
$MOTION,229.00,0.98,0.05,-0.09,-2.65,0.77,5.80,0.25,-0.20,-0.09
$GPRMC,031711.000,A,1513.1475,N,14543.0178,E,0.28,218.29,020217,,,A*6F
$MOTION,205.00,0.98,0.08,-0.08,-3.10,0.52,5.76,0.25,-0.19,-0.09
$MOTION,192.00,0.96,0.04,-0.09,-3.66,-0.10,4.36,0.24,-0.19,-0.09
$MOTION,192.00,0.95,0.05,-0.09,-2.42,0.75,6.74,0.24,-0.19,-0.09
$MOTION,192.00,0.96,0.06,-0.09,-3.05,0.26,4.95,0.25,-0.19,-0.09
$MOTION,228.00,0.97,0.06,-0.12,-2.45,0.76,6.02,0.25,-0.19,-0.09
$GPRMC,031712.000,A,1513.1475,N,14543.0177,E,0.18,218.29,020217,,,A*60
$MOTION,204.00,0.97,0.09,-0.06,-4.47,-0.47,4.72,0.25,-0.19,-0.10
$MOTION,192.00,0.99,0.04,-0.11,-4.68,-1.05,3.68,0.25,-0.19,-0.09
$MOTION,203.00,0.97,0.04,-0.10,-2.69,0.67,3.61,0.24,-0.19,-0.09
$MOTION,228.00,0.95,0.00,-0.09,-5.41,-6.44,-3.07,0.26,-0.19,-0.09
$GPRMC,031713.000,A,1513.1475,N,14543.0177,E,0.10,218.29,020217,,,A*69
$MOTION,263.00,0.98,0.02,-0.05,-3.75,-2.51,2.70,0.27,-0.19,-0.09
$MOTION,207.00,0.95,-0.02,-0.04,-4.64,-0.43,5.27,0.29,-0.21,-0.09
$MOTION,192.00,0.97,-0.01,-0.03,-4.99,-0.61,7.19,0.29,-0.21,-0.09
$MOTION,192.00,0.96,-0.02,-0.04,-2.68,1.04,5.73,0.29,-0.21,-0.09
$MOTION,225.00,0.97,0.02,-0.04,-2.55,3.76,11.35,0.28,-0.20,-0.08
$GPRMC,031714.000,A,1513.1475,N,14543.0177,E,0.10,218.29,020217,,,A*6E
$MOTION,220.00,0.98,0.01,-0.06,-1.03,1.34,5.17,0.28,-0.21,-0.09
$MOTION,205.00,0.99,-0.04,-0.05,-0.26,0.42,4.46,0.28,-0.21,-0.09
$MOTION,192.00,0.66,-0.45,0.05,-3.75,2.62,6.03,0.28,-0.21,-0.09
$MOTION,208.00,0.87,-0.60,0.23,12.71,7.27,-0.90,0.28,-0.21,-0.09
$MOTION,228.00,0.96,0.00,-0.05,-3.42,0.34,5.00,0.27,-0.20,-0.09
$GPRMC,031715.000,A,1513.1475,N,14543.0176,E,0.10,218.29,020217,,,A*6E
$MOTION,206.00,1.44,0.47,0.03,-7.22,0.63,5.12,0.27,-0.20,-0.08
$MOTION,192.00,0.83,-0.26,-0.89,1.47,-0.94,4.55,0.27,-0.20,-0.09
$MOTION,192.00,0.95,-0.02,-0.04,-3.10,0.35,5.43,0.27,-0.20,-0.09
$MOTION,209.00,0.96,0.04,-0.08,0.49,3.40,6.30,0.26,-0.20,-0.08
$MOTION,226.00,0.97,0.00,-0.05,-3.26,0.38,5.06,0.26,-0.20,-0.08
$GPRMC,031716.000,A,1513.1475,N,14543.0176,E,0.13,218.29,020217,,,A*6E
$MOTION,207.00,0.96,0.03,-0.05,-3.30,0.07,6.20,0.27,-0.20,-0.09
$MOTION,192.00,0.98,-0.03,-0.35,-4.64,-0.01,2.98,0.27,-0.20,-0.09
$MOTION,193.00,0.97,0.00,-0.07,-3.48,0.34,3.99,0.26,-0.20,-0.09
$MOTION,229.00,0.95,0.04,-0.07,-4.94,-0.35,4.81,0.26,-0.20,-0.09
$MOTION,204.00,0.98,0.01,-0.06,-3.22,0.15,7.10,0.27,-0.20,-0.08
$GPRMC,031717.000,A,1513.1475,N,14543.0176,E,0.12,218.29,020217,,,A*6E
$MOTION,207.00,0.96,0.01,-0.06,-3.84,-0.07,4.77,0.27,-0.20,-0.09
$MOTION,192.00,0.95,-0.01,-0.07,-3.21,0.37,5.81,0.27,-0.20,-0.09
$MOTION,192.00,0.94,0.03,-0.06,-2.05,-0.11,4.80,0.27,-0.20,-0.09
$MOTION,221.00,0.97,0.02,-0.06,-2.69,0.53,5.20,0.27,-0.19,-0.09
$GPRMC,031718.000,A,1513.1475,N,14543.0175,E,0.24,218.29,020217,,,A*67
$MOTION,235.00,0.97,0.02,-0.06,-3.07,0.31,5.69,0.27,-0.20,-0.08
$MOTION,204.00,0.96,0.01,-0.06,-3.33,0.33,5.31,0.26,-0.20,-0.09
$MOTION,192.00,0.98,0.01,-0.06,-3.04,0.11,5.88,0.26,-0.20,-0.09
$MOTION,201.00,0.97,0.01,-0.06,-3.32,0.33,5.38,0.26,-0.20,-0.09
$MOTION,228.00,0.97,0.05,-0.04,-1.04,0.90,4.76,0.26,-0.20,-0.09
$GPRMC,031719.000,A,1513.1475,N,14543.0175,E,0.32,218.29,020217,,,A*61
$MOTION,216.00,0.94,-0.04,-0.07,-3.19,0.01,5.18,0.26,-0.19,-0.09
$MOTION,205.00,0.97,0.03,-0.06,-3.96,0.08,5.44,0.26,-0.20,-0.09
$MOTION,192.00,0.96,0.03,-0.03,-3.43,0.37,5.27,0.26,-0.19,-0.09
$MOTION,192.00,0.98,0.01,-0.07,-5.01,-0.67,4.07,0.27,-0.20,-0.09
$MOTION,223.00,0.96,0.04,-0.06,-2.41,0.54,5.62,0.27,-0.20,-0.08
$GPRMC,031720.000,A,1513.1475,N,14543.0174,E,0.18,218.29,020217,,,A*62
$MOTION,207.00,0.96,-0.01,-0.06,-3.13,0.17,5.23,0.26,-0.20,-0.09
$MOTION,192.00,0.97,0.01,-0.05,-2.75,0.60,5.25,0.26,-0.20,-0.09
$MOTION,192.00,0.95,-0.11,-0.16,-3.91,-1.15,3.54,0.27,-0.20,-0.09
$MOTION,209.00,0.94,-0.01,-0.07,-5.57,0.08,9.56,0.28,-0.21,-0.09
$MOTION,230.00,0.93,0.01,-0.04,-3.96,0.39,4.15,0.27,-0.20,-0.08
$GPRMC,031721.000,A,1513.1476,N,14543.0173,E,0.21,218.29,020217,,,A*6D
$MOTION,204.00,0.97,-0.01,-0.05,-6.14,0.60,5.10,0.28,-0.21,-0.09
$MOTION,192.00,0.95,0.00,-0.05,-2.60,1.51,6.44,0.29,-0.21,-0.08
$MOTION,192.00,1.00,-0.01,-0.01,0.41,0.49,5.49,0.26,-0.18,-0.08
$MOTION,192.00,1.00,0.01,-0.05,-3.43,-1.79,6.53,0.26,-0.19,-0.08
$MOTION,225.00,0.94,0.03,-0.08,-4.85,3.82,6.12,0.27,-0.19,-0.08
$GPRMC,031722.000,A,1513.1476,N,14543.0173,E,0.28,218.29,020217,,,A*67
$MOTION,204.00,0.93,0.02,-0.10,-1.26,4.51,10.02,0.25,-0.18,-0.09
$MOTION,193.00,0.90,0.06,-0.07,-1.53,2.49,10.38,0.23,-0.16,-0.08
$MOTION,192.00,0.96,0.07,-0.11,-5.28,-0.01,4.29,0.21,-0.16,-0.08
$MOTION,192.00,0.97,0.10,-0.10,-2.15,0.30,5.42,0.22,-0.17,-0.08
$MOTION,224.00,0.98,0.06,-0.09,-2.84,-2.50,2.85,0.23,-0.18,-0.09
$GPRMC,031723.000,A,1513.1476,N,14543.0172,E,0.09,218.29,020217,,,A*64
$MOTION,205.00,0.91,0.08,-0.08,-6.58,-6.12,-3.43,0.26,-0.20,-0.08
$MOTION,192.00,0.97,0.08,-0.11,-3.40,-0.07,5.12,0.24,-0.19,-0.08
$MOTION,192.00,0.93,0.03,-0.08,-1.73,-4.76,-2.78,0.26,-0.21,-0.08
$MOTION,201.00,0.81,-0.18,-0.10,-2.64,13.65,21.94,0.31,-0.19,-0.10
$MOTION,205.00,1.01,0.01,0.01,-4.48,1.68,8.67,0.28,-0.18,-0.10
$GPRMC,031724.000,A,1513.1476,N,14543.0172,E,0.06,218.29,020217,,,A*6C
$MOTION,203.00,0.99,0.01,-0.04,-2.39,0.81,5.94,0.27,-0.19,-0.10
$MOTION,192.00,0.93,-0.07,-0.08,-3.19,0.46,5.53,0.28,-0.18,-0.09
$MOTION,196.00,0.96,-0.04,-0.04,-4.10,0.95,6.18,0.27,-0.18,-0.10
$MOTION,204.00,0.97,-0.05,-0.10,-3.33,1.49,6.24,0.27,-0.18,-0.10
$MOTION,228.00,0.97,-0.06,-0.09,-4.72,-1.12,4.94,0.28,-0.19,-0.09
$GPRMC,031725.000,A,1513.1476,N,14543.0172,E,0.05,218.29,020217,,,A*6E
$MOTION,204.00,0.95,-0.01,0.05,-3.78,0.09,5.46,0.30,-0.20,-0.09
$MOTION,192.00,0.90,-0.05,-0.06,-4.61,0.37,4.07,0.29,-0.20,-0.10
$MOTION,193.00,0.97,-0.02,-0.02,-4.02,-2.36,1.00,0.31,-0.21,-0.10
$MOTION,205.00,0.90,-0.07,-0.05,-5.71,-3.57,0.43,0.33,-0.22,-0.09
$MOTION,206.00,0.75,0.33,0.22,-2.82,3.84,12.70,0.33,-0.22,-0.09
$GPRMC,031726.000,A,1513.1476,N,14543.0172,E,0.03,218.29,020217,,,A*6B
$MOTION,206.00,0.82,-0.08,-0.07,-7.57,8.62,15.16,0.32,-0.20,-0.09
$MOTION,192.00,1.06,-0.06,-0.00,-2.30,0.68,6.02,0.30,-0.20,-0.08
$MOTION,192.00,0.98,-0.08,-0.00,-4.13,-0.96,4.50,0.31,-0.20,-0.08
$MOTION,198.00,0.95,-0.08,-0.02,-2.89,-0.82,4.48,0.32,-0.21,-0.08
$MOTION,205.00,1.00,-0.11,-0.05,-4.41,-5.62,0.84,0.33,-0.22,-0.09
$GPRMC,031727.000,A,1513.1476,N,14543.0172,E,0.02,218.29,020217,,,A*6B
$MOTION,203.00,0.81,-0.13,0.02,-3.71,3.40,9.54,0.33,-0.21,-0.09
$MOTION,192.00,0.90,-0.14,0.03,-0.22,-0.84,-0.49,0.35,-0.23,-0.08
$MOTION,192.00,0.92,-0.33,0.10,-0.82,0.49,7.51,0.36,-0.23,-0.09
$MOTION,192.00,0.92,-0.08,0.01,-1.67,1.50,7.51,0.34,-0.22,-0.09
$MOTION,226.00,0.98,-0.14,-0.06,0.72,-0.73,-5.29,0.37,-0.24,-0.09
$GPRMC,031728.000,A,1513.1476,N,14543.0172,E,0.05,218.29,020217,,,A*63
$MOTION,205.00,0.95,-0.16,-0.02,-0.81,-0.12,2.36,0.40,-0.26,-0.10
$MOTION,194.00,0.96,-0.15,0.04,-2.29,-0.58,7.10,0.36,-0.21,-0.10
$MOTION,192.00,0.92,-0.21,0.02,-4.26,1.47,8.52,0.33,-0.20,-0.10
$MOTION,192.00,0.96,-0.15,0.03,-3.48,-0.48,5.09,0.33,-0.19,-0.10
$MOTION,228.00,0.87,-0.15,0.00,-9.94,0.96,9.41,0.32,-0.18,-0.10
$GPRMC,031729.000,A,1513.1476,N,14543.0172,E,0.08,218.29,020217,,,A*6F
$MOTION,204.00,0.94,-0.22,-0.05,-2.56,1.61,7.33,0.31,-0.18,-0.10
$MOTION,192.00,0.98,-0.03,0.07,-3.63,0.47,4.06,0.32,-0.18,-0.10
$MOTION,192.00,0.91,-0.18,-0.09,-2.89,2.18,7.25,0.32,-0.18,-0.10
$MOTION,197.00,0.98,-0.14,0.04,-3.33,-1.81,6.05,0.31,-0.17,-0.10
$MOTION,205.00,0.95,-0.15,-0.01,-2.89,1.32,6.56,0.31,-0.17,-0.10
$GPRMC,031730.000,A,1513.1476,N,14543.0172,E,0.15,218.29,020217,,,A*6B
$MOTION,204.00,0.90,-0.13,-0.02,-2.08,0.92,5.01,0.31,-0.17,-0.10
$MOTION,192.00,0.92,-0.15,-0.05,-3.13,0.25,6.05,0.30,-0.17,-0.10
$MOTION,192.00,0.97,-0.17,-0.02,-2.90,0.25,5.28,0.30,-0.17,-0.10
$MOTION,228.00,0.96,-0.15,-0.01,-3.45,0.57,5.40,0.31,-0.17,-0.10
$MOTION,228.00,0.91,-0.17,-0.01,-3.13,0.23,5.70,0.30,-0.17,-0.10
$GPRMC,031731.000,A,1513.1477,N,14543.0172,E,0.07,218.29,020217,,,A*68
$MOTION,206.00,0.94,-0.16,-0.03,-3.27,0.38,5.65,0.31,-0.18,-0.10
$MOTION,192.00,0.95,-0.15,-0.02,-3.42,0.53,5.44,0.31,-0.18,-0.10
$MOTION,192.00,0.97,-0.15,-0.01,-3.39,0.38,4.96,0.31,-0.17,-0.10
$MOTION,216.00,0.94,-0.15,-0.02,-2.91,0.40,5.39,0.30,-0.17,-0.10
$MOTION,207.00,0.93,-0.14,0.00,-3.18,0.20,5.08,0.30,-0.17,-0.10
$GPRMC,031732.000,A,1513.1477,N,14543.0172,E,0.07,218.29,020217,,,A*6B
$MOTION,205.00,0.96,-0.15,-0.02,-3.30,-0.28,4.90,0.31,-0.17,-0.10
$MOTION,192.00,0.97,-0.16,-0.04,-2.47,1.18,6.81,0.30,-0.17,-0.10
$MOTION,218.00,0.98,-0.12,-0.02,-3.36,0.41,5.35,0.30,-0.17,-0.10
$MOTION,205.00,0.95,-0.14,-0.03,-3.42,0.30,4.87,0.30,-0.17,-0.10
$MOTION,225.00,0.95,-0.15,-0.04,-3.65,0.08,5.58,0.30,-0.18,-0.10
$GPRMC,031733.000,A,1513.1477,N,14543.0172,E,0.15,218.29,020217,,,A*69
$MOTION,205.00,0.95,-0.15,-0.04,-3.07,0.30,5.25,0.30,-0.17,-0.10
$MOTION,192.00,0.95,-0.14,-0.02,-2.72,0.71,5.59,0.31,-0.17,-0.09
$MOTION,192.00,0.96,-0.13,-0.03,-3.04,0.17,5.62,0.31,-0.17,-0.10
$MOTION,227.00,0.94,-0.12,-0.02,-4.10,0.14,5.00,0.31,-0.17,-0.10
$GPRMC,031734.000,A,1513.1477,N,14543.0173,E,0.14,218.29,020217,,,A*6E
$MOTION,215.00,0.97,-0.16,-0.04,-2.12,0.25,4.61,0.31,-0.17,-0.09
$MOTION,208.00,0.94,-0.15,-0.02,-3.50,0.42,5.53,0.31,-0.17,-0.10
$MOTION,192.00,0.96,-0.16,-0.04,-1.97,0.09,5.53,0.30,-0.18,-0.10
$MOTION,192.00,0.96,-0.15,-0.01,-3.33,1.17,6.67,0.31,-0.17,-0.09
$MOTION,227.00,0.95,-0.16,-0.02,-5.58,-0.91,4.10,0.35,-0.18,-0.09
$GPRMC,031735.000,A,1513.1477,N,14543.0173,E,0.10,218.29,020217,,,A*6B
$MOTION,204.00,0.97,-0.15,-0.03,-3.39,-1.91,2.12,0.33,-0.20,-0.09
$MOTION,192.00,0.97,-0.16,-0.03,-2.80,0.31,5.12,0.33,-0.20,-0.09
$MOTION,192.00,0.94,-0.14,-0.00,-2.27,0.58,5.91,0.34,-0.20,-0.10
$MOTION,192.00,0.97,-0.15,-0.02,-3.04,0.18,6.27,0.33,-0.18,-0.10
$MOTION,226.00,0.91,-0.17,-0.02,-1.17,3.48,7.83,0.31,-0.18,-0.10
$GPRMC,031736.000,A,1513.1476,N,14543.0173,E,0.19,218.29,020217,,,A*60
$MOTION,204.00,0.97,-0.15,-0.00,-2.39,-0.28,3.68,0.30,-0.17,-0.10
$MOTION,204.00,0.97,-0.15,-0.03,-2.71,0.70,5.64,0.31,-0.18,-0.10
$MOTION,192.00,0.88,-0.15,-0.10,-3.02,0.06,5.17,0.31,-0.18,-0.10
$MOTION,205.00,0.89,-0.05,-0.28,-2.73,-0.16,5.13,0.31,-0.17,-0.10
$MOTION,204.00,0.94,-0.16,-0.04,-2.73,0.46,6.00,0.31,-0.17,-0.10
$GPRMC,031737.000,A,1513.1476,N,14543.0172,E,0.07,218.29,020217,,,A*6F
$MOTION,204.00,0.91,-0.17,-0.03,-4.05,0.52,6.21,0.30,-0.17,-0.10
$MOTION,192.00,0.94,-0.16,-0.06,-4.22,0.34,5.46,0.30,-0.17,-0.10
$MOTION,192.00,0.97,-0.11,-0.06,-3.69,0.16,5.43,0.30,-0.17,-0.10
$MOTION,195.00,0.93,-0.15,-0.04,-2.92,1.32,6.49,0.30,-0.16,-0.10
$MOTION,204.00,0.93,-0.12,-0.04,-3.31,0.70,6.16,0.30,-0.16,-0.10
$GPRMC,031738.000,A,1513.1476,N,14543.0172,E,0.02,218.29,020217,,,A*65
$MOTION,204.00,0.96,-0.13,-0.05,-3.01,0.98,6.49,0.29,-0.16,-0.10
$MOTION,192.00,0.92,-0.12,-0.03,-3.59,2.40,9.66,0.30,-0.16,-0.10
$MOTION,194.00,0.94,-0.13,-0.04,-2.42,1.64,8.14,0.28,-0.16,-0.10
$MOTION,209.00,1.02,-0.15,-0.09,-3.38,0.57,5.48,0.28,-0.16,-0.09
$MOTION,232.00,0.96,-0.07,-0.06,-3.55,0.14,7.62,0.28,-0.16,-0.09
$GPRMC,031739.000,A,1513.1476,N,14543.0172,E,0.18,218.29,020217,,,A*6F
$MOTION,205.00,1.00,-0.10,-0.08,-3.60,0.25,7.98,0.27,-0.16,-0.10
$MOTION,193.00,0.94,-0.09,-0.05,-3.81,0.55,6.06,0.28,-0.16,-0.10
$MOTION,205.00,0.97,-0.10,-0.04,-3.34,0.31,6.89,0.27,-0.16,-0.10
$MOTION,204.00,0.94,-0.10,-0.02,-3.63,-0.11,6.59,0.27,-0.17,-0.09
$MOTION,227.00,0.95,-0.09,-0.03,-3.06,-0.04,5.35,0.28,-0.17,-0.09
$GPRMC,031740.000,A,1513.1476,N,14543.0173,E,0.20,218.29,020217,,,A*6B
$MOTION,205.00,0.98,-0.04,-0.04,-4.19,-0.18,5.41,0.28,-0.17,-0.10
$MOTION,192.00,0.97,-0.09,-0.06,-2.56,0.94,5.46,0.28,-0.17,-0.10
$MOTION,196.00,0.96,-0.10,-0.04,-3.07,0.33,5.85,0.28,-0.17,-0.09
$MOTION,204.00,0.94,-0.10,-0.00,-1.20,1.80,4.48,0.28,-0.17,-0.09
$MOTION,228.00,1.00,-0.10,-0.06,-3.39,0.35,5.29,0.28,-0.17,-0.10
