$GPRMC,032741.343,A,1513.2097,N,14543.0310,E,0.58,0.00,030217,,,A*6C
$GPRMC,032742.347,A,1513.2084,N,14543.0311,E,0.35,0.00,030217,,,A*63
$MOTION,6001.00,-0.99,-0.09,-0.09,-2.13,0.13,5.20,-0.03,0.39,-0.21
$MOTION,203.00,-1.04,-0.05,-0.11,-2.48,0.58,4.68,-0.04,0.40,-0.20
$MOTION,202.00,-1.07,-0.03,-0.11,-4.11,0.31,2.60,-0.03,0.39,-0.20
$MOTION,202.00,-1.08,-0.01,-0.08,-1.77,3.69,6.99,-0.02,0.38,-0.20
$MOTION,222.00,-0.97,-0.04,-0.12,-3.30,0.52,5.28,-0.02,0.38,-0.20
$GPRMC,032743.346,A,1513.2104,N,14543.0304,E,0.18,0.00,030217,,,A*61
$MOTION,221.00,-1.04,0.02,-0.17,-0.03,-0.38,2.18,-0.03,0.39,-0.20
$MOTION,203.00,-1.00,-0.05,-0.08,-2.23,1.16,7.86,-0.02,0.39,-0.20
$MOTION,202.00,-0.98,-0.05,-0.07,-4.76,-0.09,2.96,0.02,0.34,-0.20
$MOTION,218.00,-0.96,-0.06,-0.10,-8.77,3.75,6.89,-0.02,0.37,-0.21
$GPRMC,032744.342,A,1513.2126,N,14543.0297,E,0.10,0.00,030217,,,A*61
$MOTION,275.00,-1.06,-0.02,-0.15,-5.30,-0.35,3.04,-0.00,0.37,-0.20
$MOTION,203.00,-1.03,-0.05,-0.16,-3.45,1.21,5.44,-0.01,0.37,-0.20
$MOTION,202.00,-1.04,0.01,-0.09,-2.33,-0.55,4.65,0.00,0.36,-0.20
$MOTION,202.00,-1.03,-0.04,-0.12,-3.01,-1.18,5.29,-0.02,0.39,-0.21
$MOTION,216.00,-0.91,-0.53,-0.52,18.97,12.08,3.23,-0.02,0.38,-0.20
$GPRMC,032745.341,A,1513.2128,N,14543.0294,E,0.14,0.00,030217,,,A*6A
$MOTION,216.00,-1.00,-0.07,-0.08,-3.61,2.87,13.43,-0.01,0.38,-0.20
$MOTION,202.00,-0.94,0.04,-0.18,-6.84,-0.07,3.13,-0.01,0.38,-0.20
$MOTION,202.00,-1.04,-0.07,-0.11,-1.21,1.03,6.36,-0.01,0.37,-0.21
$MOTION,206.00,-1.00,-0.09,-0.14,-3.55,-0.43,2.94,-0.00,0.37,-0.21
$MOTION,217.00,-1.07,-0.01,-0.10,-2.37,0.51,5.32,0.02,0.35,-0.21
$GPRMC,032746.364,A,1513.1962,N,14543.0349,E,0.21,0.00,030217,,,A*6C
$MOTION,216.00,-1.04,-0.03,-0.08,-3.20,1.29,5.10,-0.01,0.37,-0.20
$MOTION,202.00,-1.07,-0.09,-0.19,5.12,0.11,2.62,-0.01,0.38,-0.20
$MOTION,229.00,-1.10,0.16,-0.09,1.85,-0.08,4.01,-0.01,0.40,-0.20
$MOTION,216.00,-0.91,-0.10,-0.10,-4.46,-3.34,2.22,-0.01,0.39,-0.20
$GPRMC,032747.376,A,1513.1876,N,14543.0380,E,0.10,0.00,030217,,,A*6D
$MOTION,221.00,-1.01,-0.08,-0.11,-1.26,2.89,8.56,-0.04,0.42,-0.20
$MOTION,219.00,-1.08,-0.03,-0.06,-3.99,-0.68,1.72,-0.04,0.42,-0.20
$MOTION,202.00,-1.06,-0.07,-0.11,-1.31,0.39,4.80,-0.03,0.41,-0.20
$MOTION,202.00,-0.61,-0.28,0.02,1.08,3.98,5.82,0.03,0.37,-0.19
$MOTION,216.00,-1.09,-0.04,-0.09,-8.46,-0.83,-0.37,-0.05,0.47,-0.19
$GPRMC,032748.382,A,1513.1834,N,14543.0394,E,0.02,0.00,030217,,,A*69
$MOTION,242.00,-1.14,-0.03,-0.11,-3.00,1.58,5.28,-0.04,0.42,-0.20
$MOTION,202.00,-0.91,-0.08,-0.12,-2.13,1.55,7.09,-0.04,0.43,-0.20
$MOTION,202.00,-0.94,-0.07,-0.08,-2.80,1.06,4.80,-0.04,0.42,-0.20
$MOTION,203.00,-1.06,-0.10,-0.22,-4.32,-1.49,2.68,-0.04,0.43,-0.20
$MOTION,216.00,-1.04,-0.02,-0.11,-2.53,0.55,2.80,-0.05,0.42,-0.20
$GPRMC,032749.422,A,1513.1720,N,14543.0463,E,0.16,0.00,030217,,,A*65
$MOTION,216.00,-1.01,-0.04,-0.08,-2.21,1.17,5.10,-0.04,0.42,-0.20
$MOTION,202.00,-0.98,-0.08,-0.04,-1.85,0.59,4.08,-0.04,0.42,-0.19
$MOTION,226.00,-1.08,0.00,-0.13,0.13,0.62,6.01,-0.04,0.41,-0.20
$MOTION,216.00,-0.88,0.43,-0.19,-4.99,0.55,3.95,-0.04,0.41,-0.20
$MOTION,217.00,-1.40,0.21,-1.18,-4.35,5.47,-3.07,-0.04,0.40,-0.20
$GPRMC,032751.000,A,1513.1717,N,14543.0463,E,0.26,0.00,030217,,,A*6F
$MOTION,216.00,-0.88,-0.18,0.03,-1.02,3.15,7.73,-0.04,0.41,-0.19
$MOTION,202.00,-1.04,-0.06,-0.11,-1.35,2.04,10.18,-0.03,0.41,-0.20
$MOTION,202.00,-1.12,-0.02,-0.14,-1.40,0.10,4.00,-0.04,0.41,-0.19
$MOTION,204.00,-1.01,-0.04,-0.10,-4.91,1.14,6.77,-0.03,0.41,-0.19
$MOTION,202.00,-0.95,-0.07,-0.13,-2.45,-1.19,2.41,-0.02,0.40,-0.19
$MOTION,202.00,-1.09,-0.02,-0.11,7.11,9.28,19.32,-0.05,0.41,-0.20
$MOTION,221.00,-1.04,-0.02,-0.10,-3.04,0.67,4.05,-0.05,0.41,-0.20
$GPRMC,032752.000,A,1513.1715,N,14543.0458,E,0.31,0.00,030217,,,A*60
$MOTION,247.00,-1.00,-0.03,-0.14,-3.37,-1.37,2.61,-0.06,0.42,-0.19
$MOTION,202.00,-0.95,0.03,-0.10,-2.09,-0.07,0.46,-0.09,0.45,-0.20
$MOTION,202.00,-1.04,-0.03,-0.19,-0.22,2.02,3.29,-0.09,0.44,-0.19
$MOTION,202.00,-1.02,0.01,-0.12,-4.28,0.70,1.91,-0.08,0.43,-0.19
$MOTION,217.00,-1.06,-0.04,-0.15,-4.64,0.19,2.57,-0.03,0.38,-0.20
$GPRMC,032753.000,A,1513.1709,N,14543.0459,E,0.26,0.00,030217,,,A*6B
$MOTION,216.00,-1.03,-0.01,-0.13,-3.16,-0.09,3.48,-0.03,0.37,-0.20
$MOTION,203.00,-0.99,0.03,-0.06,-1.70,5.73,10.47,-0.03,0.38,-0.20
$MOTION,202.00,-1.01,-0.01,-0.09,-0.43,4.14,3.01,-0.02,0.39,-0.20
$MOTION,216.00,-1.10,-0.13,0.04,-10.78,-4.40,0.73,-0.04,0.41,-0.21
$MOTION,217.00,-1.00,0.01,-0.10,-3.52,1.00,5.60,-0.04,0.40,-0.20
$GPRMC,032754.000,A,1513.1708,N,14543.0459,E,0.31,0.00,030217,,,A*6B
$MOTION,217.00,-1.00,-0.01,-0.07,-0.16,7.91,12.16,-0.03,0.39,-0.20
$MOTION,202.00,-1.07,0.02,-0.04,-0.29,7.50,12.76,-0.02,0.42,-0.20
$MOTION,202.00,-1.04,-0.17,-0.04,-4.01,-0.48,0.81,-0.01,0.42,-0.20
$MOTION,216.00,-1.06,-0.16,0.04,-0.98,15.93,21.10,0.00,0.43,-0.21
$GPRMC,032755.000,A,1513.1706,N,14543.0457,E,0.29,0.00,030217,,,A*63
$MOTION,267.00,-0.93,-0.19,0.00,-10.73,-8.96,-10.48,0.01,0.42,-0.21
$MOTION,209.00,-1.10,-0.13,-0.05,-4.43,-4.18,-1.81,0.00,0.41,-0.21
$MOTION,202.00,-1.07,-0.08,-0.02,-3.13,0.28,3.73,-0.01,0.41,-0.21
$MOTION,227.00,-1.37,-0.17,0.13,-3.10,-1.56,-7.05,-0.01,0.40,-0.20
$MOTION,218.00,-1.00,-0.20,-0.00,-3.05,19.36,6.53,-0.03,0.44,-0.21
$GPRMC,032756.000,A,1513.1706,N,14543.0455,E,0.23,0.00,030217,,,A*68
$MOTION,216.00,-1.02,-0.10,0.04,-7.88,-11.22,2.51,-0.02,0.44,-0.22
$MOTION,202.00,-1.10,-0.08,0.00,-2.93,-1.61,2.36,-0.01,0.40,-0.21
$MOTION,202.00,-0.95,-0.19,-0.01,-1.24,1.05,2.67,0.01,0.41,-0.21
$MOTION,216.00,-0.98,-0.13,0.02,-3.00,0.58,9.07,-0.01,0.40,-0.21
$MOTION,216.00,-1.00,-0.11,-0.03,-2.69,0.53,5.82,-0.01,0.40,-0.21
$GPRMC,032757.000,A,1513.1703,N,14543.0450,E,0.05,0.00,030217,,,A*6D
$MOTION,219.00,-1.05,-0.04,-0.01,-3.22,0.19,4.53,-0.01,0.41,-0.21
$MOTION,202.00,-1.00,-0.07,-0.02,-3.06,0.39,4.01,-0.01,0.40,-0.21
$MOTION,202.00,-1.06,-0.07,-0.02,-2.76,0.62,4.88,-0.01,0.41,-0.21
$MOTION,216.00,-1.04,-0.07,-0.02,-2.92,0.97,5.35,-0.01,0.41,-0.21
$GPRMC,032758.000,A,1513.1702,N,14543.0456,E,0.10,0.00,030217,,,A*61
$MOTION,249.00,-1.02,-0.07,-0.01,-3.33,0.37,4.23,-0.01,0.40,-0.21
$MOTION,202.00,-1.04,-0.10,-0.02,-2.89,0.64,5.24,-0.01,0.40,-0.21
$MOTION,202.00,-1.05,-0.07,-0.01,-3.15,0.47,5.23,-0.01,0.41,-0.21
$MOTION,202.00,-1.03,-0.07,-0.03,-2.78,0.63,4.73,-0.01,0.40,-0.21
$MOTION,216.00,-1.02,-0.08,-0.02,-3.04,0.28,4.62,-0.01,0.41,-0.21
$GPRMC,032759.000,A,1513.1698,N,14543.0461,E,0.10,0.00,030217,,,A*66
$MOTION,217.00,-1.02,-0.09,-0.03,-3.09,0.55,4.82,-0.01,0.41,-0.21
$MOTION,202.00,-1.02,-0.09,-0.01,-2.69,0.65,4.58,-0.00,0.40,-0.21
$MOTION,203.00,-1.00,-0.10,-0.02,-2.58,0.43,4.66,-0.01,0.41,-0.20
$MOTION,205.00,-1.00,-0.07,-0.00,-3.02,0.10,4.37,-0.01,0.41,-0.21
$MOTION,217.00,-1.05,-0.09,-0.03,-3.10,0.30,3.94,-0.01,0.40,-0.21
$GPRMC,032800.000,A,1513.1695,N,14543.0467,E,0.18,0.00,030217,,,A*66
$MOTION,218.00,-1.03,-0.09,-0.02,-2.86,0.61,4.51,-0.01,0.40,-0.21
$MOTION,202.00,-1.04,-0.05,-0.02,-3.04,0.12,3.99,-0.01,0.40,-0.21
$MOTION,222.00,-1.02,-0.09,-0.04,-3.00,-0.12,3.55,-0.01,0.40,-0.21
$MOTION,218.00,-1.06,-0.07,-0.00,-2.81,0.31,4.49,-0.01,0.40,-0.21
$GPRMC,032801.000,A,1513.1699,N,14543.0464,E,0.24,0.00,030217,,,A*67
$MOTION,224.00,-1.02,-0.10,-0.02,-2.83,0.18,4.36,-0.01,0.40,-0.21
$MOTION,215.00,-1.02,-0.08,-0.01,-2.81,0.72,4.73,-0.00,0.40,-0.21
$MOTION,202.00,-1.02,-0.07,-0.03,-3.01,0.21,4.22,-0.01,0.40,-0.20
$MOTION,202.00,-1.02,-0.06,-0.01,-2.92,0.44,4.24,-0.01,0.40,-0.21
$MOTION,218.00,-1.03,-0.08,-0.03,-2.81,0.46,4.90,-0.01,0.40,-0.21
$GPRMC,032802.000,A,1513.1704,N,14543.0460,E,0.29,0.00,030217,,,A*68
$MOTION,239.00,-1.06,-0.07,-0.02,-2.47,0.49,5.10,-0.01,0.40,-0.21
$MOTION,202.00,-1.06,-0.04,-0.02,-3.01,0.27,5.06,-0.00,0.41,-0.21
$MOTION,202.00,-1.00,-0.09,-0.03,-3.12,0.13,4.06,-0.01,0.40,-0.21
$MOTION,202.00,-1.04,-0.10,-0.02,-2.84,0.91,5.66,-0.01,0.40,-0.21
$MOTION,217.00,-1.01,-0.07,-0.01,-2.88,0.50,4.34,-0.01,0.40,-0.20
$GPRMC,032803.000,A,1513.1708,N,14543.0456,E,0.31,0.00,030217,,,A*69
$MOTION,217.00,-1.02,-0.08,-0.02,-3.01,0.40,4.79,-0.01,0.41,-0.21
$MOTION,202.00,-1.02,-0.06,-0.02,-2.65,0.43,4.27,-0.01,0.40,-0.20
$MOTION,229.00,-1.04,-0.07,-0.04,-2.87,0.67,5.20,-0.01,0.40,-0.21
$MOTION,216.00,-1.02,-0.09,-0.02,-3.07,0.68,4.43,-0.01,0.40,-0.21
$GPRMC,032804.000,A,1513.1709,N,14543.0455,E,0.21,0.00,030217,,,A*6D
$MOTION,283.00,-1.02,-0.06,-0.05,-2.76,0.55,5.28,-0.00,0.40,-0.21
$MOTION,202.00,-1.03,-0.07,-0.03,-2.88,0.07,4.63,-0.00,0.41,-0.21
$MOTION,202.00,-1.09,-0.05,-0.02,-3.04,0.58,4.85,-0.01,0.40,-0.20
$MOTION,202.00,-1.02,-0.11,-0.03,-3.63,0.23,4.69,-0.01,0.40,-0.21
$MOTION,218.00,-1.02,-0.07,-0.03,-3.03,0.81,5.20,-0.01,0.40,-0.21
$GPRMC,032805.000,A,1513.1710,N,14543.0454,E,0.22,0.00,030217,,,A*66
$MOTION,216.00,-1.03,-0.08,-0.02,-2.88,0.34,4.14,-0.01,0.40,-0.20
$MOTION,202.00,-1.05,-0.08,-0.04,-2.81,0.12,4.02,-0.01,0.40,-0.21
$MOTION,202.00,-1.04,-0.07,-0.03,-3.04,0.25,5.20,-0.01,0.40,-0.21
$MOTION,216.00,-1.09,-0.07,-0.06,-3.10,-1.85,4.34,-0.01,0.40,-0.21
$MOTION,216.00,-1.05,-0.11,-0.03,-3.32,-0.11,4.62,-0.01,0.40,-0.21
$GPRMC,032806.000,A,1513.1710,N,14543.0454,E,0.15,0.00,030217,,,A*61
$MOTION,217.00,-1.07,-0.06,-0.01,-3.07,0.36,5.07,-0.01,0.40,-0.21
$MOTION,202.00,-1.05,-0.07,-0.03,-2.63,0.19,4.19,-0.00,0.40,-0.21
$MOTION,204.00,-1.05,-0.05,-0.04,-3.01,1.91,3.98,-0.01,0.40,-0.21
$MOTION,216.00,-1.04,-0.05,-0.02,-2.83,-0.08,3.66,-0.01,0.40,-0.21
$MOTION,216.00,-1.01,-0.07,-0.04,-3.12,0.68,3.70,-0.01,0.40,-0.22
$GPRMC,032807.000,A,1513.1710,N,14543.0456,E,0.12,0.00,030217,,,A*65
$MOTION,216.00,-0.97,-0.10,-0.02,-2.81,0.68,4.29,-0.01,0.40,-0.22
$MOTION,202.00,-1.03,-0.11,-0.03,-2.80,0.61,4.19,-0.01,0.40,-0.21
$MOTION,202.00,-1.03,-0.05,-0.03,-3.42,0.47,4.51,-0.01,0.40,-0.21
$MOTION,217.00,-1.09,-0.06,-0.04,-2.95,0.10,4.18,-0.01,0.40,-0.21
$GPRMC,032808.000,A,1513.1710,N,14543.0456,E,0.19,0.00,030217,,,A*61
$MOTION,237.00,-1.02,-0.10,-0.02,-2.86,0.49,4.11,-0.00,0.40,-0.21
$MOTION,203.00,-1.02,-0.07,-0.04,-2.87,0.32,4.52,-0.01,0.40,-0.22
$MOTION,202.00,-1.05,-0.06,-0.01,-2.89,0.26,4.78,-0.00,0.40,-0.22
$MOTION,202.00,-1.02,-0.06,0.02,-2.79,0.40,1.94,-0.01,0.40,-0.22
$MOTION,217.00,-1.02,-0.08,-0.00,-2.94,0.33,4.13,-0.01,0.40,-0.22
$GPRMC,032809.000,A,1513.1712,N,14543.0455,E,0.13,0.00,030217,,,A*6B
$MOTION,216.00,-1.07,-0.07,-0.04,-2.92,0.25,4.29,-0.01,0.40,-0.21
$MOTION,202.00,-1.01,-0.11,-0.02,-2.59,0.82,5.79,-0.00,0.41,-0.22
$MOTION,202.00,-1.03,-0.10,-0.02,-2.65,0.65,5.72,-0.01,0.41,-0.21
$MOTION,217.00,-1.05,-0.04,-0.01,-2.99,0.81,5.19,-0.01,0.40,-0.21
$MOTION,216.00,-1.00,-0.05,-0.04,-2.85,0.34,4.05,-0.01,0.41,-0.21
$GPRMC,032810.000,A,1513.1713,N,14543.0454,E,0.19,0.00,030217,,,A*69
$MOTION,216.00,-1.04,-0.06,-0.01,-3.20,0.49,4.46,-0.01,0.40,-0.21
$MOTION,202.00,-1.06,-0.06,-0.06,-3.13,0.65,5.40,-0.01,0.40,-0.21
$MOTION,202.00,-0.99,-0.06,-0.02,-2.85,0.79,5.25,-0.01,0.41,-0.21
$MOTION,216.00,-1.05,-0.07,-0.03,-3.03,1.89,4.51,-0.01,0.40,-0.21
$GPRMC,032811.000,A,1513.1714,N,14543.0454,E,0.17,0.00,030217,,,A*61
$MOTION,270.00,-1.04,-0.11,-0.01,-3.14,0.26,4.51,-0.01,0.40,-0.21
$MOTION,209.00,-1.09,-0.01,-0.02,-3.24,0.16,4.79,-0.01,0.40,-0.21
$MOTION,202.00,-1.02,-0.10,-0.02,-3.04,0.55,5.25,-0.01,0.40,-0.21
$MOTION,227.00,-1.02,-0.11,-0.03,-2.80,0.52,4.84,-0.01,0.40,-0.21
$MOTION,216.00,-1.08,-0.08,-0.04,-2.62,0.81,5.89,-0.01,0.40,-0.20
$GPRMC,032812.000,A,1513.1715,N,14543.0454,E,0.20,0.00,030217,,,A*67
$MOTION,216.00,-1.07,-0.07,-0.02,-2.83,0.31,5.08,-0.01,0.40,-0.21
$MOTION,202.00,-1.01,-0.06,-0.00,-2.84,0.52,4.44,-0.01,0.40,-0.21
$MOTION,202.00,-1.02,-0.07,-0.02,-3.30,0.61,5.35,-0.01,0.40,-0.22
$MOTION,202.00,-1.01,-0.09,-0.03,-2.93,0.72,5.02,-0.01,0.40,-0.21
$MOTION,217.00,-1.04,-0.04,-0.00,-2.83,0.33,4.55,-0.01,0.40,-0.21
$GPRMC,032813.000,A,1513.1718,N,14543.0453,E,0.21,0.00,030217,,,A*6D
$MOTION,217.00,-1.05,-0.08,-0.03,-3.15,-1.82,4.61,-0.01,0.40,-0.21
$MOTION,202.00,-0.98,-0.10,-0.03,-2.86,0.55,4.40,-0.01,0.40,-0.21
$MOTION,202.00,-1.02,-0.06,-0.03,-2.81,0.49,4.96,-0.01,0.40,-0.21
$MOTION,202.00,-1.05,-0.05,-0.03,-2.90,0.49,4.85,-0.01,0.40,-0.21
$MOTION,216.00,-1.07,-0.08,-0.03,-3.00,0.38,5.10,-0.01,0.40,-0.20
$GPRMC,032814.000,A,1513.1718,N,14543.0453,E,0.20,0.00,030217,,,A*6B
$MOTION,217.00,-1.04,-0.08,-0.03,-2.68,0.81,5.53,-0.01,0.40,-0.21
$MOTION,202.00,-1.07,-0.06,-0.01,-3.13,0.60,5.79,-0.01,0.41,-0.22
$MOTION,202.00,-1.07,-0.09,-0.03,-2.64,-0.04,3.24,-0.01,0.40,-0.21
$MOTION,218.00,-0.99,-0.09,-0.03,-2.81,0.95,5.54,-0.01,0.41,-0.21
$MOTION,217.00,-1.00,-0.12,0.02,-3.15,0.26,4.73,-0.01,0.40,-0.20
$GPRMC,032815.000,A,1513.1719,N,14543.0453,E,0.07,0.00,030217,,,A*6E
$MOTION,217.00,-1.06,-0.03,-0.04,-3.20,0.26,4.60,-0.01,0.40,-0.21
$MOTION,202.00,-1.10,-0.06,-0.03,-3.04,0.37,5.36,-0.01,0.41,-0.21
$MOTION,202.00,-1.08,-0.05,-0.01,-3.27,0.58,4.34,-0.01,0.40,-0.21
$MOTION,217.00,-1.05,-0.08,-0.03,-3.29,0.17,4.30,-0.00,0.40,-0.20
$GPRMC,032816.000,A,1513.1718,N,14543.0453,E,0.02,0.00,030217,,,A*69
$MOTION,281.00,-1.03,-0.07,-0.04,-2.89,0.65,5.38,-0.01,0.40,-0.20
$MOTION,209.00,-1.05,-0.07,-0.00,-2.95,0.34,5.10,-0.01,0.40,-0.20
$MOTION,202.00,-1.02,-0.08,-0.02,-2.71,0.55,4.52,-0.01,0.40,-0.21
$MOTION,202.00,-1.04,-0.05,-0.02,-3.04,0.04,4.15,-0.01,0.40,-0.21
$MOTION,215.00,-1.06,-0.05,-0.01,-3.00,0.72,5.25,-0.01,0.40,-0.21
$GPRMC,032817.000,A,1513.1718,N,14543.0453,E,0.02,0.00,030217,,,A*68
$MOTION,216.00,-1.04,-0.08,-0.03,-3.05,0.51,5.41,-0.01,0.40,-0.21
$MOTION,202.00,-1.07,-0.07,-0.02,-2.96,0.91,5.64,-0.01,0.40,-0.21
$MOTION,202.00,-1.05,-0.08,-0.04,-3.01,-0.03,3.61,-0.01,0.40,-0.21
$MOTION,216.00,-1.00,-0.05,-0.00,-3.07,0.52,3.67,-0.01,0.40,-0.21
$MOTION,216.00,-1.04,-0.05,-0.01,-3.33,0.45,4.02,-0.01,0.40,-0.21
$GPRMC,032818.000,A,1513.1718,N,14543.0453,E,0.01,0.00,030217,,,A*64
$MOTION,216.00,-1.02,-0.07,-0.02,-2.96,0.79,5.15,-0.02,0.40,-0.20
$MOTION,202.00,-1.00,-0.11,-0.01,-2.86,0.98,5.71,-0.01,0.40,-0.21
$MOTION,202.00,-1.04,-0.08,-0.03,-2.97,0.18,3.83,-0.01,0.40,-0.21
$MOTION,217.00,-0.99,-0.11,-0.02,-2.88,0.72,4.98,-0.01,0.41,-0.21
$GPRMC,032819.000,A,1513.1719,N,14543.0453,E,0.02,0.00,030217,,,A*67
$MOTION,282.00,-1.06,-0.05,-0.03,-3.07,0.34,4.10,-0.02,0.40,-0.22
$MOTION,210.00,-1.03,-0.08,-0.03,-2.84,0.45,4.28,-0.01,0.40,-0.22
$MOTION,202.00,-1.04,-0.09,-0.05,-2.69,0.77,5.20,-0.01,0.40,-0.22
$MOTION,225.00,-0.99,-0.15,-0.16,-3.14,0.54,5.10,-0.01,0.41,-0.21
$MOTION,216.00,-1.04,-0.09,-0.02,-2.85,0.55,5.29,-0.01,0.41,-0.22
$GPRMC,032820.000,A,1513.1719,N,14543.0453,E,0.02,0.00,030217,,,A*6D
$MOTION,216.00,-1.04,-0.09,-0.01,-2.72,0.41,4.49,-0.01,0.40,-0.21
$MOTION,202.00,-1.03,-0.09,-0.03,-2.71,0.64,5.04,-0.01,0.40,-0.21
$MOTION,203.00,-1.05,-0.07,-0.02,-2.94,0.40,4.88,-0.01,0.40,-0.22
$MOTION,217.00,-1.03,-0.08,-0.02,-2.78,0.51,4.79,-0.01,0.40,-0.21
$GPRMC,032821.000,A,1513.1720,N,14543.0453,E,0.01,0.00,030217,,,A*65
$MOTION,219.00,-1.02,-0.07,-0.02,-3.15,0.47,4.73,-0.01,0.40,-0.21
$MOTION,216.00,-1.07,-0.06,-0.02,-2.73,0.20,4.24,-0.01,0.40,-0.21
$MOTION,202.00,-1.01,-0.09,-0.01,-3.17,0.48,4.13,-0.01,0.41,-0.21
$MOTION,202.00,-1.02,-0.07,-0.02,-2.81,0.57,4.55,-0.01,0.40,-0.21
$MOTION,217.00,-1.02,-0.06,-0.02,-2.98,0.74,5.43,-0.01,0.40,-0.21
$GPRMC,032822.000,A,1513.1720,N,14543.0454,E,0.01,0.00,030217,,,A*61
$MOTION,218.00,-1.05,-0.05,-0.03,-3.06,0.45,4.50,-0.01,0.40,-0.21
$MOTION,211.00,-1.03,-0.07,-0.03,-2.91,0.60,4.96,-0.01,0.40,-0.21
$MOTION,202.00,-1.02,-0.06,-0.02,-2.92,0.45,5.36,-0.01,0.40,-0.21
$MOTION,229.00,-1.02,-0.08,-0.02,-2.98,0.96,5.02,-0.01,0.40,-0.21
$MOTION,216.00,-1.07,-0.07,-0.02,-3.31,0.49,4.82,-0.01,0.41,-0.21
$GPRMC,032823.000,A,1513.1720,N,14543.0454,E,0.01,0.00,030217,,,A*60
$MOTION,216.00,-1.05,-0.08,-0.02,-2.53,0.76,5.19,-0.01,0.40,-0.21
$MOTION,202.00,-1.06,-0.06,0.00,-3.01,0.04,3.74,-0.02,0.40,-0.22
$MOTION,202.00,-1.00,-0.07,-0.02,-2.80,0.26,3.66,-0.01,0.41,-0.21
$MOTION,216.00,-1.00,-0.10,-0.02,-2.95,0.61,4.71,-0.01,0.40,-0.20
$MOTION,217.00,-1.10,-0.05,-0.03,-2.78,0.49,4.37,-0.02,0.40,-0.21
$GPRMC,032824.000,A,1513.1720,N,14543.0453,E,0.02,0.00,030217,,,A*63
$MOTION,217.00,-1.02,-0.07,-0.06,-3.08,0.49,4.61,-0.01,0.40,-0.21
$MOTION,202.00,-1.08,-0.07,-0.02,-2.90,1.36,5.59,-0.01,0.40,-0.21
$MOTION,202.00,-1.07,-0.11,-0.04,-2.40,0.94,6.21,-0.01,0.40,-0.21
$MOTION,216.00,-1.06,-0.04,-0.03,-2.92,0.45,4.13,-0.01,0.40,-0.21
$GPRMC,032825.000,A,1513.1734,N,14543.0439,E,0.02,0.00,030217,,,A*6B
$MOTION,216.00,-1.00,-0.07,-0.02,-3.41,0.12,2.13,-0.01,0.40,-0.21
$MOTION,216.00,-1.03,-0.04,-0.03,-2.89,0.80,4.75,-0.01,0.40,-0.21
$MOTION,202.00,-1.01,-0.06,-0.02,-3.16,0.11,4.17,-0.01,0.40,-0.21
$MOTION,202.00,-1.04,-0.07,-0.01,-3.32,0.40,5.20,-0.01,0.40,-0.21
$MOTION,217.00,-1.02,-0.07,-0.02,-3.19,0.45,5.24,-0.01,0.40,-0.21
$GPRMC,032826.000,A,1513.1734,N,14543.0436,E,0.01,0.00,030217,,,A*64
$MOTION,216.00,-0.96,-0.09,-0.01,-2.98,0.85,5.48,-0.01,0.40,-0.21
$MOTION,202.00,-1.03,-0.08,-0.03,-2.49,0.52,4.01,-0.01,0.40,-0.21
$MOTION,202.00,-1.04,-0.06,-0.00,-3.00,0.68,5.53,-0.01,0.40,-0.21
$MOTION,202.00,-1.04,-0.11,-0.02,-3.18,0.36,3.92,-0.01,0.40,-0.21
$MOTION,217.00,-0.98,-0.10,-0.02,-2.79,0.91,4.83,-0.01,0.40,-0.21
$GPRMC,032827.000,A,1513.1732,N,14543.0433,E,0.01,0.00,030217,,,A*66
$MOTION,216.00,-1.04,-0.07,-0.04,-3.44,0.25,4.46,-0.01,0.40,-0.21
$MOTION,202.00,-1.01,-0.09,-0.03,-2.89,0.86,4.64,-0.02,0.40,-0.21
$MOTION,222.00,-1.01,-0.08,-0.01,-3.07,0.96,5.32,-0.01,0.40,-0.21
$MOTION,216.00,-1.02,-0.03,-0.02,-2.92,1.91,2.71,-0.02,0.40,-0.21
$GPRMC,032828.000,A,1513.1725,N,14543.0427,E,0.01,0.00,030217,,,A*6A
$MOTION,223.00,-1.02,-0.06,-0.04,-3.03,0.84,7.55,-0.02,0.40,-0.22
$MOTION,217.00,-1.05,-0.07,-0.02,-3.17,0.58,5.41,-0.02,0.40,-0.22
$MOTION,202.00,-1.08,-0.02,-0.01,-3.22,0.31,4.85,-0.01,0.40,-0.21
$MOTION,202.00,-1.09,-0.05,-0.04,-2.90,0.46,5.29,-0.01,0.41,-0.22
$MOTION,217.00,-1.06,-0.08,-0.05,-2.93,0.55,5.67,-0.01,0.40,-0.21
$GPRMC,032829.000,A,1513.1720,N,14543.0421,E,0.01,0.00,030217,,,A*68
$MOTION,216.00,-1.07,-0.06,-0.04,-3.24,0.05,4.07,-0.02,0.40,-0.22
$MOTION,207.00,-1.10,-0.05,-0.02,-2.93,0.62,4.89,-0.01,0.40,-0.21
$MOTION,203.00,-1.15,-0.02,-0.02,-3.00,0.15,5.85,-0.01,0.41,-0.21
$MOTION,225.00,-1.06,-0.06,-0.02,-2.56,0.44,5.26,-0.01,0.40,-0.21
$MOTION,216.00,-0.99,-0.07,-0.01,-3.34,0.89,5.33,-0.01,0.40,-0.21
$GPRMC,032830.000,A,1513.1716,N,14543.0417,E,0.01,0.00,030217,,,A*60
$MOTION,216.00,-1.04,-0.08,-0.05,-2.99,0.43,4.62,-0.01,0.40,-0.21
$MOTION,202.00,-0.96,-0.08,-0.02,-2.89,0.20,2.46,-0.01,0.40,-0.22
$MOTION,202.00,-1.04,-0.08,-0.02,-2.82,1.26,5.74,-0.02,0.40,-0.22
$MOTION,217.00,-0.97,-0.09,-0.02,-2.89,0.51,5.60,-0.01,0.40,-0.22
$MOTION,217.00,-1.04,-0.05,-0.01,-2.98,0.53,5.24,-0.01,0.40,-0.21
$GPRMC,032831.000,A,1513.1694,N,14543.0396,E,0.01,0.00,030217,,,A*64
$MOTION,217.00,-1.01,-0.08,-0.04,-3.08,0.16,4.10,-0.01,0.40,-0.21
$MOTION,204.00,-1.00,-0.07,-0.02,-3.16,0.45,4.34,-0.01,0.40,-0.21
$MOTION,226.00,-0.97,-0.08,-0.04,-2.79,0.10,5.62,-0.01,0.40,-0.21
$MOTION,216.00,-1.03,-0.08,-0.03,-2.83,0.51,4.67,-0.01,0.40,-0.21
$GPRMC,032832.000,A,1513.1682,N,14543.0381,E,0.01,0.00,030217,,,A*66
$MOTION,217.00,-1.05,-0.06,-0.04,-2.74,0.56,5.73,-0.01,0.40,-0.21
$MOTION,202.00,-1.04,-0.05,-0.01,-3.35,0.62,5.16,-0.01,0.40,-0.21
$MOTION,202.00,-1.09,-0.06,-0.02,-3.01,0.43,5.26,-0.01,0.40,-0.21
$MOTION,217.00,-1.07,-0.04,-0.02,-2.89,0.37,5.21,-0.01,0.40,-0.21
$MOTION,218.00,-1.06,-0.06,-0.02,-3.27,0.04,4.46,-0.01,0.40,-0.21
$GPRMC,032833.000,A,1513.1675,N,14543.0371,E,0.01,0.00,030217,,,A*60
$MOTION,216.00,-1.02,-0.06,-0.02,-3.38,0.13,3.72,-0.01,0.40,-0.21
$MOTION,204.00,-1.03,-0.09,-0.02,-2.80,0.33,3.78,-0.00,0.40,-0.22
$MOTION,202.00,-0.96,-0.09,-0.03,-2.78,1.20,4.81,-0.01,0.40,-0.18
$MOTION,216.00,-0.98,-0.08,-0.00,-2.53,1.36,5.76,-0.01,0.40,-0.20
$GPRMC,032834.000,A,1513.1671,N,14543.0363,E,0.01,0.00,030217,,,A*60
$MOTION,279.00,-1.01,-0.08,-0.05,-3.01,0.22,4.19,-0.01,0.40,-0.21
$MOTION,205.00,-1.05,-0.05,-0.03,-2.86,0.19,4.96,-0.01,0.40,-0.22
$MOTION,202.00,-1.09,-0.02,-0.02,-2.95,-0.19,4.15,-0.01,0.40,-0.21
$MOTION,229.00,-1.09,-0.05,-0.03,-3.06,0.96,6.15,-0.01,0.40,-0.21
$MOTION,217.00,-0.99,-0.09,-0.02,-2.71,0.71,5.31,-0.02,0.40,-0.21
$GPRMC,032835.000,A,1513.1669,N,14543.0356,E,0.01,0.00,030217,,,A*6E
$MOTION,216.00,-1.13,-0.02,-0.02,-3.47,0.06,5.31,-0.01,0.40,-0.21
$MOTION,203.00,-1.03,-0.12,-0.01,-2.81,0.54,4.10,-0.01,0.40,-0.21
$MOTION,202.00,-1.07,-0.07,-0.04,-2.68,0.37,5.15,-0.01,0.40,-0.21
$MOTION,217.00,-0.99,-0.11,-0.04,-3.24,0.35,3.99,-0.01,0.40,-0.21
$MOTION,218.00,-1.01,-0.09,-0.02,-3.04,1.28,6.18,-0.01,0.40,-0.21
$GPRMC,032836.000,A,1513.1667,N,14543.0352,E,0.01,0.00,030217,,,A*67
$MOTION,217.00,-1.01,-0.07,-0.02,-3.30,0.41,4.85,-0.01,0.40,-0.21
$MOTION,202.00,-0.99,-0.11,-0.02,-2.77,1.41,6.15,-0.01,0.40,-0.21
$MOTION,202.00,-1.03,-0.09,-0.02,-2.82,0.65,5.00,-0.01,0.40,-0.21
$MOTION,216.00,-1.06,-0.09,-0.02,-2.65,0.69,5.29,-0.01,0.40,-0.21
$GPRMC,032837.000,A,1513.1665,N,14543.0348,E,0.01,0.00,030217,,,A*6F
$MOTION,269.00,-0.99,-0.09,0.02,-2.70,0.99,6.69,-0.01,0.40,-0.21
$MOTION,210.00,-1.08,-0.06,0.00,-2.83,0.10,3.98,-0.01,0.40,-0.21
$MOTION,202.00,-1.03,-0.08,-0.03,-2.94,0.71,5.04,-0.01,0.40,-0.21
$MOTION,224.00,-1.02,-0.06,-0.03,-3.07,0.41,4.40,-0.02,0.40,-0.21
$MOTION,218.00,-0.99,-0.07,-0.00,-3.36,0.39,4.60,-0.01,0.40,-0.21
$GPRMC,032838.000,A,1513.1665,N,14543.0348,E,0.02,0.00,030217,,,A*63
$MOTION,217.00,-1.10,-0.05,-0.02,-2.90,0.61,5.45,-0.01,0.40,-0.21
$MOTION,203.00,-0.98,-0.08,-0.02,-3.27,-0.02,4.57,-0.01,0.40,-0.22
$MOTION,202.00,-1.05,-0.09,-0.02,-2.94,1.50,3.83,-0.01,0.40,-0.21
$MOTION,216.00,-1.01,-0.07,-0.03,-2.92,0.03,4.77,-0.01,0.40,-0.21
$MOTION,216.00,-1.02,-0.07,-0.03,-3.04,0.19,3.60,-0.01,0.41,-0.22
$GPRMC,032839.000,A,1513.1665,N,14543.0348,E,0.01,0.00,030217,,,A*61
$MOTION,217.00,-1.05,-0.07,-0.04,-3.53,0.52,4.88,-0.01,0.41,-0.21
$MOTION,202.00,-1.02,-0.05,-0.05,-3.40,-0.21,3.03,-0.01,0.40,-0.22
$MOTION,202.00,-1.12,-0.05,-0.03,-2.72,0.52,4.61,-0.01,0.40,-0.22
$MOTION,216.00,-0.95,-0.12,-0.01,-3.02,0.28,3.29,-0.01,0.40,-0.21
$GPRMC,032840.000,A,1513.1665,N,14543.0348,E,0.01,0.00,030217,,,A*6F
$MOTION,216.00,-1.11,-0.07,-0.02,-3.14,0.54,5.03,-0.02,0.40,-0.22
$MOTION,216.00,-1.02,-0.08,-0.03,-3.39,0.07,4.20,-0.02,0.40,-0.21
$MOTION,202.00,-0.99,-0.07,-0.03,-3.16,0.87,4.84,-0.02,0.40,-0.22
$MOTION,202.00,-1.04,-0.06,-0.03,-2.93,0.08,5.57,-0.02,0.40,-0.21
$MOTION,217.00,-1.04,-0.11,-0.03,-2.87,0.70,5.40,-0.02,0.40,-0.21
$GPRMC,032841.000,A,1513.1665,N,14543.0348,E,0.01,0.00,030217,,,A*6E
$MOTION,217.00,-1.03,-0.06,-0.02,-2.89,0.58,5.11,-0.01,0.40,-0.22
$MOTION,203.00,-1.02,-0.08,-0.05,-3.30,0.44,4.59,-0.01,0.41,-0.21
$MOTION,202.00,-0.98,-0.08,-0.01,-3.18,0.47,4.16,-0.02,0.40,-0.21
$MOTION,219.00,-1.07,-0.04,-0.06,-3.09,0.37,4.13,-0.01,0.41,-0.21
$MOTION,216.00,-1.06,-0.07,-0.02,-2.92,0.07,4.56,-0.02,0.41,-0.21
$GPRMC,032842.000,A,1513.1665,N,14543.0348,E,0.01,0.00,030217,,,A*6D
$MOTION,217.00,-1.05,-0.03,-0.02,-2.84,0.64,3.93,-0.02,0.41,-0.21
$MOTION,202.00,-1.07,-0.03,-0.06,-3.22,0.54,6.66,-0.02,0.41,-0.22
$MOTION,202.00,-1.02,-0.05,-0.02,-2.98,0.31,4.87,-0.01,0.41,-0.22
$MOTION,217.00,-1.04,-0.03,-0.01,-3.06,0.41,5.52,-0.02,0.41,-0.21
$MOTION,216.00,-1.06,-0.03,-0.05,-3.13,0.07,4.14,-0.02,0.40,-0.21
$GPRMC,032843.000,A,1513.1665,N,14543.0348,E,0.01,0.00,030217,,,A*6C
$MOTION,217.00,-1.08,-0.06,-0.03,-2.35,0.87,5.86,-0.02,0.40,-0.21
$MOTION,202.00,-0.96,-0.09,-0.02,-3.07,0.40,4.58,-0.02,0.40,-0.21
$MOTION,202.00,-0.96,-0.05,-0.04,-2.99,-1.85,3.04,-0.01,0.40,-0.21
$MOTION,218.00,-1.02,-0.04,0.01,-3.04,0.42,3.75,-0.02,0.40,-0.21
$GPRMC,032844.000,A,1513.1665,N,14543.0348,E,0.01,0.00,030217,,,A*6B
$MOTION,216.00,-0.96,-0.08,-0.03,-3.08,0.51,4.60,-0.01,0.40,-0.21
$MOTION,216.00,-1.01,-0.04,-0.04,-3.43,0.50,5.17,-0.02,0.40,-0.21
$MOTION,202.00,-1.05,-0.09,-0.05,-2.78,1.08,7.13,-0.01,0.40,-0.22
$MOTION,202.00,-1.05,-0.09,-0.03,-3.08,0.35,5.63,-0.01,0.39,-0.21
$MOTION,216.00,-1.03,-0.07,-0.03,-3.10,0.32,4.36,-0.02,0.40,-0.21
$GPRMC,032845.000,A,1513.1665,N,14543.0348,E,0.01,0.00,030217,,,A*6A
$MOTION,217.00,-1.07,-0.10,-0.02,-2.92,0.16,5.17,-0.01,0.40,-0.21
$MOTION,202.00,-1.05,-0.06,-0.01,-3.02,0.24,4.85,-0.02,0.40,-0.21
$MOTION,202.00,-0.98,-0.07,-0.01,-3.01,0.99,6.08,-0.02,0.40,-0.21
$MOTION,202.00,-1.08,-0.05,-0.02,-3.01,0.08,5.08,-0.01,0.40,-0.21
$MOTION,217.00,-1.04,-0.05,-0.02,-3.13,0.58,5.08,-0.02,0.40,-0.21
$GPRMC,032846.000,A,1513.1665,N,14543.0348,E,0.01,0.00,030217,,,A*69
$MOTION,216.00,-0.99,-0.03,-0.03,-3.31,0.36,4.17,-0.02,0.40,-0.21
$MOTION,202.00,-1.11,-0.04,-0.03,-3.11,-0.06,4.01,-0.02,0.40,-0.21
$MOTION,227.00,-1.06,-0.04,-0.01,-3.33,-0.25,3.62,-0.01,0.40,-0.21
$MOTION,217.00,-1.02,-0.08,-0.03,-3.31,0.54,4.80,-0.02,0.40,-0.21
$MOTION,215.00,-1.08,-0.00,-0.02,-2.94,0.49,4.95,-0.02,0.40,-0.22
$GPRMC,032847.000,A,1513.1665,N,14543.0348,E,0.01,0.00,030217,,,A*68
$MOTION,216.00,-0.96,-0.04,-0.03,-2.96,0.36,4.93,-0.01,0.40,-0.21
$MOTION,202.00,-1.08,-0.06,-0.00,-2.63,1.14,6.33,-0.02,0.40,-0.21
$MOTION,210.00,-1.04,-0.02,-0.04,-2.90,0.73,5.39,-0.02,0.40,-0.21
$MOTION,216.00,-1.04,-0.07,-0.01,-3.19,0.49,6.11,-0.02,0.41,-0.21
$GPRMC,032848.000,A,1513.1665,N,14543.0348,E,0.02,0.00,030217,,,A*64
$MOTION,217.00,-1.02,-0.07,-0.04,-2.97,0.30,4.61,-0.02,0.40,-0.22
$MOTION,216.00,-1.08,-0.05,-0.03,-2.80,0.58,5.24,-0.02,0.40,-0.21
$MOTION,202.00,-1.07,-0.03,-0.01,-3.19,0.54,4.98,-0.01,0.40,-0.21
$MOTION,203.00,-1.03,-0.07,-0.03,-3.18,0.30,3.94,-0.02,0.40,-0.21
$MOTION,217.00,-0.94,-0.11,-0.01,-3.29,0.27,4.10,-0.01,0.40,-0.21
$GPRMC,032849.000,A,1513.1665,N,14543.0348,E,0.01,0.00,030217,,,A*66
$MOTION,217.00,-1.10,-0.05,-0.04,-3.22,0.62,5.10,-0.02,0.40,-0.21
$MOTION,202.00,-1.05,-0.04,-0.03,-3.01,0.19,4.22,-0.02,0.40,-0.21
$MOTION,202.00,-1.06,-0.06,-0.02,-3.18,0.37,4.61,-0.01,0.40,-0.22
$MOTION,202.00,-1.06,-0.07,-0.04,-2.86,0.61,7.60,-0.01,0.40,-0.21
$MOTION,216.00,-1.06,-0.05,-0.02,-2.83,0.64,5.29,-0.01,0.41,-0.21
$GPRMC,032850.000,A,1513.1665,N,14543.0348,E,0.01,0.00,030217,,,A*6E
$MOTION,216.00,-1.07,-0.01,-0.03,-2.99,0.48,4.73,-0.02,0.40,-0.21
$MOTION,202.00,-1.04,-0.06,-0.03,-2.87,0.27,4.54,-0.02,0.40,-0.21
$MOTION,202.00,-1.04,-0.08,-0.03,-2.92,0.66,5.33,-0.01,0.40,-0.21
$MOTION,217.00,-1.05,-0.09,-0.04,-2.92,0.31,4.91,-0.02,0.41,-0.21
$GPRMC,032851.000,A,1513.1665,N,14543.0348,E,0.00,0.00,030217,,,A*6E
$MOTION,252.00,-1.00,-0.10,-0.03,-2.68,0.53,5.11,-0.02,0.40,-0.21
$MOTION,217.00,-1.06,-0.09,-0.01,-2.71,0.73,5.22,-0.01,0.41,-0.21
$MOTION,202.00,-1.08,-0.05,-0.03,-3.04,-0.08,4.55,-0.02,0.41,-0.21
$MOTION,202.00,-1.04,-0.06,-0.03,-3.42,1.83,3.27,-0.02,0.41,-0.21
$MOTION,216.00,-1.00,-0.05,-0.02,-3.15,0.47,4.31,-0.02,0.40,-0.20
$GPRMC,032852.000,A,1513.1665,N,14543.0348,E,0.01,0.00,030217,,,A*6C
$MOTION,218.00,-1.05,-0.08,-0.02,-3.16,0.34,4.66,-0.02,0.40,-0.20
$MOTION,210.00,-1.00,-0.09,-0.03,-3.18,0.65,4.26,-0.01,0.40,-0.20
$MOTION,202.00,-1.06,-0.05,-0.03,-3.12,0.21,3.76,-0.02,0.40,-0.20
$MOTION,225.00,-1.00,-0.07,-0.04,-3.16,0.51,4.93,-0.02,0.40,-0.21
$MOTION,216.00,-1.03,-0.06,-0.02,-2.96,0.58,4.46,-0.01,0.41,-0.20
$GPRMC,032853.000,A,1513.1665,N,14543.0348,E,0.01,0.00,030217,,,A*6D
$MOTION,216.00,-1.03,-0.07,-0.02,-2.91,0.63,4.73,-0.02,0.40,-0.21
$MOTION,202.00,-1.04,-0.06,-0.03,-2.66,0.16,4.58,-0.01,0.40,-0.21
$MOTION,224.00,-1.02,-0.08,-0.03,-2.95,0.38,4.50,-0.02,0.40,-0.20
$MOTION,216.00,-1.03,-0.09,-0.02,-2.93,0.39,4.36,-0.01,0.41,-0.21
$MOTION,217.00,-1.03,-0.07,-0.02,-3.15,0.61,4.48,-0.01,0.40,-0.21
$GPRMC,032854.000,A,1513.1665,N,14543.0348,E,0.01,0.00,030217,,,A*6A
$MOTION,216.00,-1.02,-0.05,-0.02,-3.01,0.36,4.14,-0.01,0.40,-0.21
$MOTION,202.00,-1.01,-0.06,-0.02,-3.08,0.57,4.34,-0.01,0.40,-0.21
$MOTION,202.00,-1.02,-0.08,-0.03,-3.32,0.41,4.40,-0.01,0.40,-0.21
$MOTION,216.00,-1.04,-0.06,-0.02,-3.01,0.40,4.54,-0.01,0.40,-0.21
$GPRMC,032855.000,A,1513.1665,N,14543.0348,E,0.00,0.00,030217,,,A*6A
$MOTION,216.00,-1.04,-0.05,-0.03,-2.68,0.65,4.90,-0.01,0.40,-0.21
$MOTION,216.00,-1.03,-0.09,-0.03,-2.98,0.48,4.45,-0.01,0.40,-0.20
$MOTION,202.00,-1.03,-0.04,-0.03,-2.89,0.46,4.40,-0.01,0.40,-0.21
$MOTION,202.00,-1.05,-0.06,-0.04,-3.24,0.16,1.97,-0.01,0.40,-0.21
$MOTION,217.00,-1.02,-0.07,-0.02,-2.82,0.92,4.27,-0.01,0.40,-0.21
$GPRMC,032856.000,A,1513.1665,N,14543.0348,E,0.01,0.00,030217,,,A*68
$MOTION,217.00,-1.04,-0.07,-0.01,-3.26,0.20,5.66,-0.01,0.40,-0.21
$MOTION,202.00,-1.03,-0.08,-0.07,-2.47,-0.01,2.74,-0.01,0.40,-0.21
$MOTION,202.00,-0.99,-0.05,-0.05,-3.19,1.43,4.72,-0.01,0.40,-0.21
$MOTION,217.00,-1.09,-0.05,-0.01,-2.83,-0.10,4.07,-0.01,0.40,-0.21
$MOTION,216.00,-1.05,-0.07,-0.03,-2.85,1.20,6.69,-0.01,0.40,-0.21
$GPRMC,032857.000,A,1513.1665,N,14543.0348,E,0.02,0.00,030217,,,A*6A
$MOTION,216.00,-1.01,-0.05,-0.02,-3.01,0.74,5.09,-0.02,0.40,-0.21
$MOTION,203.00,-1.02,-0.05,-0.05,-3.50,0.45,5.15,-0.01,0.40,-0.21
$MOTION,202.00,-1.04,-0.08,-0.02,-2.86,0.17,4.43,-0.01,0.40,-0.20
$MOTION,216.00,-1.02,-0.07,-0.03,-3.01,0.17,5.62,-0.01,0.40,-0.21
$GPRMC,032858.000,A,1513.1665,N,14543.0348,E,0.00,0.00,030217,,,A*67
$MOTION,276.00,-1.06,-0.06,-0.02,-3.15,0.25,4.13,-0.01,0.40,-0.21
$MOTION,205.00,-1.02,-0.10,-0.03,-2.71,0.81,5.16,-0.01,0.40,-0.21
$MOTION,202.00,-1.02,-0.05,-0.02,-2.85,0.68,5.17,-0.01,0.41,-0.21
$MOTION,229.00,-1.01,-0.05,-0.02,-2.93,0.34,3.74,-0.02,0.40,-0.21
$MOTION,217.00,-1.03,-0.09,-0.02,-3.12,0.81,4.88,-0.02,0.40,-0.21
$GPRMC,032859.000,A,1513.1665,N,14543.0348,E,0.01,0.00,030217,,,A*67
$MOTION,217.00,-1.03,-0.11,-0.02,-2.50,0.72,4.74,-0.01,0.40,-0.21
$MOTION,202.00,-1.03,-0.10,-0.02,-2.94,0.63,5.55,-0.01,0.40,-0.21
$MOTION,209.00,-1.06,-0.09,-0.03,-2.98,0.19,4.17,-0.01,0.40,-0.21
$MOTION,217.00,-1.04,-0.06,-0.02,-2.89,0.27,4.24,-0.02,0.40,-0.21
$MOTION,216.00,-1.03,-0.13,-0.01,-3.04,0.31,3.77,-0.02,0.40,-0.21
$GPRMC,032900.000,A,1513.1665,N,14543.0348,E,0.01,0.00,030217,,,A*6A
$MOTION,216.00,-0.98,-0.06,-0.02,-2.93,0.38,3.61,-0.01,0.40,-0.22
$MOTION,202.00,-0.96,-0.10,-0.00,-2.90,0.86,5.32,-0.01,0.40,-0.21
$MOTION,202.00,-1.05,-0.06,-0.01,-2.99,0.90,5.79,-0.02,0.40,-0.21
$MOTION,216.00,-1.10,-0.06,-0.04,-3.15,0.90,6.61,-0.01,0.40,-0.22
$GPRMC,032901.000,A,1513.1665,N,14543.0348,E,0.02,0.00,030217,,,A*68
$MOTION,255.00,-1.03,-0.06,-0.00,-2.79,0.54,4.96,-0.01,0.40,-0.22
$MOTION,202.00,-1.05,-0.06,-0.02,-3.13,0.21,4.82,-0.01,0.40,-0.22
$MOTION,202.00,-1.04,-0.08,-0.01,-3.07,0.40,4.10,-0.01,0.40,-0.21
$MOTION,202.00,-1.03,-0.10,-0.01,-2.97,0.84,5.31,-0.01,0.40,-0.22
$MOTION,216.00,-0.94,-0.06,-0.02,-3.24,0.15,3.85,-0.01,0.40,-0.22
$GPRMC,032902.000,A,1513.1665,N,14543.0348,E,0.01,0.00,030217,,,A*68
$MOTION,216.00,-1.07,-0.02,-0.04,-3.02,0.49,4.59,-0.02,0.40,-0.21
$MOTION,202.00,-1.02,-0.15,-0.04,-3.16,1.17,6.33,-0.01,0.40,-0.22
$MOTION,202.00,-1.07,-0.03,-0.01,-3.10,0.76,4.94,-0.01,0.40,-0.21
$MOTION,219.00,-1.07,-0.07,-0.05,-3.18,0.54,4.76,-0.02,0.41,-0.21
$MOTION,217.00,-1.12,-0.07,-0.05,-3.05,0.20,5.41,-0.01,0.40,-0.21
$GPRMC,032903.000,A,1513.1665,N,14543.0348,E,0.01,0.00,030217,,,A*69
$MOTION,217.00,-1.05,-0.05,-0.04,-3.26,-0.38,2.69,-0.01,0.40,-0.21
$MOTION,202.00,-1.03,-0.07,-0.02,-3.07,0.74,5.88,-0.01,0.40,-0.21
$MOTION,210.00,-1.07,-0.07,-0.02,-3.34,0.58,6.04,-0.02,0.40,-0.21
$MOTION,218.00,-1.09,-0.04,-0.03,-2.64,1.11,6.36,-0.01,0.40,-0.22
$MOTION,217.00,-1.02,-0.09,-0.02,-3.07,1.87,4.28,-0.02,0.40,-0.21
$GPRMC,032904.000,A,1513.1665,N,14543.0348,E,0.02,0.00,030217,,,A*6D
$MOTION,217.00,-0.96,-0.10,-0.03,-2.69,1.03,5.84,-0.01,0.40,-0.22
$MOTION,202.00,-0.96,-0.07,-0.04,-3.20,0.16,4.86,-0.02,0.40,-0.21
$MOTION,229.00,-1.02,-0.04,-0.05,-3.16,1.14,5.12,-0.01,0.40,-0.22
$MOTION,216.00,-1.04,-0.04,-0.02,-3.07,0.89,7.51,-0.02,0.40,-0.21
$GPRMC,032905.000,A,1513.1665,N,14543.0347,E,0.00,0.00,030217,,,A*61
$MOTION,216.00,-1.06,-0.03,0.07,-2.69,1.09,4.05,-0.01,0.40,-0.21
$MOTION,202.00,-1.07,-0.07,-0.02,-3.22,0.32,5.09,-0.01,0.40,-0.22
$MOTION,202.00,-1.11,-0.08,-0.03,-2.65,0.68,5.76,-0.02,0.41,-0.21
$MOTION,202.00,-1.06,-0.06,-0.05,-3.23,0.25,1.93,-0.02,0.41,-0.21
$MOTION,215.00,-1.00,-0.09,0.00,-2.94,0.56,4.37,-0.02,0.40,-0.21
$GPRMC,032906.000,A,1513.1665,N,14543.0347,E,0.01,0.00,030217,,,A*63
$MOTION,216.00,-1.02,-0.06,-0.01,-3.27,0.36,4.53,-0.01,0.40,-0.21
$MOTION,202.00,-1.02,-0.07,-0.02,-3.04,0.84,5.32,-0.01,0.40,-0.21
$MOTION,202.00,-0.97,-0.10,-0.03,-2.82,1.26,5.56,-0.02,0.40,-0.22
$MOTION,216.00,-0.95,-0.05,-0.01,-2.87,1.25,5.49,-0.02,0.40,-0.21
$MOTION,217.00,-1.08,-0.08,-0.02,-3.02,0.01,5.02,-0.02,0.40,-0.21
$GPRMC,032907.000,A,1513.1665,N,14543.0347,E,0.02,0.00,030217,,,A*61
$MOTION,216.00,-1.12,-0.02,-0.05,-3.05,1.45,6.22,-0.02,0.40,-0.21
$MOTION,202.00,-1.00,-0.08,-0.05,-3.23,0.54,6.05,-0.02,0.40,-0.21
$MOTION,202.00,-1.00,-0.10,-0.04,-3.23,0.41,5.38,-0.01,0.41,-0.21
$MOTION,217.00,-0.99,-0.07,-0.03,-2.78,0.78,4.13,-0.02,0.41,-0.21
$GPRMC,032908.000,A,1513.1665,N,14543.0347,E,0.01,0.00,030217,,,A*6D
$MOTION,272.00,-1.02,-0.04,-0.01,-3.36,0.76,4.19,-0.01,0.40,-0.25
$MOTION,204.00,-1.10,-0.02,-0.04,-3.33,0.07,4.92,-0.01,0.40,-0.21
$MOTION,202.00,-1.05,-0.05,-0.03,-3.02,0.81,5.44,-0.01,0.40,-0.21
$MOTION,202.00,-1.03,-0.07,-0.04,-3.33,0.34,5.01,-0.02,0.41,-0.22
$MOTION,217.00,-1.05,-0.08,-0.03,-2.77,0.90,6.14,-0.02,0.40,-0.21
$GPRMC,032909.000,A,1513.1665,N,14543.0347,E,0.00,0.00,030217,,,A*6D
$MOTION,216.00,-1.00,-0.10,-0.04,-3.22,1.24,5.67,-0.01,0.41,-0.21
$MOTION,202.00,-1.08,0.00,-0.01,-3.44,0.61,5.78,-0.02,0.41,-0.21
$MOTION,202.00,-1.02,-0.05,-0.06,-3.27,-0.43,2.36,-0.01,0.41,-0.21
$MOTION,228.00,-1.08,-0.04,-0.03,-3.16,-0.09,3.16,-0.01,0.40,-0.21
$MOTION,217.00,-0.97,-0.09,-0.04,-3.24,0.69,4.25,-0.02,0.40,-0.20
$GPRMC,032910.000,A,1513.1665,N,14543.0347,E,0.02,0.00,030217,,,A*67
$MOTION,217.00,-1.08,-0.01,-0.03,-3.35,0.25,4.70,-0.02,0.40,-0.21
$MOTION,202.00,-1.03,-0.05,-0.02,-3.01,1.31,5.52,-0.01,0.40,-0.22
$MOTION,211.00,-1.06,-0.05,-0.03,-2.81,-0.46,3.51,-0.01,0.40,-0.21
$MOTION,216.00,-1.08,-0.04,-0.02,-2.80,0.49,5.44,-0.01,0.40,-0.21
$MOTION,216.00,-1.07,-0.04,-0.04,-2.93,-0.64,3.63,-0.02,0.40,-0.21
$GPRMC,032911.000,A,1513.1665,N,14543.0347,E,0.01,0.00,030217,,,A*65
$MOTION,216.00,-0.99,-0.07,-0.01,-3.34,0.70,4.97,-0.02,0.40,-0.21
$MOTION,202.00,-1.03,-0.09,-0.01,-2.62,0.61,4.79,-0.02,0.40,-0.21
$MOTION,206.00,-0.99,-0.11,-0.01,-3.22,1.04,4.72,-0.02,0.40,-0.21
$MOTION,216.00,-1.02,-0.04,0.01,-2.98,1.18,5.04,-0.02,0.41,-0.21
$GPRMC,032912.000,A,1513.1665,N,14543.0347,E,0.01,0.00,030217,,,A*66
$MOTION,217.00,-0.98,-0.12,-0.03,-3.13,0.63,5.34,-0.01,0.40,-0.21
$MOTION,207.00,-1.00,-0.12,-0.03,-2.95,0.53,4.32,-0.02,0.40,-0.21
$MOTION,202.00,-1.07,-0.03,-0.02,-2.71,0.36,4.99,-0.02,0.40,-0.21
$MOTION,202.00,-0.99,-0.11,-0.06,-2.86,0.67,4.99,-0.02,0.40,-0.22
$MOTION,216.00,-1.00,-0.02,-0.01,-2.98,0.37,4.93,-0.02,0.41,-0.21
$GPRMC,032913.000,A,1513.1665,N,14543.0347,E,0.02,0.00,030217,,,A*64
$MOTION,216.00,-0.95,-0.09,0.01,-2.69,1.02,5.35,-0.02,0.41,-0.21
$MOTION,202.00,-1.02,-0.08,-0.07,-2.99,0.67,4.90,-0.02,0.41,-0.21
$MOTION,202.00,-1.02,-0.05,-0.06,-2.96,1.02,5.84,-0.02,0.40,-0.21
$MOTION,211.00,-1.02,-0.07,-0.04,-2.64,0.67,5.85,-0.01,0.40,-0.21
$MOTION,216.00,-1.02,-0.07,-0.00,-3.25,0.14,5.35,-0.02,0.40,-0.21
$GPRMC,032914.000,A,1513.1665,N,14543.0347,E,0.01,0.00,030217,,,A*60
$MOTION,216.00,-1.01,-0.08,-0.02,-2.93,1.14,4.46,-0.02,0.40,-0.22
$MOTION,202.00,-1.07,-0.05,-0.06,-3.25,0.76,6.00,-0.02,0.40,-0.21
$MOTION,202.00,-1.03,-0.05,-0.02,-2.85,0.79,5.47,-0.01,0.41,-0.21
$MOTION,218.00,-1.04,-0.03,-0.02,-3.08,0.38,2.12,-0.02,0.41,-0.21
$MOTION,217.00,-1.02,-0.05,-0.03,-2.77,1.14,5.54,-0.02,0.41,-0.21
$GPRMC,032915.000,A,1513.1665,N,14543.0347,E,0.01,0.00,030217,,,A*61
$MOTION,216.00,-0.99,-0.07,-0.01,-3.04,0.16,4.43,-0.02,0.41,-0.21
$MOTION,202.00,-0.99,-0.09,0.01,-2.86,0.21,3.20,-0.02,0.41,-0.21
$MOTION,203.00,-1.06,-0.09,-0.02,-2.78,0.65,4.96,-0.01,0.40,-0.20
$MOTION,217.00,-0.97,-0.07,-0.02,-2.98,0.82,5.54,-0.02,0.41,-0.21
$GPRMC,032916.000,A,1513.1665,N,14543.0347,E,0.01,0.00,030217,,,A*62
$MOTION,238.00,-1.05,-0.07,-0.02,-2.71,1.05,7.65,-0.02,0.41,-0.21
$MOTION,210.00,-1.00,-0.12,-0.01,-2.91,0.59,4.34,-0.01,0.41,-0.21
$MOTION,202.00,-1.04,-0.05,-0.04,-3.01,0.46,4.87,-0.02,0.41,-0.21
$MOTION,202.00,-1.03,-0.06,-0.02,-3.10,0.49,4.64,-0.02,0.41,-0.21
$MOTION,217.00,-1.02,-0.07,-0.03,-3.27,0.72,4.86,-0.02,0.41,-0.20
$GPRMC,032917.000,A,1513.1665,N,14543.0347,E,0.00,0.00,030217,,,A*62
$MOTION,216.00,-1.08,-0.03,-0.03,-2.93,0.10,4.82,-0.02,0.41,-0.20
$MOTION,202.00,-1.03,-0.07,-0.02,-3.01,0.27,4.24,-0.02,0.41,-0.21
$MOTION,202.00,-1.05,-0.07,-0.02,-3.07,0.34,3.86,-0.02,0.40,-0.21
$MOTION,215.00,-1.08,-0.03,-0.04,-3.04,0.25,4.17,-0.02,0.40,-0.21
$MOTION,216.00,-1.01,-0.04,-0.01,-2.80,0.70,5.27,-0.01,0.41,-0.21
$GPRMC,032918.000,A,1513.1665,N,14543.0347,E,0.01,0.00,030217,,,A*6C
$MOTION,216.00,-1.04,-0.06,-0.02,-2.80,0.07,3.88,-0.01,0.40,-0.21
$MOTION,203.00,-0.99,-0.07,-0.02,-3.13,0.38,4.68,-0.01,0.41,-0.21
$MOTION,207.00,-1.03,-0.08,-0.03,-3.02,0.70,4.99,-0.01,0.41,-0.21
$MOTION,217.00,-1.01,-0.09,-0.03,-2.86,0.43,5.60,-0.01,0.41,-0.21
$GPRMC,032919.000,A,1513.1665,N,14543.0347,E,0.01,0.00,030217,,,A*6D
$MOTION,221.00,-1.05,-0.06,-0.02,-2.57,0.84,5.72,-0.02,0.40,-0.21
$MOTION,216.00,-1.05,-0.03,-0.03,-3.11,0.13,4.15,-0.01,0.40,-0.21
$MOTION,202.00,-0.99,-0.08,-0.02,-3.19,0.67,4.87,-0.02,0.40,-0.21
$MOTION,202.00,-1.06,-0.06,-0.03,-3.30,0.70,4.88,-0.02,0.40,-0.21
$MOTION,217.00,-1.05,-0.06,-0.03,-3.39,0.34,4.55,-0.02,0.41,-0.21
$GPRMC,032920.000,A,1513.1665,N,14543.0347,E,0.02,0.00,030217,,,A*64
$MOTION,218.00,-1.05,-0.05,-0.02,-3.36,0.40,4.35,-0.02,0.41,-0.21
$MOTION,202.00,-1.02,-0.07,-0.02,-2.95,0.07,4.28,-0.02,0.40,-0.22
$MOTION,202.00,-1.02,-0.04,-0.02,-3.29,-0.04,3.48,-0.01,0.40,-0.22
$MOTION,220.00,-0.99,-0.09,-0.02,-2.95,0.35,4.48,-0.01,0.41,-0.21
$MOTION,216.00,-1.02,-0.07,-0.02,-3.20,0.84,4.75,-0.02,0.41,-0.22
$GPRMC,032921.000,A,1513.1665,N,14543.0347,E,0.00,0.00,030217,,,A*67
$MOTION,217.00,-1.01,-0.07,-0.03,-3.24,0.78,5.92,-0.01,0.41,-0.21
$MOTION,202.00,-1.01,-0.07,-0.02,-3.13,0.96,5.32,-0.02,0.40,-0.21
$MOTION,219.00,-1.08,-0.06,-0.04,-2.78,0.64,5.26,-0.02,0.41,-0.21
$MOTION,216.00,-1.09,-0.06,-0.04,-3.13,0.12,4.46,-0.02,0.40,-0.21
$GPRMC,032922.000,A,1513.1665,N,14543.0347,E,0.01,0.00,030217,,,A*65
$MOTION,281.00,-1.03,-0.08,-0.03,-3.03,0.90,3.85,-0.02,0.40,-0.22
$MOTION,205.00,-1.12,-0.07,-0.03,-2.69,0.35,4.54,-0.02,0.41,-0.22
$MOTION,203.00,-1.01,-0.08,-0.04,-3.36,0.24,3.90,-0.01,0.41,-0.21
$MOTION,229.00,-1.05,-0.06,-0.02,-3.15,0.51,4.44,-0.02,0.40,-0.21
$MOTION,216.00,-1.02,-0.04,-0.01,-3.39,0.67,4.78,-0.02,0.40,-0.21
$GPRMC,032923.000,A,1513.1665,N,14543.0347,E,0.02,0.00,030217,,,A*67
$MOTION,215.00,-1.04,-0.07,-0.04,-3.16,0.40,4.60,-0.02,0.40,-0.21
$MOTION,202.00,-0.98,-0.09,-0.02,-2.91,0.54,4.14,-0.02,0.41,-0.21
$MOTION,202.00,-1.04,-0.06,-0.03,-3.21,0.24,4.05,-0.02,0.41,-0.22
$MOTION,217.00,-1.02,-0.07,-0.03,-3.22,0.38,4.40,-0.02,0.41,-0.22
$MOTION,217.00,-1.03,-0.09,-0.02,-2.97,0.56,5.53,-0.02,0.40,-0.21
$GPRMC,032924.000,A,1513.1665,N,14543.0347,E,0.01,0.00,030217,,,A*63
$MOTION,217.00,-1.01,-0.08,-0.04,-3.21,0.38,3.97,-0.02,0.41,-0.22
$MOTION,202.00,-1.04,-0.07,-0.01,-3.16,0.56,4.99,-0.02,0.41,-0.21
$MOTION,202.00,-1.06,-0.05,-0.02,-3.14,0.51,5.50,-0.02,0.40,-0.22
$MOTION,216.00,-1.00,-0.05,-0.02,-3.13,0.53,4.70,-0.01,0.40,-0.22
$GPRMC,032925.000,A,1513.1665,N,14543.0347,E,0.00,0.00,030217,,,A*63
$MOTION,281.00,-1.09,-0.06,-0.05,-3.75,0.31,4.38,-0.02,0.41,-0.22
$MOTION,204.00,-1.05,-0.05,-0.03,-3.01,0.39,4.30,-0.01,0.40,-0.22
$MOTION,202.00,-1.03,-0.06,-0.03,-2.95,0.48,4.79,-0.01,0.40,-0.22
$MOTION,202.00,-1.08,-0.05,-0.02,-3.21,0.49,5.13,-0.01,0.40,-0.21
$MOTION,216.00,-1.01,-0.05,-0.03,-3.23,0.04,4.46,-0.01,0.40,-0.22
$GPRMC,032926.000,A,1513.1665,N,14543.0347,E,0.00,0.00,030217,,,A*60
$MOTION,216.00,-1.01,-0.09,-0.01,-3.67,0.34,5.17,-0.01,0.40,-0.22
$MOTION,202.00,-1.02,-0.05,-0.04,-2.91,0.56,4.29,-0.01,0.40,-0.22
$MOTION,220.00,-1.03,-0.09,-0.03,-2.86,0.32,4.64,-0.02,0.41,-0.21
$MOTION,216.00,-1.03,-0.05,-0.04,-3.14,0.80,4.95,-0.02,0.40,-0.22
$MOTION,216.00,-1.01,-0.08,-0.01,-2.97,0.42,4.90,-0.01,0.40,-0.22
$GPRMC,032927.000,A,1513.1665,N,14543.0347,E,0.01,0.00,030217,,,A*60
$MOTION,216.00,-0.98,-0.07,-0.01,-3.34,-0.07,4.39,-0.01,0.40,-0.21
$MOTION,202.00,-1.08,-0.06,-0.03,-3.07,0.58,4.96,-0.02,0.40,-0.22
$MOTION,202.00,-1.07,-0.06,-0.05,-2.81,0.90,5.54,-0.02,0.40,-0.18
$MOTION,217.00,-0.99,-0.06,-0.02,-3.16,0.32,4.40,-0.02,0.41,-0.22
$GPRMC,032928.000,A,1513.1665,N,14543.0347,E,0.01,0.00,030217,,,A*6F
$MOTION,266.00,-1.04,0.01,-0.01,-3.06,0.05,3.03,-0.02,0.41,-0.21
$MOTION,207.00,-1.03,-0.06,-0.04,-2.92,0.71,5.35,-0.02,0.40,-0.22
$MOTION,202.00,-1.04,-0.04,-0.05,-3.28,0.08,2.65,-0.02,0.41,-0.22
$MOTION,202.00,-1.01,-0.07,-0.02,-2.95,0.56,5.04,-0.02,0.41,-0.21
$MOTION,216.00,-1.04,-0.07,-0.02,-3.08,0.39,5.32,-0.02,0.41,-0.21
$GPRMC,032929.000,A,1513.1665,N,14543.0347,E,0.00,0.00,030217,,,A*6F
$MOTION,217.00,-1.01,-0.08,-0.02,-3.05,0.49,4.35,-0.02,0.40,-0.22
$MOTION,202.00,-1.06,-0.05,-0.02,-3.07,-0.46,3.09,-0.02,0.41,-0.22
$MOTION,227.00,-1.05,-0.05,-0.04,-3.14,0.41,4.38,-0.01,0.40,-0.22
$MOTION,217.00,-0.96,-0.07,-0.02,-3.54,0.73,4.96,-0.02,0.40,-0.21
$MOTION,217.00,-1.03,-0.08,-0.04,-3.09,0.27,4.64,-0.02,0.41,-0.22
$GPRMC,032930.000,A,1513.1665,N,14543.0347,E,0.01,0.00,030217,,,A*66
$MOTION,217.00,-1.05,-0.01,-0.03,-3.16,0.33,4.78,-0.02,0.41,-0.22
$MOTION,202.00,-1.04,-0.06,-0.03,-3.15,0.67,5.31,-0.01,0.41,-0.21
$MOTION,227.00,-1.01,-0.07,-0.03,-3.45,0.34,4.16,-0.02,0.41,-0.22
$MOTION,216.00,-1.02,-0.06,-0.04,-3.31,0.16,4.62,-0.01,0.40,-0.22
$GPRMC,032931.000,A,1513.1665,N,14543.0347,E,0.01,0.00,030217,,,A*67
$MOTION,216.00,-1.04,-0.07,-0.03,-2.98,0.67,5.29,-0.02,0.41,-0.21
$MOTION,217.00,-1.01,-0.08,-0.03,-3.13,0.57,4.47,-0.01,0.41,-0.22
$MOTION,202.00,-1.07,-0.04,-0.05,-3.07,0.33,4.61,-0.01,0.40,-0.22
$MOTION,202.00,-1.00,-0.03,-0.02,-3.12,0.84,4.80,-0.02,0.40,-0.22
$MOTION,217.00,-1.03,-0.07,-0.02,-2.71,0.61,5.28,-0.02,0.41,-0.22
$GPRMC,032932.000,A,1513.1665,N,14543.0347,E,0.00,0.00,030217,,,A*65
$MOTION,217.00,-1.02,-0.06,-0.02,-3.03,0.61,5.11,-0.02,0.41,-0.21
$MOTION,203.00,-1.06,-0.03,-0.02,-3.08,0.64,5.62,-0.02,0.40,-0.22
$MOTION,202.00,-1.05,-0.08,-0.02,-2.71,1.11,5.41,-0.02,0.40,-0.21
$MOTION,216.00,-1.05,-0.06,-0.03,-2.68,0.66,4.93,-0.01,0.41,-0.21
$MOTION,216.00,-1.02,-0.06,-0.02,-3.22,0.55,5.12,-0.01,0.40,-0.21
$GPRMC,032933.000,A,1513.1665,N,14543.0347,E,0.00,0.00,030217,,,A*64
$MOTION,217.00,-1.08,-0.03,-0.04,-3.17,0.37,4.85,-0.01,0.40,-0.22
$MOTION,202.00,-1.05,-0.06,-0.03,-3.18,0.40,4.51,-0.01,0.40,-0.21
$MOTION,202.00,-1.04,-0.03,-0.02,-3.05,0.34,4.28,-0.02,0.41,-0.21
$MOTION,216.00,-1.02,-0.09,-0.02,-3.15,0.38,4.60,-0.02,0.40,-0.21
$GPRMC,032934.000,A,1513.1665,N,14543.0347,E,0.01,0.00,030217,,,A*62
$MOTION,216.00,-0.93,-0.10,0.02,-2.79,0.12,3.72,-0.02,0.40,-0.21
$MOTION,216.00,-1.00,-0.07,-0.00,-3.04,1.04,5.96,-0.01,0.40,-0.22
$MOTION,202.00,-1.02,-0.07,-0.04,-2.55,0.79,5.18,-0.01,0.40,-0.22
$MOTION,202.00,-1.02,-0.09,-0.04,-3.17,1.07,7.40,-0.02,0.40,-0.21
$MOTION,217.00,-1.05,-0.05,-0.04,-2.89,0.55,5.31,-0.01,0.40,-0.21
$GPRMC,032935.000,A,1513.1665,N,14543.0347,E,0.01,0.00,030217,,,A*63
$MOTION,240.00,-0.98,-0.16,-0.01,-3.25,0.79,5.70,-0.01,0.41,-0.21
$MOTION,202.00,-1.02,-0.08,-0.06,-3.02,1.29,6.15,-0.02,0.41,-0.21
$MOTION,202.00,-1.06,-0.06,-0.01,-3.15,0.46,4.92,-0.01,0.40,-0.22
$MOTION,203.00,-1.01,-0.07,-0.03,-3.08,0.54,3.05,-0.01,0.40,-0.21
$MOTION,217.00,-1.02,-0.08,-0.02,-3.20,0.46,4.34,-0.01,0.40,-0.21
$GPRMC,032936.000,A,1513.1665,N,14543.0347,E,0.01,0.00,030217,,,A*60
$MOTION,217.00,-1.09,-0.04,-0.02,-3.41,0.40,5.31,-0.02,0.40,-0.21
$MOTION,202.00,-1.04,-0.04,-0.02,-3.52,0.00,4.05,-0.02,0.40,-0.21
$MOTION,225.00,-1.02,-0.06,-0.03,-3.19,0.90,5.82,-0.01,0.40,-0.21
$MOTION,218.00,-1.01,-0.06,-0.02,-3.12,0.22,2.01,-0.02,0.40,-0.21
$MOTION,215.00,-1.05,-0.07,-0.02,-2.95,0.66,4.60,-0.02,0.41,-0.21
$GPRMC,032937.000,A,1513.1665,N,14543.0347,E,0.02,0.00,030217,,,A*62
$MOTION,216.00,-1.02,-0.06,-0.01,-3.28,0.59,4.20,-0.02,0.40,-0.21
$MOTION,203.00,-1.02,-0.07,-0.02,-3.46,0.69,5.01,-0.02,0.41,-0.22
$MOTION,224.00,-1.04,-0.03,-0.02,-3.06,0.27,4.64,-0.02,0.41,-0.21
$MOTION,216.00,-0.98,-0.11,-0.03,-3.63,0.51,5.32,-0.02,0.41,-0.22
$GPRMC,032938.000,A,1513.1665,N,14543.0347,E,0.01,0.00,030217,,,A*6E
$MOTION,216.00,-0.98,-0.11,-0.05,-3.03,1.10,5.86,-0.02,0.41,-0.21
$MOTION,215.00,-1.05,-0.05,-0.00,-3.61,0.31,4.56,-0.02,0.40,-0.21
$MOTION,202.00,-1.06,-0.03,-0.03,-3.36,0.75,6.18,-0.01,0.40,-0.21
$MOTION,202.00,-1.09,-0.05,-0.04,-3.22,0.08,4.03,-0.02,0.41,-0.21
$MOTION,216.00,-1.04,-0.06,-0.02,-3.32,-0.07,2.99,-0.01,0.41,-0.20
$GPRMC,032939.000,A,1513.1665,N,14543.0347,E,0.01,0.00,030217,,,A*6F
$MOTION,217.00,-0.97,-0.07,-0.03,-3.27,0.01,3.07,-0.01,0.40,-0.21
$MOTION,202.00,-1.10,-0.04,-0.02,-3.12,0.49,5.70,-0.02,0.41,-0.21
$MOTION,212.00,-0.95,-0.09,-0.01,-2.95,0.64,5.42,-0.02,0.40,-0.20
$MOTION,216.00,-1.03,-0.06,-0.04,-3.07,0.63,5.33,-0.02,0.40,-0.21
$MOTION,216.00,-1.06,-0.06,-0.05,-3.54,0.46,4.67,-0.02,0.40,-0.22
$GPRMC,032940.000,A,1513.1665,N,14543.0347,E,0.02,0.00,030217,,,A*62
$MOTION,217.00,-1.00,-0.07,-0.02,-2.88,0.75,5.35,-0.02,0.40,-0.22
$MOTION,202.00,-1.07,-0.03,-0.02,-3.04,0.35,4.67,-0.02,0.40,-0.22
$MOTION,202.00,-1.02,-0.05,-0.02,-3.02,0.53,5.02,-0.02,0.40,-0.21
$MOTION,215.00,-1.03,-0.07,-0.03,-2.92,0.72,4.79,-0.02,0.40,-0.21
$GPRMC,032941.000,A,1513.1665,N,14543.0347,E,0.02,0.00,030217,,,A*63
$MOTION,295.00,-1.04,-0.05,-0.04,-3.23,0.52,4.67,-0.02,0.40,-0.22
$MOTION,202.00,-1.06,-0.06,-0.04,-3.12,0.55,5.70,-0.02,0.41,-0.22
$MOTION,203.00,-1.04,-0.05,-0.03,-3.46,0.38,5.02,-0.01,0.41,-0.21
$MOTION,202.00,-1.04,-0.06,-0.02,-3.09,0.40,4.92,-0.02,0.40,-0.21
$MOTION,215.00,-1.07,-0.07,-0.06,-3.39,0.25,5.63,-0.02,0.41,-0.21
$GPRMC,032942.000,A,1513.1665,N,14543.0347,E,0.01,0.00,030217,,,A*63
$MOTION,217.00,-0.98,-0.05,-0.02,-2.05,1.22,6.12,-0.02,0.41,-0.21
$MOTION,202.00,-1.00,-0.05,-0.03,-3.52,0.98,6.60,-0.02,0.41,-0.21
$MOTION,202.00,-1.00,-0.07,-0.03,-3.11,0.57,5.32,-0.02,0.40,-0.21
$MOTION,215.00,-1.05,-0.07,-0.01,-3.34,1.87,3.16,-0.02,0.40,-0.21
$MOTION,217.00,-1.07,-0.06,-0.06,-3.10,0.40,2.89,-0.02,0.41,-0.21
$GPRMC,032943.000,A,1513.1665,N,14543.0347,E,0.02,0.00,030217,,,A*61
$MOTION,216.00,-1.03,-0.06,-0.03,-3.07,0.79,5.82,-0.02,0.40,-0.22
$MOTION,203.00,-1.04,-0.02,0.00,-3.63,0.34,5.08,-0.02,0.40,-0.21
$MOTION,204.00,-1.06,-0.09,-0.01,-3.33,0.67,5.22,-0.02,0.41,-0.22
$MOTION,217.00,-0.99,-0.10,-0.02,-3.14,1.24,5.45,-0.01,0.40,-0.22
$GPRMC,032944.000,A,1513.1665,N,14543.0347,E,0.01,0.00,030217,,,A*65
$MOTION,282.00,-1.05,-0.05,-0.04,-3.19,-0.10,3.60,-0.02,0.40,-0.21
$MOTION,205.00,-1.05,-0.08,-0.06,-3.45,0.67,3.96,-0.02,0.40,-0.21
$MOTION,202.00,-0.96,-0.09,-0.01,-2.95,0.42,4.84,-0.02,0.41,-0.21
$MOTION,202.00,-1.02,-0.10,-0.06,-3.19,-1.85,4.76,-0.02,0.41,-0.21
$MOTION,217.00,-1.08,-0.06,-0.01,-3.19,0.48,5.02,-0.02,0.40,-0.22
$GPRMC,032945.000,A,1513.1665,N,14543.0347,E,0.01,0.00,030217,,,A*64
$MOTION,217.00,-1.05,-0.05,-0.02,-3.10,0.49,5.13,-0.02,0.40,-0.21
$MOTION,202.00,-0.98,-0.08,-0.02,-2.98,0.99,5.49,-0.02,0.40,-0.21
$MOTION,215.00,-1.04,-0.05,-0.02,-3.37,0.65,4.76,-0.02,0.41,-0.25
$MOTION,218.00,-1.03,-0.06,-0.02,-3.16,0.58,4.63,-0.02,0.40,-0.21
$MOTION,217.00,-1.06,-0.06,-0.03,-2.76,0.22,3.57,-0.02,0.40,-0.21
$GPRMC,032946.000,A,1513.1665,N,14543.0347,E,0.04,0.00,030217,,,A*62
$MOTION,218.00,-1.03,-0.06,-0.02,-3.27,0.08,4.30,-0.01,0.40,-0.21
$MOTION,202.00,-1.00,-0.07,-0.02,-2.84,1.15,5.46,-0.02,0.41,-0.22
$MOTION,202.00,-1.10,-0.08,-0.04,-3.21,0.53,4.33,-0.02,0.41,-0.21
$MOTION,215.00,-1.03,0.02,-0.03,-2.99,1.02,4.31,-0.02,0.41,-0.21
$GPRMC,032947.000,A,1513.1665,N,14543.0347,E,0.08,0.00,030217,,,A*6F
$MOTION,265.00,-0.96,-0.06,-0.02,-2.80,1.11,6.37,-0.02,0.41,-0.21
$MOTION,205.00,-1.12,-0.03,-0.04,-3.63,-0.75,3.56,-0.02,0.40,-0.21
$MOTION,202.00,-1.35,-0.06,0.03,-0.29,8.36,31.69,-0.01,0.40,-0.22
$MOTION,203.00,-1.26,-0.20,0.08,-1.74,4.82,43.28,0.03,0.41,-0.21
$MOTION,216.00,-0.72,-0.42,-0.05,-2.43,8.61,26.65,0.06,0.42,-0.21
$GPRMC,032948.000,A,1513.1665,N,14543.0347,E,0.46,0.00,030217,,,A*6A
$MOTION,216.00,-0.55,-0.15,0.02,-7.79,9.99,-4.08,0.07,0.41,-0.21
$MOTION,202.00,-1.04,-0.38,-0.03,-12.46,7.51,-2.69,0.08,0.41,-0.21
$MOTION,202.00,-0.96,-0.16,0.16,-16.19,3.62,12.88,0.09,0.39,-0.23
$MOTION,216.00,-0.75,-0.19,0.38,-15.96,2.42,9.38,0.09,0.38,-0.23
$MOTION,218.00,-1.30,-0.49,0.08,-9.60,2.41,2.89,0.10,0.36,-0.25
$GPRMC,032949.000,A,1513.1666,N,14543.0348,E,1.59,0.00,030217,,,A*68
$MOTION,217.00,-0.60,-0.24,0.14,-9.32,-0.75,1.97,0.10,0.35,-0.26
$MOTION,202.00,-0.95,-0.38,0.01,-6.33,1.52,-4.28,0.09,0.35,-0.26
$MOTION,222.00,-0.95,-0.18,0.37,-5.69,-2.62,7.60,0.09,0.34,-0.26
$MOTION,217.00,-1.05,-0.17,0.08,-3.07,-3.72,-7.97,0.08,0.34,-0.26
$GPRMC,032950.000,A,1513.1672,N,14543.0349,E,2.32,14.67,030217,,,A*5E
$MOTION,218.00,-1.06,-0.36,0.14,1.21,-3.96,4.36,0.08,0.35,-0.26
$MOTION,217.00,-0.80,-0.30,0.08,-0.96,-3.31,-15.64,0.06,0.35,-0.26
$MOTION,202.00,-0.79,-0.27,0.24,0.09,-4.40,5.56,0.05,0.36,-0.26
$MOTION,219.00,-0.46,-0.03,-0.01,-0.88,-0.22,-4.29,0.05,0.36,-0.26
$MOTION,217.00,-1.11,-0.13,0.17,2.27,-4.41,5.27,0.04,0.37,-0.25
$GPRMC,032951.000,A,1513.1678,N,14543.0350,E,2.65,20.14,030217,,,A*5C
$MOTION,217.00,-1.00,-0.08,0.17,-3.74,-2.17,-18.58,0.03,0.37,-0.24
$MOTION,202.00,-1.04,-0.01,0.09,0.25,-2.62,10.72,0.03,0.37,-0.24
$MOTION,202.00,-0.82,-0.32,0.21,1.61,-3.15,-8.15,0.03,0.38,-0.24
$MOTION,217.00,-1.01,-0.03,-0.04,5.77,-0.22,8.36,0.01,0.39,-0.23
$MOTION,217.00,-1.89,0.18,0.52,1.74,-2.70,-1.92,0.02,0.39,-0.23
$GPRMC,032952.000,A,1513.1685,N,14543.0353,E,2.82,31.39,030217,,,A*58
$MOTION,217.00,-0.86,-0.11,-0.01,1.81,1.23,9.28,0.02,0.40,-0.22
$MOTION,202.00,-0.95,-0.24,0.02,4.09,-0.25,-2.12,0.01,0.41,-0.21
$MOTION,202.00,-0.81,-0.30,-0.12,0.57,-0.75,-2.11,0.01,0.42,-0.20
$MOTION,216.00,-0.74,-0.17,0.07,0.22,0.04,15.00,0.00,0.42,-0.20
$GPRMC,032953.000,A,1513.1692,N,14543.0357,E,3.11,41.96,030217,,,A*52
$MOTION,217.00,-1.10,-0.19,0.08,1.53,3.71,13.73,0.02,0.42,-0.20
$MOTION,217.00,-0.97,-0.07,-0.18,0.80,0.17,11.57,0.03,0.44,-0.19
$MOTION,202.00,-1.64,-0.16,0.33,-1.48,-3.24,1.62,0.02,0.44,-0.19
$MOTION,202.00,-0.87,-0.05,-0.14,-0.41,0.54,11.15,0.02,0.44,-0.18
$MOTION,216.00,-1.02,-0.38,0.03,-0.30,1.90,-5.17,0.01,0.44,-0.18
$GPRMC,032954.000,A,1513.1699,N,14543.0363,E,2.92,41.40,030217,,,A*58
$MOTION,216.00,-1.05,0.01,-0.15,-7.43,1.76,5.17,0.02,0.44,-0.18
$MOTION,207.00,-1.04,-0.09,0.16,-5.49,2.94,23.94,0.01,0.44,-0.18
$MOTION,202.00,-0.95,-0.02,0.03,-6.42,1.43,5.15,0.03,0.44,-0.19
$MOTION,225.00,-0.83,-0.25,-0.06,-3.97,0.40,10.11,0.04,0.44,-0.19
$MOTION,216.00,-0.81,-0.22,-0.22,-7.95,6.12,-0.21,0.03,0.43,-0.20
$GPRMC,032955.000,A,1513.1705,N,14543.0368,E,2.71,42.67,030217,,,A*5D
$MOTION,216.00,-0.95,-0.10,0.10,-9.55,0.18,8.28,0.03,0.42,-0.21
$MOTION,202.00,-1.24,-0.06,0.36,-7.34,5.31,2.34,0.04,0.42,-0.22
$MOTION,202.00,-0.86,-0.19,-0.01,-2.92,4.94,21.34,0.06,0.41,-0.22
$MOTION,216.00,-0.93,-0.23,0.27,-1.99,6.15,3.55,0.06,0.41,-0.21
$MOTION,217.00,-1.10,-0.11,0.06,-2.23,0.69,20.25,0.07,0.41,-0.22
$GPRMC,032956.000,A,1513.1711,N,14543.0373,E,2.91,43.67,030217,,,A*5E
$MOTION,217.00,-0.81,-0.33,0.41,4.08,2.24,7.65,0.08,0.42,-0.20
$MOTION,202.00,-1.15,-0.17,0.02,-0.72,-1.47,-1.76,0.08,0.43,-0.20
$MOTION,202.00,-0.94,-0.19,0.45,-3.16,-5.67,-5.62,0.06,0.43,-0.20
$MOTION,216.00,-1.24,0.10,-0.07,-4.22,-3.70,-8.54,0.05,0.42,-0.20
$GPRMC,032957.000,A,1513.1718,N,14543.0378,E,2.42,30.14,030217,,,A*53
$MOTION,219.00,-1.11,-0.28,0.12,-1.80,-5.65,-1.71,0.03,0.43,-0.20
$MOTION,216.00,-0.95,-0.17,-0.00,-3.71,-5.04,-18.00,0.01,0.43,-0.20
$MOTION,202.00,-1.36,0.19,0.27,-4.18,-4.41,4.72,-0.00,0.42,-0.20
$MOTION,202.00,-0.68,0.03,0.06,-2.62,-3.44,5.25,-0.00,0.42,-0.19
$MOTION,216.00,-1.18,-0.01,-0.15,-5.72,-0.28,-7.39,-0.02,0.42,-0.19
$GPRMC,032958.000,A,1513.1724,N,14543.0380,E,2.09,27.61,030217,,,A*5F
$MOTION,217.00,-0.79,-0.12,-0.04,-1.31,-0.47,11.93,-0.02,0.42,-0.19
$MOTION,204.00,-1.02,0.10,-0.13,-4.64,1.54,-9.12,-0.03,0.42,-0.19
$MOTION,203.00,-1.82,0.47,0.41,-6.23,0.41,-5.09,-0.04,0.41,-0.20
$MOTION,222.00,-0.78,0.09,-0.04,-5.35,-6.30,10.66,-0.05,0.41,-0.20
$MOTION,218.00,-1.03,0.12,-0.02,-5.73,-0.47,-15.64,-0.06,0.40,-0.19
$GPRMC,032959.000,A,1513.1729,N,14543.0383,E,1.92,28.98,030217,,,A*58
$MOTION,216.00,-1.12,0.09,-0.13,-6.56,3.72,16.41,-0.07,0.40,-0.20
$MOTION,202.00,-0.97,0.09,-0.13,-6.56,-1.12,4.85,-0.04,0.40,-0.20
$MOTION,230.00,-1.41,0.44,0.20,-4.10,1.56,3.63,-0.05,0.39,-0.20
$MOTION,216.00,-0.76,0.16,0.12,-3.24,-1.34,22.15,-0.05,0.40,-0.20
$MOTION,216.00,-1.02,0.06,-0.04,-3.82,-1.56,-6.03,-0.04,0.40,-0.20
$GPRMC,033000.000,A,1513.1732,N,14543.0385,E,0.96,28.10,030217,,,A*55
$MOTION,216.00,-0.92,0.18,-0.03,-5.62,3.56,8.61,-0.05,0.39,-0.20
$MOTION,202.00,-0.78,0.04,-0.07,-4.34,1.96,14.80,-0.04,0.39,-0.20
$MOTION,202.00,-0.99,0.18,-0.10,-5.39,-0.42,2.74,-0.04,0.40,-0.21
$MOTION,217.00,-1.47,-0.02,-0.14,-7.10,2.95,-6.34,-0.04,0.39,-0.21
$GPRMC,033001.000,A,1513.1736,N,14543.0386,E,1.65,26.57,030217,,,A*53
$MOTION,217.00,-1.01,0.06,0.12,-4.77,2.14,29.59,-0.04,0.39,-0.21
$MOTION,216.00,-0.83,0.00,-0.07,-5.70,-0.10,4.70,-0.02,0.39,-0.21
$MOTION,202.00,-1.16,-0.10,-0.10,-3.47,3.28,-3.71,-0.03,0.38,-0.22
$MOTION,202.00,-0.91,-0.12,-0.14,-1.20,-2.09,11.17,-0.03,0.39,-0.21
$MOTION,217.00,-1.17,0.02,-0.12,-0.81,-3.38,-0.71,-0.04,0.39,-0.21
$GPRMC,033002.000,A,1513.1742,N,14543.0388,E,1.72,25.96,030217,,,A*55
$MOTION,217.00,-0.89,0.12,0.19,-7.54,8.43,-10.62,-0.04,0.38,-0.22
$MOTION,202.00,-1.01,0.08,-0.04,-4.18,-1.76,28.84,-0.03,0.39,-0.22
$MOTION,202.00,-0.92,0.01,0.02,-4.50,-0.73,8.58,-0.02,0.39,-0.22
$MOTION,216.00,-1.47,0.23,0.03,-3.30,4.10,-2.80,-0.03,0.39,-0.22
$MOTION,216.00,-0.85,0.05,0.02,1.62,-1.40,18.47,-0.03,0.39,-0.22
$GPRMC,033003.000,A,1513.1747,N,14543.0389,E,1.73,25.13,030217,,,A*5C
$MOTION,217.00,-0.94,-0.01,-0.04,-2.81,-0.55,-12.47,-0.04,0.39,-0.21
$MOTION,202.00,-1.44,-0.06,-0.16,-5.25,4.73,-11.84,-0.05,0.38,-0.21
$MOTION,211.00,-0.87,0.07,0.05,-0.90,0.66,25.94,-0.04,0.38,-0.21
$MOTION,216.00,-0.93,0.01,-0.03,-1.70,0.36,8.66,-0.03,0.39,-0.21
$MOTION,217.00,-1.52,0.15,-0.13,-2.26,0.71,-1.27,-0.03,0.39,-0.21
$GPRMC,033004.000,A,1513.1751,N,14543.0390,E,1.29,23.97,030217,,,A*51
$MOTION,217.00,-1.03,-0.10,-0.08,-2.80,-2.46,24.20,-0.01,0.39,-0.22
$MOTION,202.00,-0.73,-0.11,-0.03,-2.89,-3.11,0.18,-0.01,0.40,-0.21
$MOTION,202.00,-1.00,-0.06,-0.06,-2.39,0.77,-14.02,-0.02,0.39,-0.21
$MOTION,217.00,-1.25,0.15,-0.36,-7.74,3.90,-6.88,-0.04,0.38,-0.22
$GPRMC,033005.000,A,1513.1754,N,14543.0389,E,0.92,358.11,030217,,,A*6D
$MOTION,218.00,-1.00,-0.02,0.10,-6.33,6.39,20.48,-0.03,0.38,-0.22
$MOTION,216.00,-0.75,0.01,0.06,-7.49,-0.78,13.66,0.00,0.38,-0.22
$MOTION,202.00,-1.04,-0.08,-0.06,-8.16,-5.65,-9.66,-0.01,0.38,-0.23
$MOTION,202.00,-1.72,0.09,-0.03,-10.56,0.12,-4.58,-0.02,0.36,-0.23
$MOTION,216.00,-0.84,-0.17,-0.13,-7.68,1.41,25.01,-0.02,0.36,-0.24
$GPRMC,033006.000,A,1513.1758,N,14543.0389,E,1.20,4.86,030217,,,A*6E
$MOTION,218.00,-1.19,-0.10,-0.05,-7.38,-7.27,7.38,-0.01,0.36,-0.24
$MOTION,202.00,-1.05,0.07,-0.14,-10.27,0.78,-13.35,-0.03,0.34,-0.23
$MOTION,202.00,-0.98,0.00,-0.25,-11.56,1.10,-13.86,-0.04,0.34,-0.24
$MOTION,216.00,-0.60,0.09,0.15,-16.64,5.66,18.71,-0.03,0.33,-0.25
$MOTION,217.00,-1.12,0.08,-0.07,-14.14,-5.65,-0.73,-0.03,0.30,-0.26
$MOTION,216.00,-1.13,0.09,0.01,-12.17,0.42,6.10,-0.03,0.29,-0.27
$MOTION,202.00,-1.15,0.12,-0.01,-10.44,-0.49,19.16,-0.03,0.28,-0.27
$MOTION,202.00,-0.98,-0.08,-0.01,-10.91,-2.44,11.78,-0.03,0.27,-0.27
$MOTION,218.00,-0.89,-0.03,-0.14,-16.33,-0.66,1.90,-0.03,0.25,-0.27
$MOTION,217.00,-1.13,-0.17,0.11,-21.44,1.79,-0.04,-0.03,0.23,-0.28
$GPRMC,033008.000,A,1513.1762,N,14543.0385,E,0.67,327.01,030217,,,A*6A
$MOTION,216.00,-0.81,-0.21,0.03,-15.60,1.56,6.58,-0.03,0.20,-0.28
$MOTION,202.00,-1.13,-0.05,-0.08,-12.82,-4.33,8.95,-0.03,0.18,-0.28
$MOTION,202.00,-1.32,-0.27,-0.05,-11.42,-3.11,12.05,-0.04,0.17,-0.27
$MOTION,217.00,-0.82,-0.02,0.13,-9.92,0.67,11.62,-0.04,0.17,-0.28
$GPRMC,033009.000,A,1513.1764,N,14543.0385,E,1.12,31.24,030217,,,A*5D
$MOTION,217.00,-1.04,-0.06,0.00,-6.72,8.53,1.88,-0.04,0.16,-0.28
$MOTION,214.00,-0.83,-0.27,-0.09,-6.23,12.52,6.26,-0.02,0.16,-0.28
$MOTION,202.00,-1.02,-0.14,0.01,-9.42,6.78,-3.68,-0.01,0.14,-0.29
$MOTION,202.00,-1.20,-0.02,0.07,-12.25,1.94,2.26,0.00,0.13,-0.28
$MOTION,216.00,-1.21,-0.10,0.14,-10.49,2.36,22.53,-0.00,0.12,-0.28
$GPRMC,033010.000,A,1513.1770,N,14543.0386,E,1.58,28.14,030217,,,A*56
$MOTION,216.00,-0.97,-0.17,0.14,-7.75,-1.40,10.60,-0.01,0.12,-0.29
$MOTION,202.00,-0.71,-0.19,0.09,-9.89,-7.19,-0.93,-0.01,0.11,-0.28
$MOTION,202.00,-0.86,-0.10,0.09,-12.44,-10.27,-8.28,-0.02,0.10,-0.28
$MOTION,214.00,-1.24,-0.15,0.22,-15.01,-7.78,-5.39,-0.03,0.07,-0.26
$MOTION,217.00,-1.08,-0.11,0.04,-14.25,4.02,18.57,-0.04,0.06,-0.26
$GPRMC,033011.000,A,1513.1774,N,14543.0385,E,1.38,354.25,030217,,,A*6C
$MOTION,217.00,-1.11,0.01,-0.05,-14.61,3.41,10.59,-0.04,0.05,-0.26
$MOTION,202.00,-1.05,-0.07,0.09,-13.60,0.60,13.67,-0.04,0.04,-0.25
$MOTION,202.00,-0.94,-0.15,0.12,-13.35,2.77,12.18,-0.04,0.03,-0.24
$MOTION,216.00,-0.92,-0.34,0.08,-9.94,5.60,2.09,-0.04,0.02,-0.24
$GPRMC,033012.000,A,1513.1779,N,14543.0386,E,1.39,12.71,030217,,,A*50
$MOTION,297.00,-1.07,-0.16,0.18,-9.94,1.25,-5.04,-0.02,-0.00,-0.23
$MOTION,202.00,-1.17,-0.05,0.15,-11.94,0.20,11.75,-0.02,-0.01,-0.22
$MOTION,203.00,-1.24,-0.07,0.11,-14.10,-4.10,13.35,-0.03,-0.02,-0.21
$MOTION,202.00,-1.17,0.18,0.27,-14.55,3.35,11.83,-0.04,-0.02,-0.20
$MOTION,217.00,-0.83,-0.13,0.10,-3.48,18.83,19.20,-0.04,-0.02,-0.21
$GPRMC,033013.000,A,1513.1784,N,14543.0388,E,1.47,14.64,030217,,,A*56
$MOTION,217.00,-1.45,-0.38,0.20,-0.87,12.67,9.82,-0.02,-0.02,-0.21
$MOTION,202.00,-1.01,-0.48,0.33,-11.25,9.14,9.12,-0.02,-0.02,-0.22
$MOTION,202.00,-1.15,-0.26,0.31,-16.61,8.97,-10.45,-0.01,-0.04,-0.20
$MOTION,216.00,-0.90,-0.16,0.23,-13.79,19.78,-7.87,0.03,-0.06,-0.20
$MOTION,217.00,-1.51,0.23,0.28,-6.78,17.36,12.69,0.05,-0.07,-0.19
$GPRMC,033014.000,A,1513.1787,N,14543.0388,E,1.50,348.83,030217,,,A*67
$MOTION,216.00,-0.51,0.27,0.22,-2.92,14.29,23.20,0.04,-0.07,-0.18
$MOTION,202.00,-0.93,-0.32,0.75,5.17,5.76,-9.44,0.05,-0.06,-0.18
$MOTION,202.00,-0.69,-0.07,0.53,6.07,15.82,-12.70,0.06,-0.05,-0.19
$MOTION,216.00,-0.57,-0.07,0.61,8.69,11.51,5.51,0.08,-0.03,-0.21
$GPRMC,033015.000,A,1513.1791,N,14543.0388,E,0.98,34.30,030217,,,A*54
$MOTION,266.00,-0.74,-0.25,0.37,9.39,-16.24,-12.79,0.10,-0.01,-0.23
$MOTION,208.00,-0.92,-0.21,0.51,1.41,-7.44,4.17,0.10,0.00,-0.24
$MOTION,202.00,-1.31,-0.05,0.59,-4.70,-5.44,8.38,0.09,0.00,-0.24
$MOTION,226.00,-1.13,-0.13,0.42,-9.32,-3.93,4.03,0.08,-0.01,-0.23
$MOTION,217.00,-1.04,-0.18,0.31,-14.74,-1.04,11.99,0.07,-0.01,-0.23
$GPRMC,033016.000,A,1513.1793,N,14543.0388,E,1.25,358.65,030217,,,A*6B
$MOTION,216.00,-0.65,-0.11,0.31,-22.24,6.92,5.28,0.07,-0.03,-0.21
$MOTION,202.00,-0.96,0.10,0.61,-19.80,2.24,4.04,0.08,-0.06,-0.19
$MOTION,202.00,-1.04,0.05,0.45,-17.17,-0.44,7.30,0.08,-0.07,-0.18
$MOTION,217.00,-0.94,0.08,0.51,-13.62,0.12,17.47,0.06,-0.09,-0.15
$MOTION,217.00,-0.97,-0.13,0.99,-9.27,0.84,13.76,0.04,-0.09,-0.14
$GPRMC,033017.000,A,1513.1795,N,14543.0387,E,0.66,351.92,030217,,,A*64
$MOTION,216.00,-0.57,-0.01,0.60,-6.84,-0.31,8.38,0.03,-0.09,-0.14
$MOTION,202.00,-1.12,-0.42,0.46,-7.88,-5.26,3.30,0.04,-0.10,-0.14
$MOTION,216.00,-1.16,-0.12,0.46,-16.46,-1.88,0.77,0.03,-0.11,-0.12
$MOTION,217.00,-0.85,0.21,0.46,-18.33,1.86,8.18,0.04,-0.12,-0.09
$GPRMC,033018.000,A,1513.1796,N,14543.0383,E,1.27,292.91,030217,,,A*65
$MOTION,238.00,-0.90,0.10,0.68,-16.28,14.48,30.39,0.03,-0.12,-0.09
$MOTION,212.00,-0.85,-0.13,0.85,-9.65,34.68,16.58,-0.01,-0.12,-0.07
$MOTION,202.00,-0.62,-0.37,0.60,-7.74,44.74,-7.91,0.01,-0.12,-0.07
$MOTION,202.00,-1.11,-0.18,0.55,-4.01,29.93,-7.04,0.05,-0.12,-0.07
$MOTION,216.00,-0.40,0.11,0.89,-9.65,25.36,-3.39,0.07,-0.13,-0.07
$GPRMC,033019.000,A,1513.1798,N,14543.0378,E,2.18,294.04,030217,,,A*6B
$MOTION,217.00,-0.42,0.05,0.86,-16.12,14.62,-9.90,0.10,-0.13,-0.05
$MOTION,202.00,-0.54,-0.12,0.98,-19.41,7.24,2.53,0.11,-0.14,-0.03
$MOTION,202.00,-0.20,0.07,0.90,-15.37,7.60,-5.14,0.12,-0.14,0.00
$MOTION,202.00,-0.25,0.34,1.00,-8.71,10.52,-10.93,0.14,-0.14,0.02
$MOTION,216.00,-0.24,0.35,0.97,-7.00,3.58,-7.30,0.16,-0.13,0.02
