$GPRMC,034746.864,A,1513.1643,N,14543.0295,E,2.36,153.01,020217,,,A*6E
$GPRMC,034747.868,A,1513.1640,N,14543.0296,E,1.32,152.94,020217,,,A*69
$MOTION,3287.00,-0.97,0.08,0.12,-4.96,-0.41,6.00,0.06,0.21,-0.35
$MOTION,193.00,-1.07,0.15,0.19,-2.04,0.80,4.00,0.05,0.23,-0.34
$MOTION,192.00,-1.02,0.13,0.13,-4.61,0.48,4.30,0.03,0.26,-0.34
$MOTION,230.00,-1.03,0.12,0.12,-2.57,-0.08,3.47,0.02,0.26,-0.34
$MOTION,229.00,-1.03,-0.01,0.10,-4.78,-0.23,7.47,0.04,0.24,-0.34
$GPRMC,034748.871,A,1513.1651,N,14543.0288,E,0.37,152.94,020217,,,A*65
$MOTION,210.00,-0.97,0.08,0.10,-3.57,0.32,2.97,0.06,0.25,-0.34
$MOTION,193.00,-1.02,0.14,0.09,-6.40,-1.64,2.50,0.07,0.22,-0.33
$MOTION,207.00,-1.00,-0.07,-0.07,-1.03,0.87,5.29,0.03,0.27,-0.34
$MOTION,205.00,-0.95,0.13,0.27,-3.39,0.84,5.73,0.03,0.27,-0.34
$GPRMC,034749.873,A,1513.1651,N,14543.0282,E,0.06,152.94,020217,,,A*6E
$MOTION,251.00,-1.04,0.15,0.11,-3.77,0.01,2.74,0.04,0.27,-0.34
$MOTION,192.00,-1.01,0.13,0.17,-0.81,3.23,9.14,0.04,0.28,-0.35
$MOTION,192.00,-1.14,0.02,0.01,-2.86,-0.07,10.24,0.04,0.28,-0.34
$MOTION,195.00,-1.00,0.07,0.09,-1.53,2.34,7.96,0.04,0.27,-0.34
$MOTION,206.00,-0.99,0.16,0.19,-2.42,1.17,4.79,0.05,0.27,-0.35
$GPRMC,034750.874,A,1513.1654,N,14543.0282,E,0.11,152.94,020217,,,A*62
$MOTION,248.00,-1.02,0.09,0.11,-2.35,0.96,4.93,0.04,0.28,-0.34
$MOTION,196.00,-1.02,0.11,0.12,-4.34,-0.49,3.56,0.05,0.26,-0.34
$MOTION,192.00,-1.04,0.16,0.11,-6.89,-3.54,1.11,0.07,0.23,-0.34
$MOTION,192.00,-0.85,-0.03,0.03,-1.41,-0.69,20.48,0.08,0.24,-0.34
$MOTION,225.00,-1.06,0.15,0.12,-4.82,-1.22,2.92,0.09,0.21,-0.34
$GPRMC,034751.875,A,1513.1655,N,14543.0284,E,0.07,152.94,020217,,,A*62
$MOTION,207.00,-1.00,0.08,0.11,-2.65,0.81,3.93,0.09,0.21,-0.34
$MOTION,192.00,-1.05,0.13,0.12,-3.26,0.22,4.90,0.10,0.21,-0.34
$MOTION,192.00,-1.00,0.12,0.12,-2.96,0.68,4.42,0.10,0.21,-0.34
$MOTION,211.00,-1.02,0.14,0.11,-3.06,0.44,4.78,0.10,0.21,-0.34
$MOTION,225.00,-1.04,0.13,0.11,-3.46,0.17,5.47,0.10,0.20,-0.34
$GPRMC,034752.873,A,1513.1659,N,14543.0282,E,0.08,152.94,020217,,,A*62
$MOTION,207.00,-1.02,0.12,0.11,-3.10,0.31,5.50,0.10,0.21,-0.34
$MOTION,192.00,-1.02,0.13,0.12,-3.30,0.49,4.76,0.09,0.20,-0.34
$MOTION,192.00,-1.01,0.11,0.12,-2.95,0.74,6.17,0.10,0.21,-0.35
$MOTION,206.00,-1.02,0.14,0.12,-3.54,0.39,4.21,0.10,0.21,-0.35
$MOTION,223.00,-1.04,0.15,0.11,-3.26,0.34,4.43,0.10,0.21,-0.34
$GPRMC,034753.874,A,1513.1657,N,14543.0286,E,0.16,152.94,020217,,,A*61
$MOTION,206.00,-1.05,0.15,0.12,-3.45,0.02,5.06,0.10,0.20,-0.34
$MOTION,192.00,-1.02,0.14,0.12,-3.69,0.38,4.06,0.10,0.21,-0.34
$MOTION,192.00,-1.01,0.11,0.12,-2.98,0.86,6.11,0.10,0.21,-0.34
$MOTION,223.00,-1.02,0.13,0.11,-3.04,0.49,5.47,0.10,0.21,-0.34
$MOTION,205.00,-1.03,0.13,0.12,-3.25,0.13,4.96,0.10,0.21,-0.35
$GPRMC,034754.873,A,1513.1654,N,14543.0288,E,0.25,152.94,020217,,,A*6C
$MOTION,207.00,-1.02,0.13,0.12,-3.01,0.19,5.30,0.10,0.21,-0.34
$MOTION,192.00,-1.01,0.11,0.13,-3.16,0.58,4.99,0.10,0.21,-0.34
$MOTION,192.00,-1.03,0.13,0.12,-3.69,0.49,5.11,0.10,0.21,-0.34
$MOTION,223.00,-1.02,0.13,0.12,-3.35,0.61,4.34,0.10,0.21,-0.34
$MOTION,205.00,-1.03,0.13,0.12,-3.19,0.49,5.03,0.11,0.21,-0.34
$GPRMC,034755.874,A,1513.1655,N,14543.0291,E,0.16,152.94,020217,,,A*63
$MOTION,204.00,-1.05,0.14,0.12,-3.16,0.36,4.64,0.10,0.21,-0.34
$MOTION,192.00,-1.03,0.12,0.12,-3.54,0.55,4.74,0.10,0.21,-0.34
$MOTION,199.00,-1.03,0.12,0.11,-3.10,0.29,5.06,0.10,0.21,-0.35
$MOTION,229.00,-1.03,0.14,0.12,-2.97,0.49,4.96,0.10,0.21,-0.34
$GPRMC,034757.000,A,1513.1655,N,14543.0292,E,0.04,152.94,020217,,,A*6A
$MOTION,233.00,-1.05,0.16,0.12,-3.33,-1.75,4.55,0.10,0.21,-0.34
$MOTION,205.00,-1.02,0.11,0.12,-2.95,0.19,5.75,0.10,0.21,-0.34
$MOTION,192.00,-1.03,0.13,0.12,-3.06,0.60,5.15,0.10,0.21,-0.35
$MOTION,192.00,-1.04,0.14,0.11,-1.96,0.29,4.01,0.10,0.20,-0.34
$MOTION,218.00,-1.04,0.14,0.12,-3.40,0.77,4.29,0.10,0.20,-0.35
$MOTION,205.00,-1.01,0.12,0.12,-2.95,0.77,5.06,0.10,0.21,-0.34
$GPRMC,034758.000,A,1513.1654,N,14543.0291,E,0.13,152.94,020217,,,A*61
$MOTION,208.00,-1.01,0.10,0.11,-3.45,0.31,5.02,0.10,0.21,-0.34
$MOTION,207.00,-1.01,0.12,0.12,-3.42,0.28,4.48,0.10,0.21,-0.35
$MOTION,192.00,-1.02,0.11,0.12,-3.00,0.70,4.82,0.10,0.21,-0.34
$MOTION,192.00,-1.05,0.12,0.12,-3.33,0.10,5.61,0.10,0.21,-0.34
$MOTION,222.00,-1.03,0.12,0.12,-3.07,0.47,5.31,0.10,0.21,-0.34
$GPRMC,034759.000,A,1513.1654,N,14543.0290,E,0.12,152.94,020217,,,A*60
$MOTION,206.00,-1.05,0.13,0.13,-2.34,0.72,5.04,0.10,0.21,-0.34
$MOTION,193.00,-1.02,0.12,0.13,-3.37,0.53,4.01,0.10,0.21,-0.35
$MOTION,192.00,-1.04,0.15,0.13,-3.51,0.61,4.06,0.10,0.21,-0.34
$MOTION,203.00,-1.02,0.13,0.12,-2.81,0.22,4.99,0.10,0.21,-0.35
$MOTION,230.00,-1.01,0.12,0.11,-3.10,0.78,4.00,0.10,0.21,-0.35
$GPRMC,034800.000,A,1513.1654,N,14543.0290,E,0.16,152.94,020217,,,A*67
$MOTION,204.00,-1.03,0.12,0.13,-4.25,-0.13,4.10,0.10,0.21,-0.35
$MOTION,192.00,-1.00,0.12,0.12,-2.93,1.01,5.20,0.10,0.21,-0.35
$MOTION,217.00,-1.03,0.12,0.12,-2.74,0.33,4.08,0.10,0.21,-0.35
$MOTION,204.00,-1.04,0.16,0.12,-3.07,-0.19,4.21,0.10,0.21,-0.35
$MOTION,226.00,-1.02,0.13,0.12,-2.68,0.55,5.03,0.10,0.21,-0.34
$GPRMC,034801.000,A,1513.1655,N,14543.0289,E,0.21,152.94,020217,,,A*6B
$MOTION,203.00,-1.05,0.13,0.10,-3.41,0.21,5.14,0.10,0.21,-0.34
$MOTION,192.00,-1.02,0.12,0.12,-4.46,-0.39,3.26,0.10,0.21,-0.34
$MOTION,207.00,-1.00,0.11,0.12,-2.83,0.43,5.30,0.10,0.21,-0.34
$MOTION,230.00,-1.09,0.19,0.15,-4.41,-1.16,1.38,0.10,0.21,-0.34
$MOTION,205.00,-1.04,0.12,0.12,-3.51,0.47,4.92,0.10,0.20,-0.34
$GPRMC,034802.000,A,1513.1655,N,14543.0288,E,0.12,152.94,020217,,,A*69
$MOTION,204.00,-1.03,0.12,0.11,-2.80,0.25,3.87,0.10,0.21,-0.35
$MOTION,192.00,-1.06,0.13,0.12,-3.93,0.26,4.32,0.10,0.20,-0.35
$MOTION,197.00,-1.02,0.16,0.16,-4.14,1.90,5.67,0.10,0.21,-0.35
$MOTION,229.00,-1.01,0.15,0.13,-0.34,1.79,4.92,0.10,0.20,-0.35
$MOTION,204.00,-1.01,0.12,0.12,-2.95,0.73,5.66,0.10,0.21,-0.35
$GPRMC,034803.000,A,1513.1656,N,14543.0289,E,0.07,152.94,020217,,,A*6E
$MOTION,207.00,-1.05,0.15,0.11,-3.31,0.22,5.57,0.10,0.21,-0.35
$MOTION,192.00,-1.07,0.17,0.13,-4.51,-0.38,2.44,0.09,0.21,-0.35
$MOTION,204.00,-1.02,0.12,0.12,-2.48,1.03,6.14,0.10,0.21,-0.34
$MOTION,205.00,-1.01,0.13,0.12,-2.97,0.53,4.92,0.10,0.21,-0.35
$GPRMC,034804.000,A,1513.1657,N,14543.0288,E,0.03,152.94,020217,,,A*6D
$MOTION,254.00,-0.99,0.15,0.11,-2.37,0.70,4.78,0.09,0.21,-0.35
$MOTION,205.00,-1.03,0.13,0.11,-2.39,0.93,6.91,0.10,0.20,-0.34
$MOTION,192.00,-1.02,0.12,0.11,-3.39,0.21,3.81,0.10,0.20,-0.34
$MOTION,200.00,-1.01,0.12,0.11,-2.24,1.24,6.24,0.10,0.21,-0.35
$MOTION,230.00,-1.04,0.13,0.12,-3.45,0.59,5.07,0.10,0.20,-0.34
$GPRMC,034805.000,A,1513.1656,N,14543.0288,E,0.05,152.94,020217,,,A*6B
$MOTION,205.00,-1.02,0.13,0.11,-3.41,0.52,5.39,0.09,0.21,-0.34
$MOTION,201.00,-1.00,0.12,0.12,-3.13,0.40,4.82,0.10,0.20,-0.34
$MOTION,192.00,-1.03,0.14,0.12,-3.46,0.10,5.20,0.10,0.20,-0.34
$MOTION,200.00,-1.01,0.15,0.14,-3.80,1.36,7.44,0.10,0.21,-0.34
$MOTION,205.00,-1.02,0.15,0.11,-3.80,0.13,3.82,0.10,0.21,-0.34
$GPRMC,034806.000,A,1513.1656,N,14543.0289,E,0.03,152.94,020217,,,A*6F
$MOTION,204.00,-1.06,0.16,0.12,-3.99,-1.56,1.52,0.10,0.20,-0.34
$MOTION,197.00,-1.02,0.14,0.12,-3.58,0.34,4.24,0.10,0.20,-0.34
$MOTION,192.00,-1.01,0.15,0.11,-3.38,0.35,5.11,0.10,0.20,-0.34
$MOTION,192.00,-1.03,0.17,0.10,-2.86,0.62,7.54,0.10,0.20,-0.34
$MOTION,225.00,-1.03,0.14,0.13,-3.16,0.40,4.93,0.10,0.20,-0.34
$GPRMC,034807.000,A,1513.1656,N,14543.0288,E,0.08,152.94,020217,,,A*64
$MOTION,204.00,-1.02,0.15,0.12,-2.98,0.37,3.37,0.09,0.20,-0.34
$MOTION,192.00,-1.07,0.16,0.12,-2.49,0.87,6.30,0.10,0.20,-0.34
$MOTION,199.00,-1.02,0.12,0.12,-3.42,0.70,4.91,0.09,0.21,-0.34
$MOTION,204.00,-1.02,0.13,0.12,-3.12,0.81,5.62,0.10,0.20,-0.35
$MOTION,224.00,-1.03,0.16,0.11,-4.83,-1.98,2.36,0.08,0.21,-0.34
$GPRMC,034808.000,A,1513.1657,N,14543.0287,E,0.04,152.94,020217,,,A*69
$MOTION,205.00,-1.01,0.17,0.09,-5.94,-0.96,4.73,0.06,0.21,-0.34
$MOTION,192.00,-1.01,0.18,0.09,-3.39,0.31,4.90,0.08,0.20,-0.35
$MOTION,213.00,-1.00,0.14,0.11,-3.07,0.81,5.04,0.09,0.20,-0.34
$MOTION,229.00,-0.99,0.15,0.07,-3.05,0.61,4.73,0.09,0.20,-0.35
$MOTION,205.00,-1.06,0.20,0.08,-6.38,-2.97,3.72,0.10,0.18,-0.35
$GPRMC,034809.000,A,1513.1657,N,14543.0286,E,0.04,152.94,020217,,,A*69
$MOTION,206.00,-1.01,0.14,0.06,-2.03,1.72,3.81,0.09,0.18,-0.35
$MOTION,192.00,-1.04,0.22,0.08,-2.62,-0.07,4.76,0.10,0.18,-0.34
$MOTION,216.00,-1.05,0.22,0.10,-2.26,0.53,4.90,0.09,0.19,-0.35
$MOTION,205.00,-1.02,0.18,0.09,-2.19,-0.06,5.27,0.10,0.19,-0.34
$GPRMC,034810.000,A,1513.1657,N,14543.0285,E,0.01,152.94,020217,,,A*67
$MOTION,261.00,-1.12,0.37,0.14,-6.28,-1.23,4.54,0.10,0.20,-0.35
$MOTION,197.00,-0.96,0.11,0.14,-12.16,-4.96,35.13,0.05,0.23,-0.34
$MOTION,192.00,-1.08,0.05,0.00,-5.87,3.15,18.89,0.04,0.24,-0.35
$MOTION,228.00,-1.05,0.07,0.10,-5.83,-1.41,1.82,0.07,0.21,-0.34
$MOTION,204.00,-1.03,0.07,0.08,-1.97,1.01,0.80,0.08,0.19,-0.34
$GPRMC,034811.000,A,1513.1658,N,14543.0284,E,0.00,152.94,020217,,,A*69
$MOTION,204.00,-1.01,0.06,0.09,-2.84,1.07,5.02,0.08,0.20,-0.34
$MOTION,192.00,-1.03,0.06,0.08,-3.84,0.37,6.09,0.07,0.20,-0.34
$MOTION,197.00,-1.03,0.09,0.09,-2.05,1.87,8.40,0.07,0.22,-0.34
$MOTION,234.00,-0.99,0.02,0.12,-6.88,3.13,21.04,0.06,0.24,-0.34
$MOTION,230.00,-0.98,-0.07,0.14,-4.79,0.61,24.70,0.04,0.25,-0.34
$GPRMC,034812.000,A,1513.1658,N,14543.0283,E,0.00,152.94,020217,,,A*6D
$MOTION,204.00,-0.98,-0.15,0.11,-3.12,0.02,1.80,0.04,0.26,-0.34
$MOTION,192.00,-1.10,-0.05,0.10,-3.09,-0.51,-0.36,0.08,0.20,-0.34
$MOTION,192.00,-1.06,0.08,-0.20,-0.79,2.87,11.78,0.07,0.22,-0.35
$MOTION,227.00,-0.89,-0.28,0.13,-2.30,1.02,18.85,0.04,0.26,-0.34
$MOTION,204.00,-1.01,-0.23,0.12,-6.13,-2.49,-10.13,0.08,0.22,-0.35
$GPRMC,034813.000,A,1513.1659,N,14543.0282,E,0.01,152.94,020217,,,A*6D
$MOTION,207.00,-1.03,-0.12,0.12,-3.77,-0.55,1.47,0.09,0.21,-0.35
$MOTION,192.00,-1.04,-0.23,0.15,-1.67,-0.45,0.96,0.08,0.21,-0.34
$MOTION,192.00,-0.97,-0.18,0.15,-4.25,-0.05,4.79,0.09,0.20,-0.34
$MOTION,221.00,-0.95,-0.18,0.11,-3.87,0.76,6.31,0.08,0.20,-0.34
$MOTION,206.00,-1.04,-0.00,0.09,-5.89,-1.05,4.48,0.09,0.19,-0.34
$GPRMC,034814.000,A,1513.1659,N,14543.0282,E,0.09,152.94,020217,,,A*62
$MOTION,204.00,-1.06,-0.17,0.10,-3.07,1.20,6.52,0.09,0.20,-0.34
$MOTION,192.00,-1.01,-0.08,0.10,-3.51,0.54,3.66,0.09,0.20,-0.34
$MOTION,203.00,-1.01,-0.15,0.10,-3.53,0.58,5.17,0.08,0.20,-0.34
$MOTION,206.00,-1.05,-0.07,0.07,-2.95,-0.17,3.95,0.09,0.20,-0.35
$MOTION,224.00,-1.03,-0.07,0.15,-3.50,0.43,5.42,0.08,0.20,-0.35
$GPRMC,034815.000,A,1513.1659,N,14543.0282,E,0.01,152.94,020217,,,A*6B
$MOTION,205.00,-1.04,-0.10,0.09,-4.48,-0.37,3.43,0.08,0.20,-0.34
$MOTION,192.00,-1.04,-0.11,0.10,-3.51,0.58,5.31,0.09,0.20,-0.34
$MOTION,196.00,-1.03,-0.10,0.08,-3.39,0.46,3.90,0.08,0.20,-0.34
$MOTION,206.00,-1.02,-0.11,0.10,-3.32,0.86,5.01,0.09,0.20,-0.34
$MOTION,224.00,-1.01,-0.15,0.05,-3.64,0.73,5.20,0.09,0.20,-0.35
$GPRMC,034816.000,A,1513.1659,N,14543.0281,E,0.04,152.94,020217,,,A*6E
$MOTION,205.00,-1.02,-0.12,0.10,-3.19,0.64,4.87,0.09,0.20,-0.35
$MOTION,192.00,-1.05,-0.09,0.09,-3.17,0.43,4.84,0.09,0.20,-0.35
$MOTION,204.00,-1.02,-0.08,0.10,-2.98,0.47,4.79,0.08,0.20,-0.35
$MOTION,206.00,-1.02,-0.11,0.08,-3.49,0.26,4.52,0.08,0.20,-0.34
$GPRMC,034817.000,A,1513.1660,N,14543.0281,E,0.04,152.94,020217,,,A*65
$MOTION,224.00,-1.04,-0.09,0.09,-2.74,0.77,5.60,0.09,0.20,-0.34
$MOTION,198.00,-1.03,-0.11,0.10,-3.01,0.52,4.70,0.09,0.20,-0.34
$MOTION,218.00,-1.01,-0.12,0.10,-3.07,0.72,5.44,0.09,0.20,-0.34
$MOTION,206.00,-1.03,-0.10,0.08,-2.80,0.41,5.57,0.08,0.20,-0.34
$MOTION,223.00,-1.02,-0.01,0.06,-3.34,0.31,5.32,0.08,0.20,-0.34
$GPRMC,034818.000,A,1513.1660,N,14543.0281,E,0.03,152.94,020217,,,A*6D
$MOTION,206.00,-1.05,-0.10,0.12,-3.41,0.94,5.28,0.08,0.20,-0.34
$MOTION,193.00,-1.03,-0.10,0.09,-3.52,0.30,4.77,0.09,0.20,-0.34
$MOTION,192.00,-1.19,0.09,0.06,-3.39,-6.22,-3.10,0.09,0.19,-0.34
$MOTION,192.00,-1.05,-0.03,0.09,-1.67,0.98,7.55,0.08,0.20,-0.34
$MOTION,228.00,-1.06,-0.07,0.04,-1.61,0.21,4.88,0.06,0.21,-0.34
$GPRMC,034820.000,A,1513.1660,N,14543.0280,E,0.04,152.94,020217,,,A*60
$MOTION,242.00,-1.02,-0.12,0.11,-4.13,0.18,4.95,0.07,0.21,-0.34
$MOTION,192.00,-1.07,-0.10,0.08,-2.07,1.35,5.76,0.07,0.21,-0.34
$MOTION,192.00,-1.06,-0.10,0.03,-3.81,0.13,5.69,0.06,0.22,-0.34
$MOTION,192.00,-1.10,-0.30,-0.12,-8.38,0.01,4.46,0.07,0.22,-0.34
$MOTION,207.00,-1.00,-0.12,0.06,-1.46,1.78,5.33,0.07,0.20,-0.34
$MOTION,206.00,-1.04,-0.05,0.10,-3.51,0.37,4.69,0.08,0.20,-0.34
$MOTION,229.00,-1.01,-0.11,0.10,-3.26,0.07,4.94,0.08,0.20,-0.34
$MOTION,213.00,-1.02,-0.10,0.09,-3.28,0.86,5.50,0.08,0.19,-0.34
$GPRMC,034821.000,A,1513.1660,N,14543.0280,E,0.00,152.94,020217,,,A*65
$MOTION,254.00,-1.05,-0.06,0.07,-3.36,0.52,4.94,0.08,0.20,-0.34
$MOTION,192.00,-1.03,-0.08,0.07,-3.36,0.55,4.64,0.09,0.20,-0.35
$MOTION,192.00,-1.03,-0.09,0.08,-3.11,0.30,5.30,0.09,0.20,-0.34
$MOTION,193.00,-1.02,-0.10,0.09,-3.24,0.35,5.03,0.09,0.20,-0.34
$MOTION,210.00,-1.04,-0.09,0.09,-2.95,0.66,5.34,0.08,0.20,-0.34
$MOTION,205.00,-1.02,-0.11,0.07,-3.27,0.28,5.07,0.08,0.20,-0.35
$MOTION,223.00,-1.01,-0.08,0.08,-1.95,0.31,4.35,0.08,0.20,-0.34
$GPRMC,034822.000,A,1513.1660,N,14543.0280,E,0.03,152.94,020217,,,A*65
$MOTION,206.00,-1.03,-0.10,0.08,-3.29,0.40,5.41,0.08,0.20,-0.34
$MOTION,192.00,-1.04,-0.10,0.08,-2.82,0.19,5.32,0.08,0.19,-0.34
$MOTION,210.00,-1.01,-0.12,0.08,-2.94,0.48,4.70,0.09,0.20,-0.34
$MOTION,205.00,-1.04,-0.09,0.07,-3.42,0.68,4.78,0.08,0.20,-0.34
$MOTION,227.00,-1.02,-0.10,0.08,-3.75,0.38,5.36,0.09,0.19,-0.34
$GPRMC,034823.000,A,1513.1660,N,14543.0280,E,0.02,152.94,020217,,,A*65
$MOTION,205.00,-1.04,-0.09,0.08,-3.01,0.63,5.29,0.09,0.19,-0.34
$MOTION,192.00,-0.99,-0.10,0.10,-4.24,0.01,4.70,0.08,0.19,-0.34
$MOTION,192.00,-1.00,-0.10,0.09,-3.56,0.19,5.41,0.09,0.19,-0.34
$MOTION,225.00,-1.01,-0.11,0.11,-3.85,0.10,4.41,0.09,0.19,-0.34
$MOTION,227.00,-1.04,-0.09,0.07,-2.87,0.34,4.53,0.08,0.19,-0.34
$GPRMC,034824.000,A,1513.1660,N,14543.0280,E,0.06,152.94,020217,,,A*66
$MOTION,206.00,-1.05,-0.09,0.08,-3.66,0.76,4.37,0.09,0.19,-0.34
$MOTION,192.00,-1.07,-0.07,0.07,-3.01,0.50,6.22,0.09,0.19,-0.35
$MOTION,192.00,-1.05,-0.07,0.07,-4.08,1.88,4.16,0.09,0.19,-0.35
$MOTION,226.00,-1.01,-0.09,0.06,-2.42,0.98,3.94,0.09,0.19,-0.34
$GPRMC,034825.000,A,1513.1660,N,14543.0280,E,0.02,152.94,020217,,,A*63
$MOTION,252.00,-1.07,-0.13,0.06,-4.19,0.45,2.99,0.08,0.19,-0.34
$MOTION,192.00,-1.01,-0.12,0.09,-2.27,1.38,6.92,0.08,0.18,-0.34
$MOTION,201.00,-1.03,-0.01,0.09,-2.43,0.96,5.52,0.08,0.19,-0.33
$MOTION,205.00,-1.00,-0.09,0.08,-4.43,-0.61,4.49,0.08,0.20,-0.34
$MOTION,224.00,-1.03,-0.09,0.07,-1.62,1.98,5.35,0.08,0.19,-0.34
$GPRMC,034826.000,A,1513.1660,N,14543.0280,E,0.03,152.94,020217,,,A*61
$MOTION,206.00,-1.04,-0.07,0.08,-2.81,0.72,5.84,0.08,0.19,-0.35
$MOTION,192.00,-1.03,-0.10,0.08,-3.80,-0.42,4.24,0.08,0.19,-0.35
$MOTION,192.00,-1.03,-0.07,0.08,-3.40,0.19,4.90,0.09,0.19,-0.34
$MOTION,225.00,-1.00,-0.11,0.09,-3.07,1.31,6.20,0.09,0.19,-0.34
$MOTION,231.00,-1.05,-0.08,0.07,-3.20,0.73,5.01,0.09,0.19,-0.34
$GPRMC,034827.000,A,1513.1660,N,14543.0280,E,0.02,152.94,020217,,,A*61
$MOTION,205.00,-0.97,-0.22,0.09,-3.54,0.50,4.70,0.09,0.19,-0.34
$MOTION,192.00,-1.01,-0.07,0.08,-2.92,0.57,5.38,0.09,0.19,-0.35
$MOTION,192.00,-1.02,-0.05,0.09,-2.19,0.95,3.68,0.08,0.19,-0.34
$MOTION,227.00,-1.01,-0.07,0.10,-3.07,0.62,4.42,0.09,0.19,-0.34
$MOTION,225.00,-1.02,-0.08,0.11,-3.32,0.28,3.98,0.09,0.20,-0.35
$GPRMC,034828.000,A,1513.1660,N,14543.0280,E,0.02,152.94,020217,,,A*6E
$MOTION,205.00,-1.03,-0.07,0.10,-2.84,1.34,5.32,0.09,0.19,-0.34
$MOTION,215.00,-1.03,-0.09,0.09,-2.98,0.54,4.81,0.09,0.19,-0.34
$MOTION,206.00,-1.02,-0.10,0.08,-2.90,0.58,5.91,0.09,0.19,-0.34
$MOTION,225.00,-1.04,-0.08,0.09,-3.33,-0.05,4.99,0.09,0.19,-0.35
$GPRMC,034829.000,A,1513.1660,N,14543.0280,E,0.06,152.94,020217,,,A*6B
$MOTION,204.00,-1.03,-0.07,0.10,-3.35,0.58,4.44,0.09,0.19,-0.34
$MOTION,192.00,-1.05,-0.08,0.09,-1.92,0.24,4.23,0.09,0.19,-0.34
$MOTION,207.00,-1.03,-0.10,0.08,-3.13,0.74,5.21,0.09,0.19,-0.34
$MOTION,204.00,-1.04,-0.08,0.09,-3.48,0.37,5.11,0.09,0.20,-0.34
$MOTION,228.00,-1.05,-0.04,0.11,-2.92,0.48,4.90,0.08,0.19,-0.34
$GPRMC,034830.000,A,1513.1660,N,14543.0280,E,0.16,152.94,020217,,,A*62
$MOTION,207.00,-1.02,-0.09,0.10,-3.61,0.85,5.35,0.09,0.20,-0.34
$MOTION,192.00,-1.03,-0.10,0.08,-3.32,0.50,5.16,0.09,0.20,-0.34
$MOTION,192.00,-1.02,-0.07,0.08,-3.54,0.38,5.26,0.09,0.20,-0.34
$MOTION,227.00,-1.04,-0.08,0.11,-3.90,-0.19,4.19,0.09,0.19,-0.34
$MOTION,229.00,-1.08,-0.10,0.08,-3.20,0.21,5.38,0.09,0.19,-0.34
$GPRMC,034831.000,A,1513.1660,N,14543.0280,E,0.03,152.94,020217,,,A*67
$MOTION,206.00,-1.02,-0.09,0.10,-4.05,0.04,4.73,0.09,0.19,-0.34
$MOTION,192.00,-1.03,-0.07,0.10,-2.94,0.50,4.90,0.09,0.20,-0.34
$MOTION,192.00,-1.05,-0.05,0.08,-3.67,0.32,4.66,0.09,0.20,-0.34
$MOTION,207.00,-0.99,-0.10,0.09,-1.99,1.67,4.19,0.09,0.19,-0.34
$MOTION,222.00,-1.08,-0.29,0.26,-0.16,3.24,8.52,0.09,0.19,-0.34
$GPRMC,034832.000,A,1513.1660,N,14543.0280,E,0.06,152.94,020217,,,A*61
$MOTION,206.00,-0.98,-0.07,0.09,-3.42,0.12,5.71,0.09,0.20,-0.34
$MOTION,192.00,-1.07,-0.06,0.11,-2.44,-0.59,3.27,0.09,0.20,-0.34
$MOTION,192.00,-1.01,-0.10,0.14,1.49,-1.22,3.41,0.08,0.20,-0.34
$MOTION,223.00,-1.00,-0.10,0.10,-1.62,0.13,5.20,0.08,0.21,-0.34
$GPRMC,034833.000,A,1513.1660,N,14543.0280,E,0.01,152.94,020217,,,A*67
$MOTION,210.00,-1.02,-0.11,-0.01,-2.98,0.28,4.99,0.08,0.22,-0.34
$MOTION,203.00,-1.01,-0.13,0.05,-3.69,0.46,4.34,0.08,0.22,-0.34
$MOTION,192.00,-1.03,-0.07,0.07,-2.89,0.49,5.15,0.08,0.21,-0.34
$MOTION,194.00,-1.03,-0.07,0.08,-3.07,0.64,4.93,0.08,0.21,-0.34
$MOTION,223.00,-1.02,-0.08,0.06,-1.43,2.01,4.52,0.08,0.22,-0.34
$GPRMC,034834.000,A,1513.1660,N,14543.0280,E,0.05,152.94,020217,,,A*64
$MOTION,205.00,-1.04,-0.02,0.10,-5.50,0.79,3.34,0.08,0.22,-0.34
$MOTION,192.00,-1.11,-0.04,0.08,-2.44,0.96,6.18,0.09,0.21,-0.34
$MOTION,192.00,-1.00,-0.10,0.08,-3.90,0.11,4.91,0.09,0.21,-0.34
$MOTION,203.00,-1.09,0.06,0.15,1.17,1.05,4.87,0.09,0.21,-0.35
$MOTION,204.00,-1.02,-0.04,0.11,-2.94,0.65,4.96,0.09,0.21,-0.35
$GPRMC,034835.000,A,1513.1660,N,14543.0280,E,0.05,152.94,020217,,,A*65
$MOTION,218.00,-0.97,-0.08,0.09,-3.27,0.55,4.39,0.09,0.21,-0.34
$MOTION,192.00,-1.05,-0.05,0.09,-2.57,0.47,5.35,0.08,0.21,-0.35
$MOTION,192.00,-1.06,-0.06,0.09,-3.54,0.13,4.34,0.09,0.21,-0.35
$MOTION,192.00,-1.04,-0.05,0.08,-3.62,0.73,4.37,0.09,0.20,-0.36
$MOTION,206.00,-1.03,-0.07,0.09,-3.77,0.58,5.32,0.09,0.21,-0.34
$GPRMC,034836.000,A,1513.1660,N,14543.0280,E,0.09,152.94,020217,,,A*6A
$MOTION,230.00,-0.98,0.18,0.34,-13.31,-0.88,7.10,0.09,0.20,-0.34
$MOTION,192.00,-1.04,-0.06,0.09,-2.81,0.38,4.49,0.09,0.20,-0.35
$MOTION,192.00,-1.03,-0.05,0.09,-4.76,0.58,4.53,0.10,0.20,-0.35
$MOTION,214.00,-1.04,-0.05,0.09,-3.13,0.19,4.72,0.10,0.20,-0.34
$MOTION,204.00,-1.03,-0.03,0.09,-3.48,0.48,5.20,0.10,0.20,-0.34
$GPRMC,034837.000,A,1513.1660,N,14543.0281,E,0.06,152.94,020217,,,A*65
$MOTION,211.00,-1.02,-0.06,0.08,-3.42,0.49,4.97,0.09,0.21,-0.35
$MOTION,208.00,-1.06,-0.05,0.10,-3.38,0.08,5.02,0.09,0.20,-0.35
$MOTION,192.00,-1.03,-0.05,0.08,-2.76,0.76,5.54,0.09,0.20,-0.35
$MOTION,198.00,-1.05,-0.06,0.09,-2.91,0.97,4.46,0.09,0.20,-0.34
$MOTION,206.00,-1.06,-0.04,0.09,-3.46,0.27,5.50,0.09,0.20,-0.35
$GPRMC,034838.000,A,1513.1660,N,14543.0281,E,0.06,152.94,020217,,,A*6A
$MOTION,209.00,-1.04,-0.05,0.11,-3.43,0.63,4.79,0.09,0.21,-0.34
$MOTION,208.00,-1.01,-0.06,0.09,-3.48,0.28,5.08,0.10,0.20,-0.35
$MOTION,192.00,-1.04,-0.04,0.08,-3.74,0.31,5.32,0.09,0.20,-0.34
$MOTION,192.00,-1.04,-0.04,0.10,-2.71,1.20,4.96,0.10,0.20,-0.35
$MOTION,225.00,-1.02,-0.07,0.08,-4.93,1.41,5.67,0.09,0.21,-0.34
$GPRMC,034839.000,A,1513.1659,N,14543.0281,E,0.08,152.94,020217,,,A*6F
$MOTION,207.00,-1.01,-0.08,0.10,-4.16,0.24,4.36,0.09,0.20,-0.34
$MOTION,193.00,-1.03,-0.06,0.10,-3.79,0.52,5.47,0.09,0.20,-0.35
$MOTION,192.00,-1.02,0.05,0.11,-4.20,-0.11,4.98,0.10,0.20,-0.35
$MOTION,201.00,-1.01,-0.08,0.09,-3.04,0.37,5.17,0.09,0.20,-0.34
$MOTION,204.00,-0.97,-0.06,0.01,-3.48,0.43,4.94,0.09,0.20,-0.35
$GPRMC,034840.000,A,1513.1659,N,14543.0281,E,0.08,152.94,020217,,,A*61
$MOTION,226.00,-1.06,-0.06,0.08,-4.46,-0.45,5.50,0.10,0.20,-0.35
$MOTION,192.00,-1.01,-0.07,0.10,-2.98,0.69,6.33,0.10,0.21,-0.34
$MOTION,192.00,-1.05,-0.05,0.07,-4.98,-0.71,5.04,0.09,0.20,-0.35
$MOTION,192.00,-0.87,-0.07,0.11,-2.66,1.49,6.24,0.10,0.19,-0.36
$MOTION,223.00,-0.93,-0.10,0.07,-3.18,1.90,5.12,0.10,0.19,-0.34
$GPRMC,034841.000,A,1513.1659,N,14543.0281,E,0.09,152.94,020217,,,A*61
$MOTION,217.00,-1.04,-0.04,0.15,-1.24,0.51,3.27,0.10,0.19,-0.35
$MOTION,196.00,-1.03,-0.08,0.11,-1.20,1.91,5.73,0.10,0.19,-0.35
$MOTION,192.00,-0.99,-0.07,0.08,-3.22,-0.40,4.92,0.09,0.21,-0.34
$MOTION,205.00,-1.09,-0.06,0.08,-2.64,1.79,4.98,0.09,0.21,-0.35
$MOTION,226.00,-1.40,-0.33,0.40,-5.67,-0.13,2.53,0.09,0.21,-0.35
$GPRMC,034842.000,A,1513.1659,N,14543.0281,E,0.08,152.94,020217,,,A*63
$MOTION,205.00,-0.97,-0.08,0.09,-4.19,-0.76,3.22,0.10,0.20,-0.35
$MOTION,192.00,-0.99,-0.03,0.01,-1.91,2.30,6.02,0.09,0.20,-0.35
$MOTION,218.00,-0.96,0.00,0.13,-3.91,0.25,3.07,0.09,0.20,-0.34
$MOTION,226.00,-1.03,-0.06,0.09,-2.94,0.21,5.73,0.10,0.20,-0.35
$MOTION,206.00,-1.04,-0.03,0.08,-1.40,1.04,6.90,0.10,0.20,-0.35
$GPRMC,034843.000,A,1513.1659,N,14543.0281,E,0.09,152.94,020217,,,A*63
$MOTION,205.00,-0.98,-0.07,0.09,-3.16,-0.29,5.97,0.10,0.20,-0.34
$MOTION,193.00,-1.04,-0.04,0.10,-3.07,0.22,4.94,0.09,0.21,-0.34
$MOTION,216.00,-0.99,-0.11,0.10,-0.49,2.53,5.35,0.09,0.21,-0.34
$MOTION,206.00,-1.02,-0.04,0.10,-2.55,0.84,5.74,0.09,0.21,-0.34
$MOTION,220.00,-1.05,-0.05,0.11,-4.36,0.19,2.02,0.09,0.22,-0.35
$GPRMC,034844.000,A,1513.1658,N,14543.0281,E,0.07,152.94,020217,,,A*6B
$MOTION,206.00,-1.03,-0.06,0.10,-5.23,-0.94,3.92,0.10,0.21,-0.35
$MOTION,192.00,-1.03,-0.05,0.11,-3.18,0.18,5.56,0.10,0.21,-0.35
$MOTION,213.00,-1.02,-0.04,0.14,-3.87,0.92,5.22,0.10,0.21,-0.34
$MOTION,228.00,-1.04,-0.06,0.10,-4.19,-0.37,3.82,0.10,0.21,-0.34
$GPRMC,034845.000,A,1513.1658,N,14543.0281,E,0.00,152.94,020217,,,A*6D
$MOTION,212.00,-0.99,-0.06,0.10,-3.31,0.45,4.49,0.10,0.21,-0.34
$MOTION,192.00,-1.04,-0.04,0.09,-2.14,1.16,5.42,0.09,0.21,-0.35
$MOTION,192.00,-1.04,-0.04,0.10,-3.30,0.26,4.99,0.10,0.20,-0.34
$MOTION,215.00,-1.03,-0.05,0.10,-3.00,0.89,5.20,0.10,0.21,-0.34
$MOTION,235.00,-1.03,-0.06,0.10,-3.27,0.55,5.85,0.10,0.20,-0.34
$GPRMC,034846.000,A,1513.1658,N,14543.0281,E,0.02,152.94,020217,,,A*6C
$MOTION,204.00,-1.01,-0.05,0.10,-3.54,0.52,4.54,0.10,0.21,-0.34
$MOTION,192.00,-1.01,-0.06,0.12,-4.10,0.09,4.48,0.09,0.21,-0.34
$MOTION,192.00,-1.04,-0.04,0.11,-3.22,0.52,5.10,0.09,0.21,-0.34
$MOTION,227.00,-1.04,-0.04,0.11,-0.82,1.76,5.14,0.10,0.22,-0.34
$MOTION,229.00,-1.02,-0.06,0.10,-3.12,0.44,3.30,0.09,0.25,-0.34
$GPRMC,034847.000,A,1513.1658,N,14543.0281,E,0.03,152.94,020217,,,A*6C
$MOTION,206.00,-1.01,-0.08,0.11,-2.70,0.58,4.94,0.10,0.22,-0.34
$MOTION,192.00,-1.03,-0.05,0.11,-4.03,0.09,5.49,0.09,0.21,-0.34
$MOTION,192.00,-1.03,-0.03,0.09,-2.00,-1.79,4.34,0.09,0.21,-0.34
$MOTION,223.00,-1.01,-0.05,0.12,-3.98,0.03,4.65,0.10,0.22,-0.34
$MOTION,205.00,-1.03,-0.06,0.09,-3.43,0.71,5.85,0.09,0.21,-0.34
$GPRMC,034848.000,A,1513.1658,N,14543.0281,E,0.01,152.94,020217,,,A*61
$MOTION,204.00,-1.02,-0.07,0.11,-3.35,0.37,5.05,0.09,0.21,-0.34
$MOTION,192.00,-1.03,-0.05,0.11,-2.77,0.66,6.15,0.09,0.21,-0.35
$MOTION,197.00,-1.03,-0.05,0.11,-3.62,0.51,5.24,0.09,0.21,-0.34
$MOTION,227.00,-1.02,-0.05,0.12,-3.42,0.36,4.59,0.09,0.22,-0.34
$MOTION,205.00,-1.03,-0.04,0.12,-3.36,0.62,5.35,0.09,0.21,-0.34
$GPRMC,034849.000,A,1513.1658,N,14543.0281,E,0.02,152.94,020217,,,A*63
$MOTION,205.00,-1.03,-0.05,0.11,-3.38,0.52,5.31,0.09,0.22,-0.34
$MOTION,192.00,-1.03,-0.06,0.09,-3.30,0.48,4.79,0.10,0.21,-0.34
$MOTION,193.00,-1.08,-0.02,0.10,-1.94,0.18,3.84,0.09,0.21,-0.34
$MOTION,232.00,-1.03,-0.04,0.12,-3.76,0.30,5.29,0.09,0.21,-0.34
$GPRMC,034850.000,A,1513.1658,N,14543.0281,E,0.02,152.94,020217,,,A*6B
$MOTION,217.00,-1.04,-0.04,0.10,-4.10,0.01,4.55,0.10,0.21,-0.34
$MOTION,208.00,-1.03,-0.04,0.07,-3.29,0.78,4.02,0.10,0.21,-0.35
$MOTION,192.00,-1.07,-0.08,0.05,-3.93,-0.54,5.33,0.10,0.21,-0.35
$MOTION,192.00,-1.02,-0.05,0.10,-3.22,0.46,5.62,0.10,0.21,-0.34
$MOTION,224.00,-1.03,-0.04,0.10,-3.21,0.38,4.90,0.10,0.21,-0.35
$GPRMC,034851.000,A,1513.1658,N,14543.0281,E,0.01,152.94,020217,,,A*69
$MOTION,205.00,-1.01,-0.05,0.10,-3.11,0.87,5.14,0.09,0.21,-0.35
$MOTION,192.00,-1.02,-0.06,0.10,-3.37,0.09,5.10,0.10,0.21,-0.34
$MOTION,192.00,-1.01,-0.03,0.10,-3.48,0.18,5.10,0.10,0.21,-0.35
$MOTION,192.00,-1.02,-0.04,0.10,-3.44,0.25,5.26,0.09,0.21,-0.35
$MOTION,226.00,-1.05,-0.04,0.10,-3.42,0.52,5.73,0.09,0.21,-0.34
$GPRMC,034852.000,A,1513.1658,N,14543.0281,E,0.01,152.94,020217,,,A*6A
$MOTION,206.00,-1.02,-0.07,0.11,-3.02,0.49,4.87,0.10,0.21,-0.34
$MOTION,192.00,-1.03,-0.05,0.10,-3.42,0.76,4.65,0.10,0.21,-0.34
$MOTION,218.00,-1.04,-0.03,0.10,-3.69,0.43,4.78,0.10,0.21,-0.34
$MOTION,205.00,-1.15,-0.11,0.25,-1.97,0.71,4.73,0.10,0.21,-0.34
$MOTION,225.00,-1.00,-0.05,0.08,-3.28,0.06,4.89,0.10,0.21,-0.35
$GPRMC,034853.000,A,1513.1658,N,14543.0281,E,0.03,152.94,020217,,,A*69
$MOTION,204.00,-1.01,-0.03,0.14,-2.74,0.77,6.09,0.10,0.21,-0.35
$MOTION,193.00,-1.05,-0.03,0.09,-3.32,0.19,4.73,0.10,0.21,-0.35
$MOTION,192.00,-1.03,-0.05,0.10,-3.19,0.87,7.54,0.10,0.21,-0.35
$MOTION,226.00,-1.02,-0.06,0.11,-3.03,0.42,5.61,0.10,0.20,-0.34
$MOTION,229.00,-1.05,-0.02,0.06,-3.40,0.29,4.76,0.09,0.21,-0.34
$GPRMC,034854.000,A,1513.1658,N,14543.0281,E,0.03,152.94,020217,,,A*6E
$MOTION,206.00,-1.02,-0.05,0.11,-3.08,0.45,4.07,0.10,0.20,-0.34
$MOTION,193.00,-1.04,-0.06,0.10,-2.80,0.94,6.36,0.09,0.21,-0.34
$MOTION,192.00,-1.05,-0.03,0.11,-3.18,0.46,5.11,0.09,0.21,-0.35
$MOTION,222.00,-1.03,-0.06,0.06,-3.62,0.24,5.33,0.10,0.21,-0.34
$GPRMC,034855.000,A,1513.1658,N,14543.0281,E,0.02,152.94,020217,,,A*6E
$MOTION,238.00,-0.97,-0.09,0.07,-4.51,2.33,-1.11,0.10,0.21,-0.34
$MOTION,206.00,-1.01,-0.06,0.09,-15.13,1.47,1.88,0.10,0.22,-0.34
$MOTION,192.00,-0.97,-0.15,0.10,-8.21,-2.42,9.85,0.09,0.23,-0.35
$MOTION,192.00,-1.02,-0.07,0.10,-4.75,-1.76,1.44,0.09,0.21,-0.34
$MOTION,206.00,-1.09,0.01,0.10,-0.36,3.81,14.72,0.09,0.22,-0.34
$GPRMC,034856.000,A,1513.1658,N,14543.0281,E,0.03,152.94,020217,,,A*6C
$MOTION,238.00,-1.06,-0.07,0.08,-3.72,0.55,2.94,0.09,0.21,-0.34
$MOTION,205.00,-1.03,-0.08,0.10,-3.22,0.53,4.99,0.10,0.20,-0.35
$MOTION,212.00,-1.03,-0.08,0.10,-3.36,0.41,5.30,0.09,0.20,-0.35
$MOTION,228.00,-1.02,-0.07,0.10,-3.36,0.57,4.08,0.09,0.20,-0.35
$MOTION,205.00,-1.02,-0.08,0.11,-3.34,0.84,5.27,0.10,0.20,-0.35
$GPRMC,034857.000,A,1513.1658,N,14543.0281,E,0.01,152.94,020217,,,A*6F
$MOTION,204.00,-1.02,-0.09,0.11,-3.30,0.47,4.90,0.10,0.20,-0.34
$MOTION,192.00,-1.02,-0.09,0.10,-2.96,0.59,5.20,0.10,0.20,-0.35
$MOTION,192.00,-1.02,-0.07,0.11,-3.52,0.29,5.18,0.10,0.20,-0.34
$MOTION,192.00,-1.03,-0.07,0.10,-3.42,0.21,4.98,0.10,0.20,-0.34
$MOTION,227.00,-1.04,-0.08,0.10,-3.30,0.22,5.32,0.09,0.20,-0.35
$GPRMC,034858.000,A,1513.1658,N,14543.0281,E,0.01,152.94,020217,,,A*60
$MOTION,204.00,-1.02,-0.08,0.10,-3.81,0.23,4.93,0.09,0.21,-0.36
$MOTION,192.00,-1.03,-0.08,0.10,-3.36,0.52,4.58,0.09,0.21,-0.35
$MOTION,192.00,-1.04,-0.07,0.10,-3.07,0.49,5.80,0.10,0.21,-0.35
$MOTION,192.00,-1.02,-0.09,0.10,-2.99,0.48,5.08,0.10,0.21,-0.35
$MOTION,224.00,-1.03,-0.08,0.10,-3.38,0.19,5.50,0.10,0.21,-0.35
$GPRMC,034859.000,A,1513.1658,N,14543.0281,E,0.02,152.94,020217,,,A*62
$MOTION,206.00,-1.03,-0.07,0.10,-3.24,0.65,4.95,0.10,0.21,-0.35
$MOTION,192.00,-1.05,-0.07,0.10,-3.54,0.40,4.29,0.10,0.20,-0.34
$MOTION,208.00,-1.02,-0.07,0.11,-3.05,0.57,5.23,0.10,0.20,-0.34
$MOTION,206.00,-1.03,-0.08,0.10,-3.32,0.31,5.22,0.10,0.20,-0.34
$MOTION,226.00,-1.03,-0.09,0.10,-3.34,0.60,5.30,0.09,0.20,-0.34
$GPRMC,034900.000,A,1513.1658,N,14543.0281,E,0.01,152.94,020217,,,A*6C
$MOTION,204.00,-1.01,-0.09,0.10,-3.16,0.72,5.14,0.10,0.21,-0.35
$MOTION,192.00,-1.04,-0.07,0.09,-3.39,0.37,5.38,0.10,0.20,-0.34
$MOTION,203.00,-1.02,-0.08,0.10,-3.17,0.37,4.82,0.10,0.20,-0.34
$MOTION,205.00,-1.03,-0.08,0.10,-3.51,0.53,4.56,0.10,0.20,-0.34
$MOTION,222.00,-1.02,-0.09,0.10,-3.04,0.16,5.40,0.10,0.20,-0.34
$GPRMC,034901.000,A,1513.1658,N,14543.0281,E,0.01,152.94,020217,,,A*6D
$MOTION,206.00,-1.04,-0.07,0.11,-3.13,0.26,4.73,0.10,0.20,-0.34
$MOTION,193.00,-1.03,-0.08,0.11,-3.57,0.48,5.32,0.09,0.20,-0.34
$MOTION,193.00,-1.04,-0.07,0.10,-3.57,0.52,4.91,0.10,0.20,-0.33
$MOTION,226.00,-1.06,-0.06,0.10,-3.21,0.62,5.38,0.10,0.21,-0.34
$MOTION,205.00,-1.02,-0.09,0.10,-3.42,0.46,5.07,0.09,0.20,-0.34
$GPRMC,034902.000,A,1513.1658,N,14543.0281,E,0.00,152.94,020217,,,A*6F
$MOTION,203.00,-1.03,-0.07,0.10,-3.62,0.62,4.71,0.10,0.20,-0.35
$MOTION,192.00,-1.02,-0.09,0.10,-3.27,0.69,5.12,0.10,0.20,-0.34
$MOTION,192.00,-1.03,-0.08,0.10,-3.20,0.19,4.70,0.10,0.20,-0.34
$MOTION,226.00,-1.02,-0.09,0.10,-3.04,0.54,5.46,0.10,0.21,-0.34
$GPRMC,034903.000,A,1513.1658,N,14543.0281,E,0.01,152.94,020217,,,A*6F
$MOTION,207.00,-1.02,-0.08,0.10,-3.11,0.35,4.92,0.10,0.21,-0.35
$MOTION,204.00,-1.04,-0.07,0.10,-3.19,0.64,4.37,0.09,0.21,-0.34
$MOTION,192.00,-1.02,-0.09,0.11,-3.13,0.51,5.59,0.10,0.21,-0.35
$MOTION,198.00,-1.04,-0.07,0.10,-3.75,0.31,5.09,0.10,0.20,-0.34
$MOTION,206.00,-1.02,-0.08,0.10,-3.45,0.66,5.26,0.10,0.20,-0.35
$GPRMC,034904.000,A,1513.1658,N,14543.0281,E,0.01,152.94,020217,,,A*68
$MOTION,250.00,-1.04,-0.06,0.11,-3.34,0.43,5.65,0.10,0.21,-0.34
$MOTION,205.00,-1.03,-0.08,0.10,-3.37,0.61,4.67,0.10,0.20,-0.34
$MOTION,192.00,-1.04,-0.07,0.10,-3.42,0.52,5.02,0.10,0.20,-0.35
$MOTION,203.00,-1.01,-0.08,0.11,-3.43,0.39,4.60,0.09,0.21,-0.34
$MOTION,233.00,-1.03,-0.08,0.11,-3.26,0.51,5.01,0.10,0.21,-0.35
$GPRMC,034905.000,A,1513.1658,N,14543.0281,E,0.02,152.94,020217,,,A*6A
$MOTION,221.00,-1.03,-0.06,0.10,-3.16,0.43,5.19,0.09,0.20,-0.35
$MOTION,202.00,-1.03,-0.07,0.11,-3.77,0.47,4.65,0.10,0.21,-0.34
$MOTION,192.00,-1.03,-0.08,0.11,-3.50,0.57,5.54,0.10,0.20,-0.34
$MOTION,225.00,-1.03,-0.07,0.10,-3.44,0.43,4.70,0.10,0.20,-0.34
$MOTION,205.00,-1.03,-0.09,0.11,-3.48,0.21,5.41,0.09,0.21,-0.34
$GPRMC,034906.000,A,1513.1658,N,14543.0281,E,0.01,152.94,020217,,,A*6A
$MOTION,207.00,-1.03,-0.08,0.11,-2.83,0.41,5.14,0.10,0.21,-0.34
$MOTION,193.00,-1.04,-0.08,0.10,-3.57,0.40,5.23,0.10,0.21,-0.34
$MOTION,205.00,-1.04,-0.08,0.10,-3.18,0.80,5.35,0.10,0.21,-0.35
$MOTION,234.00,-1.03,-0.08,0.10,-1.97,0.48,4.75,0.10,0.20,-0.35
$MOTION,204.00,-1.04,-0.06,0.10,-3.42,0.57,5.59,0.10,0.21,-0.35
$GPRMC,034907.000,A,1513.1658,N,14543.0281,E,0.01,152.94,020217,,,A*6B
$MOTION,205.00,-1.02,-0.08,0.10,-3.65,0.08,4.52,0.09,0.21,-0.34
$MOTION,192.00,-1.02,-0.07,0.10,-3.17,0.52,5.67,0.09,0.20,-0.35
$MOTION,202.00,-1.02,-0.08,0.10,-3.30,0.35,5.04,0.10,0.20,-0.35
$MOTION,204.00,-1.02,-0.06,0.10,-3.27,0.41,5.47,0.10,0.20,-0.34
$MOTION,223.00,-1.04,-0.07,0.11,-3.65,0.44,5.58,0.10,0.20,-0.34
$GPRMC,034908.000,A,1513.1658,N,14543.0281,E,0.00,152.94,020217,,,A*65
$MOTION,206.00,-1.04,-0.08,0.11,-3.60,0.40,5.50,0.10,0.20,-0.35
$MOTION,194.00,-1.02,-0.08,0.10,-3.40,0.58,5.02,0.09,0.21,-0.34
$MOTION,211.00,-1.03,-0.07,0.10,-3.37,0.50,5.36,0.10,0.20,-0.35
$MOTION,227.00,-1.03,-0.08,0.10,-3.38,0.32,5.50,0.09,0.21,-0.35
$GPRMC,034909.000,A,1513.1658,N,14543.0281,E,0.01,152.94,020217,,,A*65
$MOTION,239.00,-1.03,-0.07,0.10,-3.08,0.52,5.04,0.10,0.21,-0.35
$MOTION,199.00,-1.03,-0.07,0.10,-3.55,0.46,4.45,0.10,0.21,-0.36
$MOTION,194.00,-1.03,-0.07,0.11,-3.13,0.43,4.72,0.10,0.21,-0.35
$MOTION,195.00,-1.03,-0.07,0.10,-3.20,0.37,7.63,0.09,0.21,-0.34
$MOTION,204.00,-1.03,-0.07,0.10,-3.47,0.31,4.77,0.10,0.20,-0.34
$GPRMC,034910.000,A,1513.1658,N,14543.0281,E,0.00,152.94,020217,,,A*6C
$MOTION,246.00,-1.03,-0.08,0.10,-3.54,0.60,4.77,0.09,0.21,-0.34
$MOTION,194.00,-1.02,-0.07,0.11,-3.87,0.40,5.29,0.09,0.21,-0.34
$MOTION,198.00,-1.03,-0.08,0.10,-3.51,0.28,4.79,0.09,0.21,-0.34
$MOTION,205.00,-1.03,-0.07,0.10,-3.42,0.34,5.02,0.09,0.21,-0.33
$MOTION,221.00,-1.03,-0.07,0.10,-3.48,0.55,4.71,0.09,0.21,-0.35
$GPRMC,034911.000,A,1513.1658,N,14543.0281,E,0.00,152.94,020217,,,A*6D
$MOTION,206.00,-1.02,-0.08,0.11,-3.47,0.64,5.62,0.09,0.21,-0.34
$MOTION,192.00,-1.03,-0.08,0.11,-3.47,0.49,4.99,0.10,0.20,-0.35
$MOTION,192.00,-1.03,-0.07,0.10,-3.30,0.46,4.95,0.10,0.21,-0.34
$MOTION,222.00,-1.03,-0.08,0.10,-3.48,0.48,5.11,0.10,0.21,-0.34
$GPRMC,034912.000,A,1513.1658,N,14543.0281,E,0.00,152.94,020217,,,A*6E
$MOTION,264.00,-1.03,-0.08,0.10,-3.54,0.59,5.20,0.09,0.20,-0.34
$MOTION,204.00,-1.04,-0.07,0.11,-3.23,0.71,4.92,0.10,0.20,-0.34
$MOTION,192.00,-1.03,-0.08,0.10,-3.42,0.42,5.11,0.10,0.21,-0.34
$MOTION,192.00,-1.02,-0.09,0.10,-3.25,0.62,5.35,0.10,0.20,-0.35
$MOTION,226.00,-1.03,-0.08,0.11,-3.66,0.31,5.11,0.10,0.20,-0.35
$GPRMC,034913.000,A,1513.1658,N,14543.0281,E,0.00,152.94,020217,,,A*6F
$MOTION,204.00,-1.02,-0.07,0.10,-3.27,0.58,5.57,0.10,0.20,-0.35
$MOTION,193.00,-1.03,-0.07,0.10,-3.57,0.46,5.23,0.10,0.20,-0.34
$MOTION,193.00,-1.03,-0.08,0.10,-3.07,0.32,5.18,0.10,0.20,-0.34
$MOTION,193.00,-1.02,-0.07,0.10,-2.99,0.53,5.26,0.09,0.21,-0.34
$MOTION,227.00,-1.02,-0.06,0.10,-3.42,0.61,5.25,0.09,0.20,-0.35
$GPRMC,034914.000,A,1513.1658,N,14543.0281,E,0.01,152.94,020217,,,A*69
$MOTION,209.00,-1.03,-0.08,0.10,-3.33,0.49,4.89,0.10,0.21,-0.34
$MOTION,192.00,-1.03,-0.07,0.10,-3.42,0.43,5.02,0.10,0.21,-0.34
$MOTION,192.00,-1.03,-0.08,0.10,-3.34,0.49,4.47,0.10,0.20,-0.34
$MOTION,221.00,-1.03,-0.08,0.10,-3.33,0.51,5.26,0.10,0.20,-0.34
$MOTION,206.00,-1.02,-0.07,0.10,-3.62,0.61,5.06,0.10,0.20,-0.34
$GPRMC,034915.000,A,1513.1658,N,14543.0281,E,0.00,152.94,020217,,,A*69
$MOTION,205.00,-1.03,-0.08,0.10,-3.50,0.61,4.84,0.10,0.20,-0.34
$MOTION,192.00,-1.04,-0.07,0.10,-3.16,0.64,5.30,0.10,0.20,-0.34
$MOTION,206.00,-1.03,-0.06,0.10,-3.57,0.37,5.11,0.10,0.21,-0.34
$MOTION,205.00,-1.04,-0.07,0.10,-3.33,0.53,5.46,0.10,0.20,-0.34
$MOTION,224.00,-1.02,-0.08,0.10,-3.63,0.51,4.19,0.10,0.21,-0.34
$GPRMC,034916.000,A,1513.1658,N,14543.0281,E,0.00,152.94,020217,,,A*6A
$MOTION,205.00,-1.01,-0.08,0.11,-3.31,0.51,4.96,0.10,0.20,-0.34
$MOTION,192.00,-1.03,-0.08,0.10,-3.32,0.46,5.23,0.10,0.20,-0.34
$MOTION,219.00,-1.02,-0.08,0.11,-3.29,0.37,5.07,0.10,0.20,-0.34
$MOTION,205.00,-1.03,-0.08,0.10,-3.27,0.43,5.35,0.10,0.21,-0.34
$MOTION,227.00,-1.02,-0.08,0.11,-3.41,0.73,5.14,0.10,0.20,-0.33
$GPRMC,034917.000,A,1513.1658,N,14543.0281,E,0.00,152.94,020217,,,A*6B
$MOTION,205.00,-1.03,-0.08,0.10,-3.13,0.28,4.68,0.10,0.21,-0.34
$MOTION,192.00,-1.03,-0.07,0.10,-3.16,0.55,5.03,0.10,0.21,-0.34
$MOTION,192.00,-1.02,-0.07,0.10,-3.19,0.64,4.55,0.10,0.20,-0.34
$MOTION,226.00,-1.02,-0.06,0.09,-3.32,0.64,5.54,0.10,0.20,-0.34
$GPRMC,034918.000,A,1513.1658,N,14543.0281,E,0.00,152.94,020217,,,A*64
$MOTION,266.00,-1.03,-0.09,0.10,-3.32,0.08,5.18,0.10,0.20,-0.34
$MOTION,198.00,-1.02,-0.08,0.11,-3.43,0.62,4.73,0.10,0.20,-0.34
$MOTION,195.00,-1.03,-0.07,0.10,-3.33,0.61,5.26,0.10,0.20,-0.34
$MOTION,192.00,-1.03,-0.08,0.10,-3.16,0.47,5.01,0.10,0.21,-0.34
$MOTION,203.00,-1.03,-0.08,0.10,-3.43,0.55,5.73,0.09,0.21,-0.34
$GPRMC,034919.000,A,1513.1658,N,14543.0281,E,0.00,152.94,020217,,,A*65
$MOTION,229.00,-1.03,-0.08,0.10,-3.54,0.26,5.13,0.10,0.21,-0.34
$MOTION,205.00,-1.03,-0.07,0.10,-2.98,0.33,4.41,0.10,0.20,-0.34
$MOTION,193.00,-1.03,-0.07,0.10,-3.42,0.45,5.12,0.09,0.21,-0.34
$MOTION,192.00,-1.03,-0.08,0.10,-3.25,0.42,5.16,0.09,0.20,-0.34
$MOTION,225.00,-1.02,-0.07,0.10,-3.62,0.61,5.35,0.09,0.21,-0.34
$GPRMC,034920.000,A,1513.1658,N,14543.0281,E,0.00,152.94,020217,,,A*6F
$MOTION,208.00,-1.03,-0.08,0.10,-3.18,0.37,5.17,0.10,0.20,-0.34
$MOTION,206.00,-1.03,-0.07,0.10,-3.16,0.41,4.89,0.10,0.21,-0.34
$MOTION,192.00,-1.02,-0.07,0.11,-3.33,0.29,5.36,0.10,0.20,-0.34
$MOTION,192.00,-1.03,-0.06,0.10,-3.23,0.60,5.20,0.10,0.21,-0.34
$MOTION,225.00,-1.02,-0.07,0.10,-3.35,0.37,5.20,0.10,0.21,-0.34
$GPRMC,034921.000,A,1513.1658,N,14543.0281,E,0.01,152.94,020217,,,A*6F
$MOTION,239.00,-1.02,-0.08,0.10,-3.45,0.41,5.04,0.10,0.21,-0.34
$MOTION,192.00,-1.02,-0.07,0.10,-3.10,0.34,4.87,0.10,0.21,-0.34
$MOTION,192.00,-1.03,-0.07,0.10,-3.50,0.47,5.15,0.10,0.21,-0.34
$MOTION,192.00,-1.02,-0.08,0.10,-3.33,0.71,5.23,0.10,0.21,-0.34
$MOTION,205.00,-1.02,-0.07,0.10,-3.45,0.40,5.23,0.10,0.21,-0.33
$GPRMC,034922.000,A,1513.1658,N,14543.0281,E,0.01,152.94,020217,,,A*6C
$MOTION,255.00,-1.00,-0.09,0.10,-3.70,0.47,5.52,0.10,0.21,-0.34
$MOTION,204.00,-1.03,-0.07,0.12,-3.37,0.55,4.55,0.10,0.20,-0.34
$MOTION,206.00,-1.03,-0.07,0.10,-3.48,0.39,4.93,0.10,0.20,-0.34
$MOTION,204.00,-1.03,-0.09,0.10,-3.15,0.61,3.84,0.10,0.20,-0.34
$MOTION,226.00,-1.03,-0.08,0.11,-3.30,0.43,5.36,0.10,0.21,-0.34
$GPRMC,034923.000,A,1513.1658,N,14543.0281,E,0.01,152.94,020217,,,A*6D
$MOTION,204.00,-1.02,-0.08,0.11,-3.08,0.51,5.00,0.10,0.21,-0.35
$MOTION,192.00,-1.03,-0.08,0.10,-3.55,0.46,5.37,0.10,0.21,-0.34
$MOTION,206.00,-1.02,-0.08,0.10,-3.40,0.59,5.06,0.10,0.21,-0.34
$MOTION,229.00,-1.03,-0.09,0.11,-3.51,0.61,5.17,0.10,0.20,-0.35
$GPRMC,034924.000,A,1513.1658,N,14543.0281,E,0.00,152.94,020217,,,A*6B
$MOTION,268.00,-1.02,-0.07,0.10,-3.48,0.42,5.27,0.09,0.21,-0.34
$MOTION,207.00,-1.02,-0.09,0.11,-3.62,0.70,4.88,0.10,0.20,-0.34
$MOTION,209.00,-1.03,-0.09,0.10,-3.25,0.49,5.37,0.10,0.20,-0.34
$MOTION,205.00,-1.04,-0.06,0.10,-3.07,0.50,5.20,0.09,0.21,-0.34
$MOTION,224.00,-1.00,-0.08,0.10,-2.76,0.46,5.09,0.10,0.21,-0.34
$GPRMC,034925.000,A,1513.1658,N,14543.0281,E,0.01,152.94,020217,,,A*6B
$MOTION,206.00,-1.01,-0.07,0.11,-3.24,0.18,5.11,0.10,0.20,-0.35
$MOTION,193.00,-1.02,-0.07,0.11,-3.57,0.47,5.10,0.10,0.21,-0.34
$MOTION,192.00,-1.04,-0.07,0.09,-3.57,0.41,5.17,0.09,0.20,-0.34
$MOTION,207.00,-1.03,-0.11,0.08,-3.25,0.49,5.08,0.09,0.20,-0.34
$MOTION,222.00,-1.04,-0.08,0.09,-3.09,0.43,5.22,0.09,0.20,-0.34
$GPRMC,034926.000,A,1513.1658,N,14543.0281,E,0.00,152.94,020217,,,A*69
$MOTION,207.00,-1.03,-0.07,0.11,-3.87,0.23,4.67,0.10,0.21,-0.35
$MOTION,192.00,-1.04,-0.08,0.10,-3.30,0.90,5.41,0.09,0.20,-0.35
$MOTION,201.00,-1.01,-0.08,0.10,-3.20,0.72,5.29,0.10,0.21,-0.34
$MOTION,206.00,-1.03,-0.09,0.10,-3.53,0.56,4.73,0.10,0.21,-0.34
$MOTION,223.00,-1.02,-0.08,0.11,-3.08,0.45,5.64,0.10,0.20,-0.35
$GPRMC,034927.000,A,1513.1658,N,14543.0281,E,0.01,152.94,020217,,,A*69
$MOTION,206.00,-1.02,-0.07,0.11,-3.60,0.21,5.31,0.09,0.20,-0.35
$MOTION,192.00,-1.03,-0.07,0.11,-3.48,0.33,4.37,0.09,0.21,-0.34
$MOTION,192.00,-1.04,-0.05,0.10,-3.69,0.51,4.99,0.09,0.20,-0.34
$MOTION,221.00,-1.04,-0.07,0.10,-3.16,0.43,5.42,0.09,0.20,-0.35
$MOTION,206.00,-1.03,-0.07,0.12,-3.07,0.51,4.87,0.10,0.21,-0.35
$GPRMC,034928.000,A,1513.1658,N,14543.0281,E,0.01,152.94,020217,,,A*66
$MOTION,205.00,-1.06,-0.08,0.10,-3.42,0.20,5.13,0.10,0.20,-0.34
$MOTION,192.00,-1.01,-0.07,0.10,-3.18,0.51,5.32,0.10,0.21,-0.34
$MOTION,192.00,-1.02,-0.07,0.09,-3.42,0.40,5.35,0.10,0.20,-0.34
$MOTION,224.00,-1.02,-0.08,0.10,-3.22,0.88,5.23,0.09,0.21,-0.35
$MOTION,225.00,-1.03,-0.05,0.10,-3.56,0.49,5.30,0.10,0.21,-0.35
$GPRMC,034929.000,A,1513.1658,N,14543.0281,E,0.01,152.94,020217,,,A*67
$MOTION,206.00,-1.03,-0.08,0.11,-3.53,0.33,5.20,0.10,0.20,-0.34
$MOTION,192.00,-1.02,-0.07,0.10,-3.39,0.46,5.38,0.10,0.21,-0.35
$MOTION,207.00,-1.05,-0.08,0.11,-4.07,0.34,5.17,0.09,0.21,-0.35
$MOTION,231.00,-1.03,-0.10,0.10,-2.97,0.67,6.48,0.09,0.21,-0.34
$GPRMC,034930.000,A,1513.1658,N,14543.0281,E,0.01,152.94,020217,,,A*6F
$MOTION,259.00,-1.04,-0.06,0.11,-3.51,0.49,4.48,0.09,0.20,-0.35
$MOTION,202.00,-1.02,-0.08,0.10,-3.63,0.52,5.21,0.10,0.20,-0.34
$MOTION,214.00,-1.04,-0.07,0.10,-3.42,0.52,5.12,0.10,0.20,-0.34
$MOTION,228.00,-1.03,-0.09,0.11,-3.27,0.59,7.57,0.10,0.20,-0.34
$MOTION,206.00,-1.03,-0.07,0.12,-3.42,0.33,4.69,0.10,0.20,-0.35
$GPRMC,034931.000,A,1513.1658,N,14543.0281,E,0.01,152.94,020217,,,A*6E
$MOTION,203.00,-1.04,-0.07,0.10,-3.42,0.62,5.74,0.10,0.21,-0.34
$MOTION,192.00,-1.02,-0.08,0.10,-3.78,0.41,4.10,0.10,0.20,-0.35
$MOTION,220.00,-1.02,-0.06,0.11,-2.99,0.74,5.38,0.09,0.21,-0.34
$MOTION,206.00,-1.02,-0.09,0.11,-3.48,0.27,5.25,0.10,0.20,-0.34
$MOTION,219.00,-1.02,-0.07,0.10,-3.36,0.28,5.32,0.10,0.21,-0.34
$GPRMC,034932.000,A,1513.1658,N,14543.0281,E,0.01,152.94,020217,,,A*6D
$MOTION,206.00,-1.02,-0.09,0.11,-3.09,0.43,5.58,0.10,0.20,-0.34
$MOTION,193.00,-1.03,-0.07,0.11,-3.27,0.37,5.44,0.10,0.20,-0.34
$MOTION,210.00,-1.03,-0.07,0.10,-3.36,0.39,4.67,0.10,0.21,-0.34
$MOTION,204.00,-1.03,-0.07,0.10,-3.26,0.65,5.37,0.10,0.20,-0.34
$MOTION,225.00,-1.03,-0.07,0.09,-2.96,0.58,4.60,0.10,0.21,-0.34
$GPRMC,034933.000,A,1513.1658,N,14543.0281,E,0.01,152.94,020217,,,A*6C
$MOTION,204.00,-1.02,-0.08,0.11,-3.56,0.68,4.96,0.10,0.21,-0.35
$MOTION,194.00,-1.02,-0.07,0.11,-3.20,0.60,5.13,0.10,0.21,-0.35
$MOTION,192.00,-1.01,-0.08,0.11,-3.59,0.52,4.83,0.10,0.21,-0.34
$MOTION,225.00,-1.05,-0.08,0.10,-3.37,0.80,5.26,0.10,0.21,-0.34
$GPRMC,034934.000,A,1513.1658,N,14543.0281,E,0.00,152.94,020217,,,A*6A
$MOTION,206.00,-1.03,-0.08,0.10,-3.49,0.55,5.29,0.10,0.21,-0.34
$MOTION,192.00,-1.03,-0.08,0.10,-3.79,0.10,5.17,0.10,0.21,-0.34
$MOTION,192.00,-1.01,-0.09,0.11,-2.88,0.57,4.95,0.10,0.20,-0.34
$MOTION,192.00,-1.03,-0.07,0.10,-3.62,0.41,5.03,0.09,0.21,-0.34
$MOTION,205.00,-1.02,-0.08,0.10,-3.18,0.40,7.64,0.09,0.21,-0.34
$GPRMC,034935.000,A,1513.1658,N,14543.0281,E,0.01,152.94,020217,,,A*6A
$MOTION,204.00,-1.04,-0.05,0.10,-3.60,0.19,4.96,0.10,0.21,-0.34
$MOTION,208.00,-1.03,-0.07,0.11,-3.27,0.83,4.61,0.10,0.20,-0.33
$MOTION,192.00,-1.03,-0.09,0.11,-3.44,0.48,5.20,0.10,0.20,-0.34
$MOTION,201.00,-1.03,-0.07,0.11,-3.38,0.49,5.62,0.10,0.21,-0.34
$MOTION,228.00,-1.04,-0.08,0.10,-3.45,0.13,5.41,0.10,0.21,-0.34
$GPRMC,034936.000,A,1513.1658,N,14543.0281,E,0.01,152.94,020217,,,A*69
$MOTION,206.00,-1.00,-0.08,0.09,-2.99,0.65,4.79,0.09,0.21,-0.34
$MOTION,192.00,-1.03,-0.08,0.11,-3.18,0.51,5.48,0.10,0.21,-0.34
$MOTION,193.00,-1.02,-0.07,0.10,-3.35,0.30,5.15,0.10,0.21,-0.34
$MOTION,192.00,-1.03,-0.05,0.10,-3.48,0.68,3.94,0.10,0.21,-0.34
$MOTION,226.00,-1.01,-0.08,0.10,-3.90,0.34,4.72,0.10,0.21,-0.34
$GPRMC,034937.000,A,1513.1658,N,14543.0281,E,0.00,152.94,020217,,,A*69
$MOTION,206.00,-1.01,-0.07,0.10,-5.57,0.52,4.38,0.10,0.20,-0.34
$MOTION,192.00,-1.01,-0.11,0.11,-2.68,0.87,7.49,0.10,0.21,-0.34
$MOTION,216.00,-1.05,-0.04,0.10,-3.49,1.91,4.96,0.10,0.20,-0.34
$MOTION,205.00,-1.00,-0.09,0.09,-3.36,0.40,4.70,0.10,0.21,-0.34
$MOTION,222.00,-1.03,-0.08,0.10,-3.18,0.73,6.03,0.10,0.20,-0.34
$GPRMC,034938.000,A,1513.1658,N,14543.0281,E,0.01,152.94,020217,,,A*67
$MOTION,205.00,-1.02,-0.08,0.11,-3.40,0.62,5.67,0.10,0.21,-0.34
$MOTION,192.00,-1.04,-0.07,0.10,-3.63,0.15,4.73,0.10,0.21,-0.34
$MOTION,198.00,-1.04,-0.08,0.11,-3.28,0.67,5.51,0.10,0.20,-0.34
$MOTION,206.00,-1.03,-0.07,0.10,-3.33,0.39,5.32,0.10,0.21,-0.34
$MOTION,221.00,-1.04,-0.07,0.10,-3.51,0.38,5.39,0.10,0.20,-0.33
$GPRMC,034939.000,A,1513.1658,N,14543.0281,E,0.01,152.94,020217,,,A*66
$MOTION,207.00,-1.04,-0.09,0.10,-3.24,0.35,4.89,0.10,0.21,-0.34
$MOTION,192.00,-1.02,-0.08,0.11,-3.09,0.51,4.90,0.09,0.21,-0.34
$MOTION,215.00,-1.03,-0.08,0.10,-3.09,0.37,3.97,0.09,0.21,-0.34
$MOTION,204.00,-1.03,-0.09,0.10,-3.41,0.31,4.79,0.09,0.21,-0.34
$GPRMC,034940.000,A,1513.1658,N,14543.0281,E,0.01,152.94,020217,,,A*68
$MOTION,248.00,-1.03,-0.08,0.11,-3.39,0.57,4.99,0.10,0.21,-0.34
$MOTION,206.00,-1.04,-0.07,0.10,-3.06,0.32,5.58,0.10,0.21,-0.34
$MOTION,211.00,-1.03,-0.07,0.10,-3.78,0.46,4.53,0.10,0.21,-0.33
$MOTION,226.00,-1.02,-0.08,0.10,-3.39,0.45,5.33,0.10,0.21,-0.34
$MOTION,207.00,-1.02,-0.08,0.10,-3.60,0.17,4.76,0.09,0.20,-0.34
$GPRMC,034941.000,A,1513.1658,N,14543.0281,E,0.02,152.94,020217,,,A*6A
$MOTION,205.00,-1.01,-0.08,0.11,-3.48,0.70,5.58,0.09,0.21,-0.34
$MOTION,192.00,-1.03,-0.08,0.10,-3.22,0.49,5.64,0.10,0.20,-0.34
$MOTION,192.00,-1.02,-0.07,0.11,-3.44,0.48,4.97,0.09,0.21,-0.34
$MOTION,229.00,-1.00,-0.12,0.10,-3.18,0.72,5.44,0.10,0.21,-0.34
$MOTION,205.00,-1.02,-0.09,0.11,-3.11,0.30,5.28,0.10,0.21,-0.34
$GPRMC,034942.000,A,1513.1658,N,14543.0281,E,0.01,152.94,020217,,,A*6A
$MOTION,205.00,-1.03,-0.06,0.10,-3.89,0.28,4.60,0.10,0.21,-0.34
$MOTION,192.00,-1.04,-0.07,0.11,-3.39,0.46,5.26,0.09,0.20,-0.34
$MOTION,192.00,-1.03,-0.07,0.10,-3.39,0.28,5.19,0.10,0.20,-0.33
$MOTION,227.00,-1.03,-0.07,0.11,-3.35,0.33,4.72,0.10,0.20,-0.33
$MOTION,205.00,-1.02,-0.07,0.10,-3.27,0.40,3.89,0.10,0.20,-0.34
$GPRMC,034943.000,A,1513.1658,N,14543.0281,E,0.01,152.94,020217,,,A*6B
$MOTION,203.00,-1.02,-0.07,0.11,-3.19,0.83,5.78,0.10,0.21,-0.34
$MOTION,192.00,-1.03,-0.08,0.10,-3.18,0.29,4.50,0.10,0.21,-0.34
$MOTION,192.00,-1.02,-0.09,0.11,-3.50,0.53,4.90,0.10,0.21,-0.33
$MOTION,225.00,-1.03,-0.09,0.10,-2.92,1.08,5.77,0.09,0.21,-0.34
$MOTION,206.00,-1.04,-0.04,0.10,-3.46,0.31,4.76,0.10,0.21,-0.33
$GPRMC,034944.000,A,1513.1658,N,14543.0281,E,0.00,152.94,020217,,,A*6D
$MOTION,203.00,-1.03,-0.06,0.11,-3.41,0.46,4.50,0.10,0.21,-0.34
$MOTION,192.00,-1.03,-0.08,0.10,-3.72,0.25,5.63,0.10,0.20,-0.33
$MOTION,192.00,-1.04,-0.07,0.10,-3.75,0.53,4.28,0.10,0.21,-0.34
$MOTION,224.00,-1.03,-0.06,0.10,-3.45,0.47,3.87,0.10,0.20,-0.35
$MOTION,227.00,-1.03,-0.09,0.10,-3.14,0.77,6.10,0.10,0.21,-0.34
$GPRMC,034945.000,A,1513.1658,N,14543.0281,E,0.02,152.94,020217,,,A*6E
$MOTION,205.00,-1.02,-0.06,0.09,-3.22,0.22,5.20,0.10,0.20,-0.34
$MOTION,192.00,-1.03,-0.08,0.11,-3.39,0.24,5.97,0.10,0.20,-0.34
$MOTION,193.00,-0.99,-0.10,0.10,-3.68,0.53,4.92,0.10,0.21,-0.34
$MOTION,228.00,-1.05,-0.08,0.10,-3.45,0.68,5.85,0.09,0.20,-0.33
$MOTION,205.00,-1.00,-0.09,0.11,-3.66,0.46,3.92,0.10,0.21,-0.34
$GPRMC,034946.000,A,1513.1658,N,14543.0281,E,0.01,152.94,020217,,,A*6E
$MOTION,205.00,-1.01,-0.08,0.12,-2.92,0.49,5.35,0.10,0.21,-0.34
$MOTION,192.00,-1.03,-0.06,0.10,-3.69,0.37,5.38,0.09,0.21,-0.34
$MOTION,192.00,-1.01,-0.09,0.11,-3.05,0.47,6.09,0.10,0.21,-0.34
$MOTION,221.00,-1.03,-0.08,0.10,-3.42,0.33,4.57,0.10,0.21,-0.34
$GPRMC,034947.000,A,1513.1658,N,14543.0281,E,0.01,152.94,020217,,,A*6F
$MOTION,234.00,-1.05,-0.08,0.10,-3.87,0.67,3.59,0.09,0.21,-0.34
$MOTION,192.00,-1.06,-0.07,0.10,-3.14,0.46,5.90,0.09,0.20,-0.35
$MOTION,192.00,-1.02,-0.08,0.11,-3.23,0.53,5.30,0.10,0.20,-0.35
$MOTION,193.00,-1.02,-0.07,0.09,-3.55,0.48,4.53,0.09,0.21,-0.34
$MOTION,206.00,-1.00,-0.09,0.11,-3.16,0.70,5.30,0.10,0.21,-0.34
$GPRMC,034948.000,A,1513.1658,N,14543.0281,E,0.01,152.94,020217,,,A*60
$MOTION,212.00,-1.04,-0.05,0.10,-3.57,0.37,4.87,0.09,0.21,-0.34
$MOTION,204.00,-1.01,-0.10,0.11,-3.90,0.21,4.67,0.09,0.21,-0.34
$MOTION,192.00,-1.03,-0.09,0.10,-3.16,0.49,5.25,0.10,0.21,-0.34
$MOTION,192.00,-1.02,-0.09,0.11,-3.57,0.42,5.10,0.10,0.21,-0.34
$MOTION,224.00,-1.02,-0.07,0.12,-3.97,0.55,4.10,0.09,0.21,-0.34
$GPRMC,034949.000,A,1513.1658,N,14543.0281,E,0.01,152.94,020217,,,A*61
$MOTION,243.00,-1.02,-0.08,0.10,-3.33,0.56,5.21,0.10,0.20,-0.34
$MOTION,195.00,-1.04,-0.06,0.11,-3.51,0.57,5.74,0.10,0.20,-0.34
$MOTION,192.00,-1.04,-0.07,0.08,-3.72,0.27,4.86,0.10,0.20,-0.33
$MOTION,224.00,-1.02,-0.09,0.10,-3.19,0.76,3.84,0.10,0.20,-0.34
$MOTION,231.00,-1.05,-0.05,0.11,-3.15,0.49,5.18,0.10,0.21,-0.34
$GPRMC,034950.000,A,1513.1658,N,14543.0281,E,0.02,152.94,020217,,,A*6A
$MOTION,205.00,-1.05,-0.07,0.10,-3.54,0.36,5.57,0.10,0.21,-0.34
$MOTION,192.00,-1.01,-0.07,0.10,-3.60,0.47,4.85,0.10,0.20,-0.34
$MOTION,207.00,-1.05,-0.06,0.10,-3.22,0.31,7.47,0.10,0.21,-0.34
$MOTION,232.00,-1.04,-0.06,0.11,-3.42,0.64,5.02,0.09,0.20,-0.34
$GPRMC,034951.000,A,1513.1658,N,14543.0281,E,0.01,152.94,020217,,,A*68
$MOTION,251.00,-1.04,-0.08,0.11,-3.37,0.73,4.64,0.10,0.20,-0.34
$MOTION,204.00,-1.04,-0.07,0.10,-3.46,0.25,4.54,0.10,0.20,-0.34
$MOTION,192.00,-1.04,-0.09,0.11,-3.30,0.64,5.86,0.10,0.20,-0.34
$MOTION,203.00,-1.01,-0.08,0.11,-3.67,0.50,4.97,0.09,0.20,-0.34
$MOTION,229.00,-1.02,-0.11,0.12,-3.23,0.77,5.62,0.09,0.21,-0.34
$GPRMC,034952.000,A,1513.1658,N,14543.0281,E,0.00,152.94,020217,,,A*6A
$MOTION,246.00,-1.04,-0.09,0.10,-3.43,0.64,5.57,0.10,0.21,-0.34
$MOTION,193.00,-1.03,-0.07,0.10,-3.00,0.33,5.44,0.10,0.21,-0.34
$MOTION,200.00,-1.02,-0.07,0.11,-3.42,0.58,4.88,0.09,0.21,-0.34
$MOTION,205.00,-1.02,-0.07,0.10,-3.27,0.84,7.47,0.10,0.21,-0.33
$MOTION,222.00,-1.00,-0.09,0.10,-3.71,0.31,5.41,0.10,0.21,-0.34
$GPRMC,034953.000,A,1513.1658,N,14543.0281,E,0.00,152.94,020217,,,A*6B
$MOTION,207.00,-1.03,-0.07,0.11,-3.19,0.70,5.24,0.10,0.21,-0.34
$MOTION,192.00,-1.01,-0.08,0.10,-3.87,0.67,4.94,0.10,0.21,-0.34
$MOTION,213.00,-1.04,-0.09,0.10,-3.84,0.51,5.39,0.10,0.20,-0.34
$MOTION,205.00,-1.01,-0.09,0.11,-3.35,0.11,7.57,0.10,0.20,-0.34
$MOTION,226.00,-1.02,-0.07,0.10,-3.44,0.57,5.76,0.10,0.21,-0.35
$GPRMC,034954.000,A,1513.1658,N,14543.0281,E,0.00,152.94,020217,,,A*6C
$MOTION,204.00,-1.05,-0.08,0.11,-3.53,0.52,4.82,0.09,0.21,-0.34
$MOTION,192.00,-1.02,-0.09,0.10,-3.73,0.37,4.49,0.10,0.21,-0.34
$MOTION,207.00,-1.01,-0.08,0.11,-3.24,0.41,5.35,0.09,0.21,-0.34
$MOTION,204.00,-1.04,-0.07,0.09,-3.46,0.38,4.73,0.09,0.21,-0.35
$MOTION,227.00,-1.03,-0.07,0.09,-3.39,0.29,5.63,0.10,0.20,-0.34
$GPRMC,034955.000,A,1513.1658,N,14543.0281,E,0.01,152.94,020217,,,A*6C
$MOTION,204.00,-1.01,-0.09,0.10,-3.81,0.49,5.06,0.10,0.21,-0.34
$MOTION,192.00,-1.02,-0.08,0.10,-3.10,0.62,5.67,0.10,0.21,-0.34
$MOTION,212.00,-1.05,-0.07,0.10,-4.16,0.13,4.46,0.09,0.21,-0.34
$MOTION,205.00,-1.03,-0.07,0.10,-3.22,0.65,7.53,0.10,0.20,-0.35
$GPRMC,034956.000,A,1513.1658,N,14543.0281,E,0.00,152.94,020217,,,A*6E
$MOTION,205.00,-1.02,-0.08,0.09,-3.33,0.59,5.56,0.09,0.21,-0.33
$MOTION,206.00,-1.04,-0.07,0.10,-3.48,0.50,4.75,0.10,0.20,-0.34
$MOTION,192.00,-1.02,-0.09,0.10,-3.16,0.67,5.14,0.09,0.21,-0.34
$MOTION,208.00,-1.04,-0.06,0.10,-3.91,0.49,3.64,0.10,0.21,-0.34
$MOTION,225.00,-1.02,-0.08,0.10,-3.54,0.80,5.12,0.09,0.20,-0.34
$GPRMC,034957.000,A,1513.1658,N,14543.0281,E,0.01,152.94,020217,,,A*6E
$MOTION,221.00,-1.04,-0.07,0.11,-3.27,0.39,5.53,0.10,0.21,-0.35
$MOTION,208.00,-1.02,-0.06,0.11,-3.29,0.24,4.46,0.10,0.20,-0.34
$MOTION,192.00,-1.02,-0.08,0.11,-3.49,0.39,5.60,0.09,0.21,-0.34
$MOTION,203.00,-1.03,-0.07,0.11,-3.30,0.63,5.58,0.10,0.21,-0.34
$MOTION,204.00,-1.04,-0.06,0.11,-3.62,0.58,4.56,0.10,0.20,-0.34
$GPRMC,034958.000,A,1513.1658,N,14543.0281,E,0.01,152.94,020217,,,A*61
$MOTION,222.00,-1.03,-0.07,0.11,-3.64,0.58,5.17,0.09,0.21,-0.34
$MOTION,192.00,-1.03,-0.07,0.10,-3.43,0.40,5.33,0.10,0.21,-0.35
$MOTION,200.00,-1.03,-0.07,0.11,-3.49,0.43,4.77,0.09,0.20,-0.34
$MOTION,231.00,-1.02,-0.07,0.10,-5.62,0.67,4.93,0.10,0.20,-0.34
$MOTION,205.00,-1.03,-0.07,0.10,-3.16,0.61,5.55,0.10,0.20,-0.34
$GPRMC,034959.000,A,1513.1658,N,14543.0281,E,0.02,152.94,020217,,,A*63
$MOTION,207.00,-1.03,-0.07,0.10,-3.16,0.26,5.24,0.10,0.20,-0.34
$MOTION,192.00,-1.02,-0.08,0.09,-3.54,0.58,4.99,0.10,0.20,-0.34
$MOTION,204.00,-1.04,-0.07,0.10,-3.22,0.42,4.57,0.09,0.20,-0.34
$MOTION,206.00,-1.03,-0.07,0.11,-3.59,0.75,5.45,0.09,0.20,-0.34
$MOTION,224.00,-1.04,-0.07,0.10,-3.51,0.52,5.52,0.10,0.21,-0.34
$GPRMC,035000.000,A,1513.1658,N,14543.0281,E,0.01,152.94,020217,,,A*64
$MOTION,206.00,-1.02,-0.08,0.10,-3.45,0.26,4.27,0.10,0.21,-0.34
$MOTION,192.00,-1.03,-0.07,0.10,-3.42,0.60,4.98,0.10,0.21,-0.34
$MOTION,192.00,-1.03,-0.07,0.11,-3.38,0.46,4.90,0.10,0.20,-0.34
$MOTION,230.00,-1.02,-0.09,0.11,-3.42,0.36,5.15,0.09,0.20,-0.34
$GPRMC,035001.000,A,1513.1658,N,14543.0281,E,0.00,152.94,020217,,,A*64
$MOTION,204.00,-1.05,-0.08,0.09,-3.35,0.44,5.48,0.09,0.21,-0.34
$MOTION,207.00,-1.04,-0.07,0.10,-2.96,0.25,5.08,0.09,0.20,-0.34
$MOTION,192.00,-1.05,-0.06,0.09,-3.69,0.28,4.22,0.09,0.21,-0.34
$MOTION,196.00,-1.00,-0.09,0.10,-3.13,0.41,6.12,0.09,0.20,-0.33
$MOTION,205.00,-1.04,-0.03,0.10,-3.47,0.66,4.22,0.10,0.21,-0.33
$GPRMC,035002.000,A,1513.1658,N,14543.0281,E,0.01,152.94,020217,,,A*66
$MOTION,206.00,-1.02,-0.08,0.10,-3.33,0.47,4.82,0.10,0.21,-0.34
$MOTION,204.00,-1.03,-0.07,0.12,-3.48,0.49,5.54,0.10,0.20,-0.34
$MOTION,192.00,-1.05,-0.08,0.09,-3.07,0.70,4.95,0.10,0.20,-0.34
$MOTION,192.00,-1.04,-0.06,0.10,-3.19,0.42,5.31,0.09,0.20,-0.33
$MOTION,204.00,-1.03,-0.07,0.09,-3.33,0.55,4.99,0.10,0.21,-0.34
$GPRMC,035003.000,A,1513.1658,N,14543.0281,E,0.02,152.94,020217,,,A*64
$MOTION,241.00,-1.00,-0.08,0.10,-3.30,0.36,5.55,0.10,0.20,-0.35
$MOTION,202.00,-1.03,-0.10,0.10,-3.48,0.45,5.50,0.10,0.21,-0.34
$MOTION,192.00,-1.02,-0.10,0.09,-3.30,0.70,5.84,0.10,0.21,-0.34
$MOTION,192.00,-1.02,-0.08,0.10,-3.48,0.46,4.39,0.10,0.21,-0.34
$MOTION,225.00,-1.02,-0.09,0.09,-3.69,0.40,4.69,0.10,0.20,-0.34
$GPRMC,035004.000,A,1513.1658,N,14543.0281,E,0.01,152.94,020217,,,A*60
$MOTION,240.00,-1.02,-0.09,0.11,-3.50,0.09,5.92,0.09,0.21,-0.34
$MOTION,205.00,-1.03,-0.09,0.09,-3.42,0.76,4.76,0.10,0.21,-0.34
$MOTION,192.00,-1.06,-0.07,0.11,-3.72,0.43,5.56,0.09,0.20,-0.34
$MOTION,192.00,-1.02,-0.08,0.11,-3.22,0.60,4.96,0.10,0.21,-0.34
$MOTION,227.00,-1.02,-0.06,0.11,-3.53,0.25,5.32,0.09,0.21,-0.33
$GPRMC,035005.000,A,1513.1658,N,14543.0281,E,0.00,152.94,020217,,,A*60
$MOTION,204.00,-1.03,-0.07,0.11,-3.30,0.45,4.96,0.09,0.21,-0.34
$MOTION,194.00,-1.03,-0.08,0.10,-3.57,0.44,4.90,0.09,0.21,-0.34
$MOTION,192.00,-1.00,-0.08,0.10,-3.69,0.52,4.98,0.10,0.20,-0.35
$MOTION,192.00,-1.02,-0.10,0.10,-3.42,0.30,6.29,0.10,0.21,-0.34
$MOTION,224.00,-1.04,-0.07,0.10,-3.18,0.72,5.83,0.10,0.20,-0.34
$GPRMC,035006.000,A,1513.1658,N,14543.0281,E,0.00,152.94,020217,,,A*63
$MOTION,205.00,-1.01,-0.07,0.12,-3.41,0.29,4.77,0.10,0.21,-0.34
$MOTION,192.00,-1.00,-0.08,0.10,-3.74,0.76,4.74,0.10,0.21,-0.34
$MOTION,192.00,-1.02,-0.07,0.10,-3.60,0.35,5.74,0.10,0.20,-0.34
$MOTION,201.00,-1.00,-0.08,0.10,-3.51,0.49,2.00,0.10,0.21,-0.34
$MOTION,204.00,-1.04,-0.07,0.10,-3.24,0.55,6.18,0.09,0.20,-0.34
$GPRMC,035007.000,A,1513.1658,N,14543.0281,E,0.01,152.94,020217,,,A*63
$MOTION,257.00,-1.02,-0.08,0.12,-3.36,0.81,5.15,0.09,0.21,-0.34
$MOTION,198.00,-1.04,-0.08,0.09,-3.59,0.28,4.57,0.09,0.20,-0.34
$MOTION,193.00,-1.03,-0.09,0.10,-3.66,0.47,5.35,0.10,0.21,-0.34
$MOTION,230.00,-1.02,-0.07,0.10,-3.30,0.49,5.09,0.09,0.20,-0.34
$MOTION,205.00,-1.04,-0.07,0.10,-3.42,0.55,5.11,0.09,0.21,-0.33
$GPRMC,035008.000,A,1513.1658,N,14543.0281,E,0.01,152.94,020217,,,A*6C
$MOTION,203.00,-1.02,-0.08,0.10,-3.41,0.77,4.80,0.09,0.21,-0.34
$MOTION,193.00,-1.05,-0.05,0.10,-3.45,0.36,4.96,0.09,0.20,-0.34
$MOTION,199.00,-1.02,-0.10,0.10,-3.51,0.40,5.97,0.09,0.21,-0.34
$MOTION,227.00,-1.02,-0.07,0.10,-3.38,0.36,4.57,0.09,0.20,-0.34
$MOTION,206.00,-1.01,-0.09,0.10,-3.27,0.62,5.48,0.10,0.21,-0.34
$GPRMC,035009.000,A,1513.1658,N,14543.0281,E,0.01,152.94,020217,,,A*6D
$MOTION,204.00,-1.02,-0.06,0.10,-3.50,0.37,4.97,0.10,0.20,-0.35
$MOTION,192.00,-1.03,-0.08,0.11,-3.54,0.67,5.02,0.09,0.20,-0.34
$MOTION,198.00,-1.03,-0.07,0.10,-3.56,0.84,4.94,0.10,0.20,-0.35
$MOTION,206.00,-1.04,-0.07,0.11,-3.56,0.28,4.46,0.10,0.20,-0.35
$MOTION,224.00,-1.01,-0.07,0.12,-3.30,0.72,5.45,0.10,0.20,-0.34
$GPRMC,035010.000,A,1513.1658,N,14543.0281,E,0.01,152.94,020217,,,A*65
$MOTION,194.00,-1.02,-0.08,0.11,-3.26,0.46,4.84,0.09,0.21,-0.34
$MOTION,192.00,-1.03,-0.08,0.11,-3.59,0.43,5.19,0.10,0.20,-0.34
$MOTION,192.00,-1.04,-0.07,0.10,-1.94,0.48,5.40,0.09,0.20,-0.34
$MOTION,203.00,-1.01,-0.07,0.12,-3.33,1.04,5.39,0.09,0.21,-0.34
$GPRMC,035011.000,A,1513.1658,N,14543.0281,E,0.01,152.94,020217,,,A*64
$MOTION,205.00,-1.02,-0.07,0.10,-3.60,0.55,5.10,0.09,0.20,-0.34
$MOTION,205.00,-1.02,-0.09,0.10,-3.23,0.46,4.61,0.09,0.21,-0.35
$MOTION,192.00,-1.04,-0.07,0.10,-3.16,0.39,7.45,0.10,0.20,-0.34
$MOTION,203.00,-1.04,-0.07,0.10,-3.28,0.37,5.31,0.09,0.21,-0.34
$MOTION,205.00,-1.04,-0.07,0.11,-2.91,0.49,5.19,0.09,0.21,-0.34
$MOTION,224.00,-1.03,-0.07,0.12,-3.75,0.24,4.84,0.09,0.21,-0.35
$GPRMC,035012.000,A,1513.1658,N,14543.0281,E,0.01,152.94,020217,,,A*67
$MOTION,204.00,-1.02,-0.08,0.10,-3.64,0.74,5.23,0.09,0.20,-0.34
$MOTION,192.00,-1.03,-0.08,0.11,-3.84,0.34,5.40,0.09,0.20,-0.34
$MOTION,192.00,-1.02,-0.08,0.10,-3.38,0.58,5.64,0.09,0.21,-0.34
$MOTION,230.00,-1.03,-0.07,0.10,-3.60,0.36,5.43,0.10,0.21,-0.34
$MOTION,232.00,-1.01,-0.08,0.11,-3.72,0.52,4.70,0.09,0.21,-0.34
$GPRMC,035013.000,A,1513.1658,N,14543.0281,E,0.01,152.94,020217,,,A*66
$MOTION,206.00,-1.01,-0.09,0.11,-3.44,0.52,5.26,0.10,0.21,-0.34
$MOTION,195.00,-1.03,-0.08,0.10,-3.43,0.37,4.85,0.09,0.18,-0.35
$MOTION,205.00,-1.03,-0.08,0.10,-3.62,0.22,5.27,0.09,0.21,-0.34
$MOTION,222.00,-1.04,-0.07,0.10,-3.56,0.37,5.02,0.09,0.21,-0.35
$GPRMC,035014.000,A,1513.1658,N,14543.0281,E,0.00,152.94,020217,,,A*60
$MOTION,206.00,-1.06,-0.06,0.11,-3.52,0.37,5.62,0.09,0.21,-0.34
$MOTION,192.00,-1.01,-0.09,0.11,-3.48,0.66,4.81,0.09,0.21,-0.34
$MOTION,201.00,-1.03,-0.07,0.11,-3.39,0.41,5.65,0.10,0.21,-0.34
$MOTION,205.00,-1.02,-0.08,0.10,-3.66,0.48,4.55,0.09,0.21,-0.35
$MOTION,224.00,-1.03,-0.07,0.10,-1.98,0.28,4.43,0.09,0.21,-0.34
$GPRMC,035015.000,A,1513.1658,N,14543.0281,E,0.00,152.94,020217,,,A*61
$MOTION,206.00,-1.02,-0.08,0.10,-3.43,0.69,4.93,0.09,0.21,-0.34
$MOTION,192.00,-1.03,-0.07,0.11,-3.43,0.53,5.04,0.09,0.20,-0.34
$MOTION,206.00,-1.03,-0.07,0.11,-3.76,0.42,5.31,0.09,0.21,-0.35
$MOTION,206.00,-1.02,-0.09,0.08,-3.40,0.64,5.75,0.09,0.21,-0.35
$MOTION,227.00,-1.02,-0.08,0.11,-3.45,0.45,3.84,0.09,0.20,-0.34
$GPRMC,035016.000,A,1513.1658,N,14543.0281,E,0.01,152.94,020217,,,A*63
$MOTION,205.00,-1.02,-0.07,0.09,-3.42,0.49,4.90,0.09,0.21,-0.34
$MOTION,192.00,-1.02,-0.08,0.11,-3.51,0.43,4.83,0.09,0.20,-0.35
$MOTION,197.00,-1.02,-0.07,0.10,-3.27,0.47,5.26,0.09,0.20,-0.34
$MOTION,204.00,-1.04,-0.07,0.10,-3.83,0.43,5.59,0.09,0.21,-0.34
$GPRMC,035017.000,A,1513.1658,N,14543.0281,E,0.00,152.94,020217,,,A*63
$MOTION,273.00,-1.03,-0.07,0.11,-3.71,0.43,5.58,0.09,0.21,-0.35
$MOTION,192.00,-1.04,-0.07,0.11,-3.57,0.74,5.56,0.10,0.20,-0.34
$MOTION,192.00,-1.03,-0.07,0.10,-3.72,0.34,4.94,0.10,0.20,-0.34
$MOTION,218.00,-1.02,-0.07,0.10,-3.30,0.61,5.55,0.09,0.21,-0.35
$MOTION,231.00,-1.00,-0.08,0.11,-3.66,0.36,4.60,0.09,0.21,-0.34
$GPRMC,035018.000,A,1513.1658,N,14543.0281,E,0.01,152.94,020217,,,A*6D
$MOTION,213.00,-1.03,-0.08,0.10,-2.81,0.60,5.33,0.09,0.21,-0.34
$MOTION,192.00,-1.04,-0.07,0.11,-3.77,0.44,5.59,0.09,0.21,-0.34
$MOTION,192.00,-1.02,-0.08,0.11,-4.25,0.63,5.35,0.09,0.20,-0.34
$MOTION,203.00,-1.04,-0.05,0.10,-3.45,0.58,5.67,0.09,0.20,-0.34
$MOTION,205.00,-1.01,-0.09,0.10,-5.74,0.55,4.42,0.09,0.21,-0.34
$GPRMC,035019.000,A,1513.1658,N,14543.0281,E,0.01,152.94,020217,,,A*6C
$MOTION,251.00,-1.03,-0.06,0.11,-3.69,0.66,4.58,0.09,0.21,-0.34
$MOTION,193.00,-1.03,-0.07,0.11,-3.45,0.40,4.02,0.09,0.21,-0.34
$MOTION,203.00,-1.02,-0.08,0.10,-3.63,0.68,5.14,0.09,0.21,-0.34
$MOTION,207.00,-1.02,-0.07,0.10,-3.46,0.29,5.54,0.10,0.21,-0.34
$MOTION,224.00,-1.02,-0.07,0.09,-3.39,0.41,5.00,0.09,0.21,-0.34
$GPRMC,035020.000,A,1513.1658,N,14543.0281,E,0.02,152.94,020217,,,A*65
$MOTION,205.00,-1.02,-0.08,0.11,-3.60,0.25,4.61,0.10,0.21,-0.34
$MOTION,192.00,-1.03,-0.08,0.10,-3.30,0.59,5.37,0.10,0.21,-0.34
$MOTION,198.00,-1.03,-0.08,0.10,-1.93,0.79,4.84,0.09,0.21,-0.34
$MOTION,205.00,-1.04,-0.08,0.10,-3.41,0.52,5.14,0.09,0.21,-0.34
$GPRMC,035021.000,A,1513.1658,N,14543.0281,E,0.00,152.94,020217,,,A*66
$MOTION,228.00,-1.02,-0.08,0.10,-2.04,0.33,5.18,0.09,0.21,-0.34
$MOTION,206.00,-1.04,-0.06,0.10,-3.61,0.43,5.17,0.09,0.20,-0.34
$MOTION,192.00,-1.02,-0.08,0.11,-3.60,0.43,4.78,0.10,0.20,-0.34
$MOTION,192.00,-1.03,-0.07,0.11,-3.38,0.44,5.23,0.09,0.21,-0.34
$MOTION,227.00,-1.02,-0.07,0.10,-3.50,0.20,4.82,0.10,0.21,-0.34
$GPRMC,035022.000,A,1513.1658,N,14543.0281,E,0.01,152.94,020217,,,A*64
$MOTION,211.00,-1.02,-0.09,0.10,-3.49,0.44,5.10,0.10,0.21,-0.34
$MOTION,199.00,-1.02,-0.06,0.09,-2.83,0.35,5.53,0.09,0.20,-0.34
$MOTION,193.00,-1.03,-0.06,0.11,-3.50,0.70,5.35,0.09,0.20,-0.35
$MOTION,192.00,-1.02,-0.05,0.12,-3.28,0.62,5.20,0.09,0.21,-0.34
$MOTION,226.00,-1.05,-0.08,0.11,-3.67,0.30,5.01,0.09,0.20,-0.34
$GPRMC,035023.000,A,1513.1658,N,14543.0281,E,0.01,152.94,020217,,,A*65
$MOTION,204.00,-1.03,-0.08,0.09,-3.68,0.59,4.92,0.09,0.20,-0.34
$MOTION,193.00,-1.02,-0.06,0.09,-3.26,0.64,5.45,0.09,0.21,-0.34
$MOTION,192.00,-1.03,-0.07,0.09,-3.51,0.37,4.43,0.09,0.20,-0.34
$MOTION,192.00,-1.02,-0.08,0.10,-2.90,0.64,6.07,0.09,0.21,-0.34
$MOTION,204.00,-1.04,-0.07,0.10,-1.92,0.29,5.50,0.10,0.21,-0.34
$GPRMC,035024.000,A,1513.1658,N,14543.0281,E,0.02,152.94,020217,,,A*61
$MOTION,204.00,-1.01,-0.08,0.11,-3.77,0.46,4.82,0.10,0.21,-0.34
$MOTION,207.00,-1.01,-0.10,0.10,-3.39,0.64,5.67,0.10,0.21,-0.34
$MOTION,192.00,-1.03,-0.08,0.11,-3.51,0.31,4.72,0.10,0.21,-0.35
$MOTION,203.00,-1.03,-0.09,0.09,-3.05,0.13,5.35,0.10,0.21,-0.33
$MOTION,204.00,-1.01,-0.08,0.11,-3.24,0.75,5.44,0.09,0.21,-0.34
$GPRMC,035025.000,A,1513.1657,N,14543.0281,E,0.00,152.94,020217,,,A*6D
