$GPRMC,014401.000,A,3520.2269,N,13937.9867,E,0.08,340.38,2509163D
CalmanFilter:0.00 20.12 22.62
$GPRMC,014416.000,A,3520.2260,N,13937.9854,E,0.23,340.38,25091643,K,A*37
CalmanFilter:0.00 13.76 13.79
$GPRMC,014417.000,A,3520.2260,N,13937.9853,E,0.29,340.38,25091654,K,A*3B
CalmanFilter:0.00 17.88 4.03
$GPRMC,014418.000,A,3520.2261,N,13937.9852,E,0.40,340.38,25091675,K,A*37
CalmanFilter:0.00 19.81 3.66
$GPRMC,014419.000,A,3520.2261,N,13937.9851,E,0.46,340.38,250916.85,K,A*3E
CalmanFilter:0.00 17.53 8.35
$GPRMC,014420.000,A,3520.2262,N,13937.9849,E,0.49,340.38,250916.91,K,A*34
CalmanFilter:0.00 19.45 9.66
$GPRMC,014421.000,A,3520.2263,N,13937.9848,E,0.36,340.38,250916.67,K,A*35
CalmanFilter:0.00 17.93 11.00
$GPRMC,014422.000,A,3520.2263,N,13937.9847,E,0.27,340.38,25091649,K,A*39
CalmanFilter:0.00 18.24 10.08
$GPRMC,014423.000,A,3520.2264,N,13937.9847,E,0.30,340.38,250916.56,K,A*31
CalmanFilter:0.00 13.14 14.04
$GPRMC,014424.000,A,3520.2265,N,13937.9846,E,0.16,340.38,250916.30,K,A*35
CalmanFilter:0.00 12.80 17.63
$GPRMC,014425.000,A,3520.2265,N,13937.9846,E,0.08,340.38,250916,0.16,K,A*3E
CalmanFilter:0.00 1.73 8.13
$GPRMC,014426.000,A,3520.2233,N,13937.9754,E,0.10,340.38,250916.18,K,A*39
CalmanFilter:0.00 -3.00 7.96
$GPRMC,014427.000,A,3520.2219,N,13937.9747,E,0.16,340.38,250916.29,K,A*3D
CalmanFilter:0.00 6.65 -14.35
$GPRMC,014428.000,A,3520.2218,N,13937.9751,E,0.12,340.38,250916.23,K,A*33
CalmanFilter:0.00 7.92 -10.51
$GPRMC,014429.000,A,3520.2216,N,13937.9752,E,0.14,340.38,2509160.26,K,A*30
CalmanFilter:0.00 2.05 9.65
$GPRMC,014430.000,A,3520.2213,N,13937.9751,E,0.14,340.38,250916.26,K,A*30
CalmanFilter:0.00 1.96 17.23
$GPRMC,014431.000,A,3520.2213,N,13937.9752,E,0.12,340.38,2509160.21,K,A*31
CalmanFilter:0.00 1.18 5.83
$GPRMC,014432.000,A,3520.2211,N,13937.9753,E,0.08,340.38,2509160.15,K,A*3D
CalmanFilter:0.00 1.40 -6.40
$GPRMC,014433.000,A,3520.2210,N,13937.9754,E,0.08,340.38,25091614,K,A*3C
CalmanFilter:0.00 2.95 8.89
$GPRMC,014434.000,A,3520.2213,N,13937.9750,E,0.07,340.38,250916,K,A*35
CalmanFilter:0.00 14.13 -3.14
$GPRMC,014435.000,A,3520.2212,N,13937.9751,E,0.08,340.38,2509165,K,A*3D
CalmanFilter:0.00 6.11 0.07
$GPRMC,014436.000,A,3520.2211,N,13937.9752,E,0.11,340.38,2509160,K,A*33
CalmanFilter:0.00 6.33 2.63
$GPRMC,014437.000,A,3520.2208,N,13937.9754,E,0.12,340.38,250916.22,K,A*32
CalmanFilter:0.00 1.20 -9.19
$GPRMC,014438.000,A,3520.2206,N,13937.9754,E,0.12,340.38,25091623,K,A*33
CalmanFilter:0.00 1.71 -9.94
$GPRMC,014439.000,A,3520.2206,N,13937.9754,E,0.02,340.38,25091604,K,A*37
CalmanFilter:0.00 3.28 -7.92
$GPRMC,014440.000,A,3520.2206,N,13937.9754,E,0.02,340.38,250916.04,K,A*37
CalmanFilter:0.00 4.50 -6.15
$GPRMC,014441.000,A,3520.2206,N,13937.9754,E,0.01,340.38,2509161,K,A*31
CalmanFilter:0.00 5.04 -5.11
$GPRMC,014442.000,A,3520.2206,N,13937.9754,E,0.01,340.38,25091603,K,A*33
CalmanFilter:0.00 5.17 -4.80
$GPRMC,014443.000,A,3520.2206,N,13937.9754,E,0.07,340.38,25091614,K,A*33
CalmanFilter:0.00 5.10 -4.64
$GPRMC,014444.000,A,3520.2206,N,13937.9754,E,0.01,340.38,25091602,K,A*32
CalmanFilter:0.00 5.03 -4.60
$GPRMC,014445.000,A,3520.2206,N,13937.9754,E,0.01,340.38,250916.01,K,A*31
CalmanFilter:0.00 5.02 -4.54
$GPRMC,014446.000,A,3520.2206,N,13937.9754,E,0.01,340.38,25091602,K,A*32
CalmanFilter:0.00 4.95 -4.58
$GPRMC,014447.000,A,3520.2206,N,13937.9754,E,0.02,340.38,250916.04,K,A*37
CalmanFilter:0.00 5.03 -4.62
$GPRMC,014448.000,A,3520.2206,N,13937.9754,E,0.02,340.38,2509164,K,A*37
CalmanFilter:0.00 5.00 -4.49
$GPRMC,014449.000,A,3520.2206,N,13937.9754,E,0.04,340.38,2509167,K,A*32
CalmanFilter:0.00 6.27 -4.20
$GPRMC,014450.000,A,3520.2206,N,13937.9754,E,0.21,340.38,250916K,A*38
CalmanFilter:0.00 20.58 30.78
$GPRMC,014451.000,A,3520.2206,N,13937.9754,E,1.16,50.64,250916,,K,A*0B
CalmanFilter:0.00 -3.80 11.71
$GPRMC,014452.000,A,3520.2206,N,13937.9760,E,0.60,44.60,250916,,A*0C
CalmanFilter:0.00 6.79 23.76
$GPRMC,014453.000,A,3520.2210,N,13937.9760,E,1.00,326.15,250916,K,A*33
CalmanFilter:0.00 2.53 5.83
$GPRMC,014454.000,A,3520.2211,N,13937.9760,E,0.67,326.77,250916,K,A*3C
CalmanFilter:0.00 11.08 -14.25
$GPRMC,014455.000,A,3520.2211,N,13937.9761,E,0.28,326.77,25091651,K,A*34
CalmanFilter:0.00 10.02 1.38
$GPRMC,014456.000,A,3520.2212,N,13937.9761,E,0.26,326.77,2509168,K,A*32
CalmanFilter:0.00 11.07 8.55
$GPRMC,014457.000,A,3520.2211,N,13937.9763,E,0.19,326.77,2509166,K,A*37
CalmanFilter:0.00 14.73 9.86
$GPRMC,014458.000,A,3520.2213,N,13937.9764,E,0.13,326.77,250916,K,A*3F
CalmanFilter:0.00 23.06 1.96
$GPRMC,014459.000,A,3520.2213,N,13937.9764,E,0.14,326.77,2509166,K,A*3B
CalmanFilter:0.00 19.73 2.31
$GPRMC,014500.000,A,3520.2213,N,13937.9764,E,0.02,326.77,250916K,A*3C
CalmanFilter:0.00 14.79 5.53
$GPRMC,014501.000,A,3520.2213,N,13937.9764,E,0.03,326.77,250916,K,A*3F
CalmanFilter:0.00 13.56 6.99
$GPRMC,014502.000,A,3520.2213,N,13937.9764,E,0.06,326.77,250916K,A*3D
CalmanFilter:0.00 13.65 7.36
$GPRMC,014503.000,A,3520.2213,N,13937.9764,E,0.08,326.77,250916K,A*36
CalmanFilter:0.00 13.93 7.33
$GPRMC,014504.000,A,3520.2213,N,13937.9764,E,0.16,326.77,250916,K,A*3E
CalmanFilter:0.00 14.32 7.24
$GPRMC,014505.000,A,3520.2212,N,13937.9765,E,0.16,326.77,250916K,A*36
CalmanFilter:0.00 14.36 7.12
$GPRMC,014506.000,A,3520.2212,N,13937.9765,E,0.22,326.77,250916,K,A*3E
CalmanFilter:0.00 14.58 7.06
$GPRMC,014507.000,A,3520.2212,N,13937.9766,E,0.24,326.77,250916,K,A*3C
CalmanFilter:0.00 14.62 7.00
$GPRMC,014508.000,A,3520.2212,N,13937.9767,E,0.11,326.77,250916,K,A*39
CalmanFilter:0.00 14.42 7.05
$GPRMC,014509.000,A,3520.2211,N,13937.9767,E,0.13,326.77,250916,K,A*3E
CalmanFilter:0.00 14.51 7.03
$GPRMC,014510.000,A,3520.2211,N,13937.9767,E,0.13,326.77,250916,K,A*3F
CalmanFilter:0.00 14.74 7.08
$GPRMC,014602.000,A,3520.2204,N,13937.9766,E,0.01,326.77,25091602,K,A*39
CalmanFilter:0.00 14.51 6.52
$GPRMC,014603.000,A,3520.2204,N,13937.9766,E,0.01,326.77,250916.02,K,A*39
CalmanFilter:0.00 14.30 6.62
$GPRMC,014604.000,A,3520.2204,N,13937.9766,E,0.01,326.77,250916.02,K,A*39
CalmanFilter:0.00 14.29 6.70
$GPRMC,014605.000,A,3520.2204,N,13937.9766,E,0.01,326.77,250916.01,K,A*3A
CalmanFilter:0.00 14.23 6.76
$GPRMC,014606.000,A,3520.2204,N,13937.9766,E,0.01,326.77,250916.03,K,A*38
CalmanFilter:0.00 14.43 6.68
$GPRMC,014607.000,A,3520.2204,N,13937.9766,E,0.01,326.77,250916.01,K,A*3A
CalmanFilter:0.00 14.37 6.50
$GPRMC,014608.000,A,3520.2204,N,13937.9766,E,0.01,326.77,250916.02,K,A*39
CalmanFilter:0.00 14.46 6.56
$GPRMC,014609.000,A,3520.2204,N,13937.9766,E,0.01,326.77,250916.03,K,A*38
CalmanFilter:0.00 14.35 6.63
$GPRMC,014610.000,A,3520.2204,N,13937.9766,E,0.00,326.77,25091601,K,A*3B
CalmanFilter:0.00 14.39 6.61
$GPRMC,014611.000,A,3520.2204,N,13937.9766,E,0.01,326.77,250916.02,K,A*39
CalmanFilter:0.00 14.37 6.71
$GPRMC,014618.000,A,3520.2203,N,13901,58,031,38*7E
CalmanFilter:0.00 -230.45 -48.53
$GPRMC,014658.000,A,3520.2203,N,13937.9767,E,0.01,326.77,250916K,A*38
CalmanFilter:0.00 15.55 3.52
$GPRMC,014659.000,A,3520.2203,N,13937.9767,E,0.01,326.77,250916K,A*39
CalmanFilter:0.00 15.57 3.49
$GPRMC,014700.000,A,3520.2203,N,13937.9767,E,0.02,326.77,250916K,A*3B
CalmanFilter:0.00 15.46 3.53
$GPRMC,014701.000,A,3520.2203,N,13937.9767,E,0.01,326.77,250916,K,A*39
CalmanFilter:0.00 15.47 3.53
$GPRMC,014702.000,A,3520.2203,N,13937.9767,E,0.03,326.77,25091605,K,A*3C
CalmanFilter:0.00 15.53 3.51
$GPRMC,014703.000,A,3520.2203,N,13937.9767,E,0.01,326.77,2509162,K,A*39
CalmanFilter:0.00 15.58 3.53
$GPRMC,014704.000,A,3520.2203,N,13937.9767,E,0.01,326.77,2509161,K,A*3A
CalmanFilter:0.00 15.53 3.50
$GPRMC,014705.000,A,3520.2203,N,13937.9767,E,0.01,326.77,2509161,K,A*3A
CalmanFilter:0.00 15.53 3.51
$GPRMC,014706.000,A,3520.2203,N,13937.9767,E,0.02,326.77,250916,K,A*3B
CalmanFilter:0.00 15.56 3.50
$GPRMC,014707.000,A,3520.2203,N,13937.9767,E,0.01,326.77,2509161,K,A*3A
CalmanFilter:0.00 15.44 3.54
$GPRMC,014708.000,A,3520.2204,N,13937.9767,E,0.01,326.77,250916,K,A*3A
CalmanFilter:0.00 15.47 3.46
$GPRMC,014709.000,A,3520.2204,N,13937.9767,E,0.00,326.77,2509161,K,A*3B
CalmanFilter:0.00 15.59 3.50
$GPRMC,014710.000,A,3520.2204,N,13937.9767,E,0.00,326.77,250916,K,A*3A
CalmanFilter:0.00 15.53 3.47
$GPRMC,014711.000,A,3520.2204,N,13937.9767,E,0.01,326.77,2509162,K,A*39
CalmanFilter:0.00 15.58 3.49
$GPRMC,014712.000,A,3520.2204,N,13937.9767,E,0.01,326.77,250916,K,A*3A
CalmanFilter:0.00 15.48 3.54
$GPRMC,014713.000,A,3520.2204,N,13937.9767,E,0.01,326.77,250916,K,A*3A
CalmanFilter:0.00 15.69 3.44
$GPRMC,014733.000,A,3520.2204,N,13937.9767,E,0.03,326.77,250916,,,A*61
CalmanFilter:0.00 2.50 5.22
$GPRMC,014734.000,A,3520.2204,N,13937.9767,E,0.03,326.77,250916,,,A*66
CalmanFilter:0.00 1.53 5.38
$GPRMC,014735.000,A,3520.2204,N,13937.9767,E,0.04,326.77,250916,,,A*60
CalmanFilter:0.00 1.34 5.64
$GPRMC,014736.000,A,3520.2204,N,13937.9767,E,0.05,326.77,250916,A*3E
CalmanFilter:0.00 2.41 4.43
$GPRMC,014740.000,A,3520.2204,N,13937.9767,E,0.07,326.77,250916*38
CalmanFilter:0.00 8.23 12.89
$GPRMC,014743.000,A,3520.2204,N,13937.9767,E,0.02,326.77,250916,A*3C
CalmanFilter:0.00 8.47 3.76
$GPRMC,014744.000,A,3520.2204,N,13937.9767,E,0.03,326.77,250916,A*3F
CalmanFilter:0.00 8.02 3.33
$GPRMC,014745.000,A,3520.2204,N,13937.9767,E,0.04,326.77,250916K,A*39
CalmanFilter:0.00 7.56 2.90
$GPRMC,014746.000,A,3520.2204,N,13937.9767,E,0.03,326.77,250916,A*3F
CalmanFilter:0.00 7.34 3.24
$GPRMC,014747.000,A,3520.2205,N,13937.9767,E,0.02,326.77,250916A*3C
CalmanFilter:0.00 5.95 8.66
$GPRMC,014748.000,A,3520.2205,N,13937.9767,E,0.05,326.77,250916,,,A*6A
CalmanFilter:0.00 -0.93 -21.32
$GPRMC,014750.000,A,3520.2205,N,13937.9767,E,0.02,326.77,250916,A*3B
CalmanFilter:0.00 5.55 1.43
$GPRMC,014751.000,A,3520.2205,N,13937.9767,E,0.03,326.77,250916,,,A*64
CalmanFilter:0.00 6.16 3.08
$GPRMC,014753.000,A,3520.2205,N,13937.9767,E,0.03,326.77,250916K,A*3F
CalmanFilter:0.00 6.12 1.65
$GPRMC,014754.000,A,3520.2205,N,13937.9767,E,0.03,326.77,250916,K,A*3C
CalmanFilter:0.00 5.95 1.11
$GPRMC,014755.000,A,3520.2205,N,13937.9767,E,0.03,326.77,250916,K,A*3C
CalmanFilter:0.00 5.94 0.95
$GPRMC,014756.000,A,3520.2205,N,13937.9767,E,0.03,326.77,250916,K,A*3C
CalmanFilter:0.00 5.86 0.99
$GPRMC,014757.000,A,3520.2205,N,13937.9767,E,0.01,326.77,250916K,A*38
CalmanFilter:0.00 5.94 0.90
$GPRMC,014758.000,A,3520.2205,N,13937.9767,E,0.01,326.77,250916K,A*3A
CalmanFilter:0.00 5.84 0.76
$GPRMC,014759.000,A,3520.2205,N,13937.9767,E,0.00,326.77,250916K,A*3B
CalmanFilter:0.00 5.84 0.97
$GPRMC,014800.000,A,3520.2205,N,13937.9767,E,0.01,326.77,250916,K,A*39
CalmanFilter:0.00 5.93 1.15
$GPRMC,014801.000,A,3520.2205,N,13937.9767,E,0.00,326.77,250916K,A*3A
CalmanFilter:0.00 5.94 1.10
$GPRMC,014802.000,A,3520.2205,N,13937.9767,E,0.02,326.77,250916K,A*3B
CalmanFilter:0.00 5.93 0.93
$GPRMC,014803.000,A,3520.2205,N,13937.9767,E,0.01,326.77,250916K,A*39
CalmanFilter:0.00 5.93 0.86
$GPRMC,014804.000,A,3520.2205,N,13937.9767,E,0.01,326.77,250916K,A*3A
CalmanFilter:0.00 5.90 0.96
$GPRMC,014805.000,A,3520.2205,N,13937.9767,E,0.02,326.77,250916K,A*3C
CalmanFilter:0.00 5.87 0.86
$GPRMC,014806.000,A,3520.2205,N,13937.9767,E,0.01,326.77,250916K,A*3A
CalmanFilter:0.00 5.87 0.83
$GPRMC,014807.000,A,3520.2205,N,13937.9767,E,0.01,326.77,250916K,A*39
CalmanFilter:0.00 5.88 0.92
$GPRMC,014808.000,A,3520.2205,N,13937.9767,E,0.06,326.77,250916K,A*3C
CalmanFilter:0.00 5.83 1.03
$GPRMC,014809.000,A,3520.2205,N,13937.9767,E,0.01,326.77,250916K,A*3A
CalmanFilter:0.00 5.93 1.02
$GPRMC,014810.000,A,3520.2205,N,13937.9767,E,0.00,326.77,250916K,A*3A
CalmanFilter:0.00 5.90 1.06
$GPRMC,014811.000,A,3520.2205,N,13937.9767,E,0.01,326.77,250916K,A*39
CalmanFilter:0.00 5.91 0.78
$GPRMC,014812.000,A,3520.2205,N,13937.9767,E,0.00,326.77,250916K,A*3B
CalmanFilter:0.00 5.93 1.02
$GPRMC,014813.000,A,3520.2205,N,13937.9767,E,0.01,326.77,250916K,A*3A
CalmanFilter:0.00 5.89 1.09
$GPRMC,014814.000,A,3520.2205,N,13937.9767,E,0.02,326.77,250916,K,A*3C
CalmanFilter:0.00 5.92 1.03
$GPRMC,014815.000,A,3520.2205,N,13937.9767,E,0.00,326.77,250916K,A*3B
CalmanFilter:0.00 5.90 1.07
$GPRMC,014816.000,A,3520.2205,N,13937.9767,E,0.01,326.77,250916K,A*3A
CalmanFilter:0.00 5.95 0.97
$GPRMC,014817.000,A,3520.2205,N,13937.9767,E,0.00,326.77,250916K,A*3B
CalmanFilter:0.00 5.81 1.08
$GPRMC,014818.000,A,3520.2205,N,13937.9767,E,0.01,326.77,250916K,A*39
CalmanFilter:0.00 5.89 1.02
$GPRMC,014819.000,A,3520.2205,N,13937.9767,E,0.00,326.77,250916K,A*3A
CalmanFilter:0.00 5.86 0.87
$GPRMC,014820.000,A,3520.2205,N,13937.9767,E,0.01,326.77,250916K,A*3A
CalmanFilter:0.00 5.88 0.87
$GPRMC,014821.000,A,3520.2205,N,13937.9767,E,0.01,326.77,250916,K,A*39
CalmanFilter:0.00 5.88 0.87
$GPRMC,014822.000,A,3520.2205,N,13937.9767,E,0.01,326.77,250916K,A*39
CalmanFilter:0.00 5.86 1.03
$GPRMC,014823.000,A,3520.2205,N,13937.9767,E,0.00,326.77,250916K,A*3A
CalmanFilter:0.00 5.88 1.07
$GPRMC,014824.000,A,3520.2205,N,13937.9767,E,0.00,326.77,250916K,A*3B
CalmanFilter:0.00 5.84 1.01
$GPRMC,014825.000,A,3520.2205,N,13937.9767,E,0.02,326.77,250916K,A*3B
CalmanFilter:0.00 5.88 0.88
$GPRMC,014826.000,A,3520.2205,N,13937.9767,E,0.02,326.77,250916,A*3B
CalmanFilter:0.00 5.88 0.83
$GPRMC,014827.000,A,3520.2205,N,13937.9767,E,0.00,326.77,250916K,A*3A
CalmanFilter:0.00 5.83 0.79
$GPRMC,014828.000,A,3520.2205,N,13937.9767,E,0.02,326.77,250916K,A*3B
CalmanFilter:0.00 5.91 1.06
$GPRMC,014829.000,A,3520.2205,N,13937.9767,E,0.01,326.77,250916K,A*39
CalmanFilter:0.00 5.90 1.12
$GPRMC,014830.000,A,3520.2205,N,13937.9767,E,0.01,326.77,250916K,A*3A
CalmanFilter:0.00 5.95 0.84
$GPRMC,014831.000,A,3520.2206,N,13937.9767,E,0.01,326.77,250916K,A*3A
CalmanFilter:0.00 5.92 0.84
$GPRMC,014832.000,A,3520.2206,N,13937.9767,E,0.01,326.77,250916K,A*39
CalmanFilter:0.00 5.90 0.84
$GPRMC,014833.000,A,3520.2206,N,13937.9767,E,0.01,326.77,250916K,A*3A
CalmanFilter:0.00 5.93 0.69
$GPRMC,014834.000,A,3520.2206,N,13937.9768,E,0.00,326.77,250916K,A*3B
CalmanFilter:0.00 5.86 0.62
$GPRMC,014835.000,A,3520.2206,N,13937.9768,E,0.01,326.77,250916K,A*39
CalmanFilter:0.00 5.90 0.81
$GPRMC,014836.000,A,3520.2206,N,13937.9768,E,0.01,326.77,250916,K,A*39
CalmanFilter:0.00 5.91 1.13
$GPRMC,014837.000,A,3520.2206,N,13937.9768,E,0.01,326.77,250916K,A*39
CalmanFilter:0.00 5.91 1.02
$GPRMC,014838.000,A,3520.2206,N,13937.9768,E,0.01,326.77,250916K,A*39
CalmanFilter:0.00 5.94 0.99
$GPRMC,014839.000,A,3520.2206,N,13937.9768,E,0.01,326.77,250916,A*3A
CalmanFilter:0.00 5.86 1.03
$GPRMC,014840.000,A,3520.2206,N,13937.9768,E,0.01,326.77,250916K,A*39
CalmanFilter:0.00 5.88 0.89
$GPRMC,014841.000,A,3520.2206,N,13937.9768,E,0.02,326.77,250916,K,A*3B
CalmanFilter:0.00 6.05 0.80
$GPRMC,014842.000,A,3520.2206,N,13937.9768,E,0.01,326.77,250916K,A*3A
CalmanFilter:0.00 5.95 0.87
$GPRMC,014843.000,A,3520.2206,N,13937.9768,E,0.02,326.77,250916K,A*3C
CalmanFilter:0.00 5.93 0.77
$GPRMC,014844.000,A,3520.2206,N,13937.9768,E,0.01,326.77,250916K,A*39
CalmanFilter:0.00 5.87 0.82
$GPRMC,014845.000,A,3520.2206,N,13937.9768,E,0.01,326.77,250916K,A*39
CalmanFilter:0.00 5.94 0.79
$GPRMC,014846.000,A,3520.2206,N,13937.9768,E,0.01,326.77,250916K,A*39
CalmanFilter:0.00 5.93 0.79
$GPRMC,014847.000,A,3520.2206,N,13937.9768,E,0.02,326.77,250916,K,A*3C
CalmanFilter:0.00 5.85 1.07
$GPRMC,014848.000,A,3520.2206,N,13937.9768,E,0.01,326.77,250916K,A*39
CalmanFilter:0.00 5.86 0.99
$GPRMC,014849.000,A,3520.2206,N,13937.9768,E,0.08,326.77,250916K,A*36
CalmanFilter:0.00 5.88 0.76
$GPRMC,014850.000,A,3520.2206,N,13937.9768,E,0.01,326.77,250916K,A*38
CalmanFilter:0.00 5.87 1.09
$GPRMC,014851.000,A,3520.2206,N,13937.9768,E,0.01,326.77,250916K,A*3A
CalmanFilter:0.00 5.91 1.01
$GPRMC,014852.000,A,3520.2206,N,13937.9768,E,0.01,326.77,250916K,A*38
CalmanFilter:0.00 5.90 0.99
$GPRMC,014853.000,A,3520.2206,N,13937.9768,E,0.03,326.77,250916K,A*3C
CalmanFilter:0.00 6.16 0.90
$GPRMC,014854.000,A,3520.2206,N,13937.9768,E,0.01,326.77,250916K,A*3A
CalmanFilter:0.00 6.30 0.85
$GPRMC,014855.000,A,3520.2206,N,13937.9768,E,0.01,326.77,250916K,A*38
CalmanFilter:0.00 6.54 1.04
$GPRMC,014856.000,A,3520.2206,N,13937.9768,E,0.01,326.77,250916K,A*3A
CalmanFilter:0.00 6.35 0.91
$GPRMC,014857.000,A,3520.2206,N,13937.9768,E,0.00,326.77,250916,K,A*3B
CalmanFilter:0.00 6.38 0.89
$GPRMC,014858.000,A,3520.2206,N,13937.9768,E,0.00,326.77,250916,A*3B
CalmanFilter:0.00 6.78 1.22
$GPRMC,014859.000,A,3520.2206,N,13937.9768,E,0.01,326.77,250916,A*38
CalmanFilter:0.00 6.73 1.05
$GPRMC,014900.000,A,3520.2206,N,13937.9768,E,0.00,326.77,250916K,A*3B
CalmanFilter:0.00 6.69 0.99
$GPRMC,014901.000,A,3520.2206,N,13937.9768,E,0.00,326.77,250916,A*3A
CalmanFilter:0.00 6.71 0.92
$GPRMC,014902.000,A,3520.2206,N,13937.9768,E,0.02,326.77,250916,A*3B
CalmanFilter:0.00 6.68 0.94
$GPRMC,014903.000,A,3520.2206,N,13937.9768,E,0.01,326.77,250916K,A*3A
CalmanFilter:0.00 6.68 0.85
$GPRMC,014904.000,A,3520.2206,N,13937.9768,E,0.01,326.77,250916,A*39
CalmanFilter:0.00 6.71 1.06
$GPRMC,014905.000,A,3520.2206,N,13937.9768,E,0.02,326.77,250916,A*3C
CalmanFilter:0.00 6.74 1.11
$GPRMC,014906.000,A,3520.2206,N,13937.9768,E,0.02,326.77,250916,A*3C
CalmanFilter:0.00 6.76 1.16
$GPRMC,014907.000,A,3520.2206,N,13937.9768,E,0.00,326.77,250916,A*3A
CalmanFilter:0.00 6.71 1.09
$GPRMC,014908.000,A,3520.2206,N,13937.9768,E,0.02,326.77,250916K,A*3B
CalmanFilter:0.00 6.72 0.76
$GPRMC,014909.000,A,3520.2206,N,13937.9768,E,0.01,326.77,250916,A*39
CalmanFilter:0.00 6.77 0.85
$GPRMC,014915.000,A,3520.2206,N,13937.9768,E,0.01,326.77,250916,,,A*64
CalmanFilter:0.00 6.73 1.31
$GPRMC,014919.000,A,3520.2206,N,13937.9768,E,0.01,326.77,250916,,,A*68
CalmanFilter:0.00 6.77 0.92
$GPRMC,014921.000,A,3520.2206,N,13937.9768,E,0.01,326.77,250916,,,A*63
CalmanFilter:0.00 6.70 0.74
$GPRMC,014938.000,A50916,,,*5A
CalmanFilter:0.00 65.94 -31.17
$GPRMC,014939.000,A0916,,,*5B
CalmanFilter:0.00 54.01 -58.55
$GPRMC,014940.000,A0916,,,*55
CalmanFilter:0.00 48.66 -85.70
$GPRMC,014941.000,A,36,,,A54
CalmanFilter:0.00 52.27 -109.91
$GPRMC,014942.000,A,36,,,A7
CalmanFilter:0.00 56.01 -136.74
$GPRMC,014943.000,A,16,,,A56
CalmanFilter:0.00 64.47 -63.76
$GPRMC,014951.000,A0916,,,*55
CalmanFilter:0.00 65.70 -73.90
$GPRMC,014952.000,A,916,,,A*56
CalmanFilter:0.00 66.86 -78.28
$GPRMC,014953.000,A,916,,,A*7
CalmanFilter:0.00 64.96 -76.40
$GPRMC,014954.000,A916,,,A*650
CalmanFilter:0.00 68.29 -92.73
$GPRMC,014955.000,A,35,,,A*6
CalmanFilter:0.00 59.66 -81.52
$GPRMC,015336.000,A,3520.2198,N,13937.9758,E,0.01,6.34,.34,T,,M
CalmanFilter:0.00 29.66 17.53
$GPRMC,015344.000,A,3520.2199,N,13937.9757,E,0.02,6.34,2509,,A*A
CalmanFilter:0.00 71.27 -47.77
$GPRMC,015352.000,A,3520.2199,N,13937.9757,E,0.01,6.34,250916,,01,N,0.03,K,A*3E
CalmanFilter:0.00 67.56 79.19
$GPRMC,015353.000,A,3520.2199,N,13937.9757,E,0.02,6.34,250916,,02,N,0.03,K,A*3D
CalmanFilter:0.00 67.21 84.63
$GPRMC,015354.000,A,3520.2199,N,13937.9757,E,0.01,6.34,250916,,,N,0.01,K,A*3C
CalmanFilter:0.00 67.00 84.79
$GPRMC,015355.000,A,3520.2199,N,13937.9757,E,0.01,6.34,250916,,,N,0.02,K,A*3F
CalmanFilter:0.00 68.51 82.83
$GPRMC,015356.000,A,3520.2199,N,13937.9757,E,0.02,6.34,250916,,,N,0.04,K,A*3A
CalmanFilter:0.00 73.90 12.45
$GPRMC,015357.000,A,3520.2199,N,13937.9757,E,0.03,6.34,250916,,,N,0.05,K,A*3A
CalmanFilter:0.00 75.96 -39.42
$GPRMC,015358.000,A,3520.2199,N,13937.9757,E,0.03,6.34,250916,,,N,0.06,K,A*39
CalmanFilter:0.00 72.89 -46.61
$GPRMC,015359.000,A,3520.2198,N,13937.9757,E,0.04,6.34,250916,,,0.07,K,A*3F
CalmanFilter:0.00 64.71 -51.96
$GPRMC,015400.000,A,3520.2198,N,13937.9757,E,0.04,6.34,250916,,,N,0.08,K,A*30
CalmanFilter:0.00 63.75 -43.37
$GPRMC,015732.000,A,3520.2205,N,13937.9788,E,0.02,45.4,45.48,T,16,,*5F
CalmanFilter:0.00 9.73 -0.23
$GPRMC,015743.000,A,3520.2207,N,13937.9787,E,0.03,45.4845.48,T,,*59
CalmanFilter:0.00 9.30 18.73
$GPRMC,015751.000,A,3520.2203,N,13937.9792,E,0.15,165.35,2.35,T5A
CalmanFilter:0.00 79.03 -80.56
$GPRMC,015755.000,A,3520.2199,N,13937.9788,E,0.67,212.38,2509T,*5E
CalmanFilter:0.00 66.37 -42.58
$GPRMC,015758.000,A,3520.2196,N,13937.9790,E,0.32,197.35,97.35,53
CalmanFilter:0.00 39.47 -29.80
$GPRMC,015759.000,A,3520.2195,N,13937.9789,E,0.28,197.3597.35,T
CalmanFilter:0.00 35.13 -39.44
$GPRMC,015800.000,A,3520.2194,N,13937.9788,E,0.10,197.35,2.35,T
CalmanFilter:0.00 28.58 -26.07
$GPRMC,015801.000,A,3520.2193,N,13937.9788,E,0.34,197.35197.35,
CalmanFilter:0.00 -3.14 2.59
$GPRMC,015802.000,A,3520.2193,N,13937.9788,E,0.32,197.35,97.35,,*53
CalmanFilter:0.00 -8.16 8.11
$GPRMC,015803.000,A,3520.2192,N,13937.9789,E,0.25,197.3597.35,T,*52
CalmanFilter:0.00 1.02 6.55
$GPRMC,015804.000,A,3520.2191,N,13937.9789,E,0.18,197.397.35,T,9,2016,,*55
CalmanFilter:0.00 28.52 -12.69
$GPRMC,015806.000,A,3520.2191,N,13937.9791,E,0.39,197.35,297.35,,*57
CalmanFilter:0.00 29.49 -11.38
$GPRMC,015807.000,A,3520.2192,N,13937.9792,E,0.19,197.35,,,,A*616,,*56
CalmanFilter:0.00 33.16 -13.74
$GPRMC,015808.000,A,3520.2193,N,13937.9792,E,0.16,197.35,2535,T9
CalmanFilter:0.00 56.99 -25.53
$GPRMC,015811.000,A,3520.2192,N,13937.9789,E,0.19,197.35,197.356,,*51
CalmanFilter:0.00 49.08 57.66
$GPRMC,015813.000,A,3520.2195,N,13937.9791,E,0.13,197.3597.35,T3
CalmanFilter:0.00 41.53 -16.77
$GPRMC,015815.000,A,3520.2195,N,13937.9790,E,0.15,197.3597.35,T5
CalmanFilter:0.00 28.39 -80.81
$GPRMC,015818.000,A,3520.2191,N,13937.9797,E,0.15,197.35197.35,
CalmanFilter:0.00 32.25 -69.36
$GPRMC,015819.000,A,3520.2190,N,13937.9801,E,0.16,197.35,97.35,9
CalmanFilter:0.00 25.20 -33.92
$GPRMC,015820.000,A,3520.2189,N,13937.9801,E,0.35,197.3,197.35,53
CalmanFilter:0.00 12.47 -7.59
$GPRMC,015826.000,A,3520.2184,N,13937.9802,E,0.10,197.35,,197.355
CalmanFilter:0.00 63.10 -25.35
$GPRMC,015902.000,A,3520.2176,N,13937.9796,E,0.11,197.35,25035,52
CalmanFilter:0.00 6.46 2.70
$GPRMC,015916.000,A,3520.2178,N,13937.9794,E,0.22,197.35,250915
CalmanFilter:0.00 64.40 -25.81
$GPRMC,015918.000,A,3520.2180,N,13937.9794,E,0.15,197.35,250935*59
CalmanFilter:0.00 62.05 35.79
$GPRMC,015921.000,A,3520.2180,N,13937.9792,E,0.32,197.35,257.35016,,*53
CalmanFilter:0.00 37.07 28.25
$GPRMC,015926.000,A,3520.2178,N,13937.9792,E,0.05,197.35197.35,54
CalmanFilter:0.00 1.72 -4.17
$GPRMC,015935.000,A,3520.2177,N,13937.9792,E,0.26,197TG,197.35,56
CalmanFilter:0.00 61.20 -28.01
$GPRMC,015936.000,A,3520.2178,N,13937.9792,E,0.43,197.35,197.35*55
CalmanFilter:0.00 56.23 -62.57
$GPRMC,015937.000,A,3520.2177,N,13937.9790,E,0.38,197.35197.35,54
CalmanFilter:0.00 54.08 -69.58
$GPRMC,015940.000,A,3520.2174,N,13937.9789,E,0.12,197.3,197.35,9,2016,,*54
CalmanFilter:0.00 53.96 -58.73
$GPRMC,015942.000,A,3520.2175,N,13937.9788,E,0.24,197.35,297.35
CalmanFilter:0.00 54.87 -55.77
$GPRMC,015944.000,A,3520.2176,N,13937.9789,E,0.37,197.35,21
CalmanFilter:0.00 56.53 -73.98
$GPRMC,015946.000,A,3520.2179,N,13937.9790,E,0.58,28.20,250928.
CalmanFilter:0.00 58.25 -87.28
$GPRMC,015949.000,A,3520.2182,N,13937.9789,E,0.21,28.2028.20,T,
CalmanFilter:0.00 35.88 23.10
$GPRMC,015951.000,A,3520.2183,N,13937.9789,E,0.27,28.20,A*5F
CalmanFilter:0.00 30.41 61.27
$GPRMC,015953.000,A,3520.2184,N,13937.9789,E,0.07,28.2028.20,T,
CalmanFilter:0.00 32.79 73.12
$GPRMC,015954.000,A,3520.2184,N,13937.9789,E,0.09,28.2028.20,T,1
CalmanFilter:0.00 38.83 23.96
$GPRMC,015957.000,A,3520.2186,N,13937.9789,E,0.46,28.20,220,T,,
CalmanFilter:0.00 57.34 -11.82
$GPRMC,020001.000,A,3520.2189,N,13937.9789,E,0.17,28G,28.20,T,,5E
CalmanFilter:0.00 25.48 21.20
$GPRMC,020032.000,A,3520.2200,N,13937.9792,E,0.01,28.20,250916,,A*05
CalmanFilter:0.00 7.76 1.15
$GPRMC,040953.000,A,3520.2203,N,13937.9862,E,0.23,198.62,250916,,,A*64
CalmanFilter:0.00 32.91 -85.06
$GPRMC,041014.000,A,3520.2217,N,13937.9899,E,2.37,58.77,250916,37,N,4.39,K,A*08
CalmanFilter:0.00 16.24 105.60
$GPRMC,041056.000,A,3520.2319,N,13938.0252,E,3.48,75.49,250916,8,N,6.44,K,A*0B
CalmanFilter:0.00 -40.78 23.51
$GPRMC,041057.000,A,3520.2324,N,13938.0262,E,2.51,74.83,250916,,N,4.64,K,A*05
CalmanFilter:0.00 -20.40 67.40
$GPRMC,041058.000,A,3520.2326,N,13938.0271,E,2.51,71.34,250916,,N,4.66,K,A*0E
CalmanFilter:0.00 -14.02 58.50
$GPRMC,041059.000,A,3520.2330,N,13938.0280,E,3.31,70.06,250916,31,N,6.13,K,A*09
CalmanFilter:0.00 11.26 -2.85
$GPRMC,041100.000,A,3520.2333,N,13938.0288,E,2.94,72.42,250916,94,N,5.44,K,A*04
CalmanFilter:0.00 31.42 24.09
$GPRMC,041101.000,A,3520.2335,N,13938.0296,E,2.77,66.65,250916,7,N,5.12,K,A*0A
CalmanFilter:0.00 64.06 24.05
$GPRMC,041102.000,A,3520.2338,N,13938.0305,E,3.38,61.87,250916,,N,6.26,K,A*0F
CalmanFilter:0.00 58.08 35.38
$GPRMC,041103.000,A,3520.2343,N,13938.0315,E,3.94,65.24,250916,N,7.30,K,A*02
CalmanFilter:0.00 64.14 30.89
$GPRMC,041104.000,A,3520.2346,N,13938.0326,E,3.30,66.49,250916,0,N,6.11,K,A*06
CalmanFilter:0.00 58.08 29.12
$GPRMC,041105.000,A,3520.2350,N,13938.0336,E,3.36,64.28,250916,,N,6.23,K,A*04
CalmanFilter:0.00 60.03 27.88
$GPRMC,041106.000,A,3520.2353,N,13938.0346,E,3.43,61.89,250916,3,N,6.35,K,A*0F
CalmanFilter:0.00 65.72 29.38
$GPRMC,041107.000,A,3520.2357,N,13938.0355,E,2.40,58.46,250916,40,N,4.46,K,A*02
CalmanFilter:0.00 28.78 19.82
$GPRMC,041108.000,A,3520.2360,N,13938.0363,E,3.11,62.56,250916,11,N,5.76,K,A*0D
CalmanFilter:0.00 12.02 20.08
$GPRMC,041113.000,A,3520.2383,N,13938.0414,E,2.97,57.31,250916,97,N,5.50,K,A*01
CalmanFilter:0.00 37.22 12.64
$GPRMC,041114.000,A,3520.2387,N,13938.0423,E,2.94,57.60,250916,94,N,5.45,K,A*02
CalmanFilter:0.00 19.50 9.27
$GPRMC,041119.000,A,3520.2416,N,13938.0492,E,3.00,58.03,250916,00,N,5.56,K,A*06
CalmanFilter:0.00 25.51 18.30
$GPRMC,041123.000,A,3520.2438,N,13938.0540,E,2.81,49.58,250916,81,N,5.20,K,A*01
CalmanFilter:0.00 31.32 20.27
$GPRMC,041124.000,A,3520.2442,N,13938.0545,E,2.40,50.63,250916,40,N,4.44,K,A*0F
CalmanFilter:0.00 28.52 24.22
$GPRMC,041125.000,A,3520.2446,N,13938.0553,E,2.95,51.92,250916,95,N,5.46,K,A*0B
CalmanFilter:0.00 24.88 18.18
$GPRMC,041130.000,A,3520.2460,N,13938.0593,E,2.79,61.36,250916,79,N,5.17,K,A*00
CalmanFilter:0.00 31.60 9.55
$GPRMC,041134.000,A,3520.2478,N,13938.0609,E,2.85,48.61,250916,85,N,5.28,K,A*06
CalmanFilter:0.00 36.51 10.25
$GPRMC,041138.000,A,3520.2493,N,13938.0634,E,2.99,54.26,250916,99,N,5.54,K,A*0E
CalmanFilter:0.00 23.41 17.78
$GPRMC,041139.000,A,3520.2496,N,13938.0639,E,2.95,53.98,250916,95,N,5.47,K,A*02
CalmanFilter:0.00 14.61 14.76
$GPRMC,041144.000,A,3520.2519,N,13938.0674,E,2.74,61.67,250916,74,N,5.07,K,A*08
CalmanFilter:0.00 73.65 -19.26
$GPRMC,041145.000,A,3520.2523,N,13938.0681,E,3.04,59.58,250916,04,N,5.64,K,A*0C
CalmanFilter:0.00 66.34 -14.18
$GPRMC,041146.000,A,3520.2527,N,13938.0689,E,2.59,58.14,250916,9,N,4.81,K,A*06
CalmanFilter:0.00 54.94 -19.33
$GPRMC,041147.000,A,3520.2530,N,13938.0695,E,2.66,62.53,250916,6,N,4.92,K,A*02
CalmanFilter:0.00 42.39 -13.82
$GPRMC,041150.000,A,3520.2546,N,13938.0726,E,3.94,60.83,250916,94,N,7.30,K,A*0A
CalmanFilter:0.00 30.05 -18.86
$GPRMC,041244.000,A,3520.2570,N,13938.0724,E,0.00,55.74,250916,,N,0.01,K,A*0F
CalmanFilter:0.00 0.83 -75.00
$GPRMC,041345.000,A,3520.2575,N,13938.0740,E,0.03,20.89,250916,N,0.06,K,A*0B
CalmanFilter:0.00 1.84 -69.31
$GPRMC,041346.000,A,3520.2576,N,13938.0740,E,0.75,20.89,250916,75,N,1.39,K,A*07
CalmanFilter:0.00 -23.84 -26.01
$GPRMC,041350.000,A,3520.2576,N,13938.0732,E,0.42,320.65,25091642,N,0.78,K,A*36
CalmanFilter:0.00 15.65 -101.62
$GPRMC,041359.000,A,3520.2581,N,13938.0727,E,0.27,320.65,25091627,N,0.49,K,A*37
CalmanFilter:0.00 34.45 -86.17
$GPRMC,041426.000,A,3520.2580,N,13938.0723,E,0.37,216.74,25091637,N,0.69,K,A*30
CalmanFilter:0.00 14.75 -82.50
$GPRMC,041429.000,A,3520.2580,N,13938.0726,E,0.07,216.74,25091607,N,0.12,K,A*3F
CalmanFilter:0.00 17.41 -82.42
$GPRMC,041519.000,A,3520.2579,N,13938.0721,E,0.16,,,A*61
CalmanFilter:0.00 15.03 -75.01
$GPRMC,043842.000,A,,59.04,250916,,,D*542.000,25,09,2016,,*54
CalmanFilter:0.00 63.28 170.12
$GPRMC,043909.000,A112.14,250916,,,D*6F0,25,09,2016,,*5A
CalmanFilter:0.00 84.10 -83.37
$GPRMC,043936.000,A,,117.75,250916,,,D*.000,25,09,2016,,*56
CalmanFilter:0.00 82.38 -66.92
$GPRMC,043941.000,A,9,89.86,250916,,,D*.000,25,09,2016,,*56
CalmanFilter:0.00 80.85 -61.90
$GPRMC,043948.000,A,140.33,250916,,,D*648.000,25,09,2016,,*5F
CalmanFilter:0.00 66.38 170.01
$GPRMC,043952.000,A,88.61,250916,,,D*5A00,25,09,2016,,*54
CalmanFilter:0.00 65.32 -154.49
$GPRMC,043957.000,A,,127.11,250916,,,D*00,25,09,2016,,*51
CalmanFilter:0.00 76.03 -155.64
$GPRMC,044005.000,A,,123.36,250916,,,D*00,25,09,2016,,*58
CalmanFilter:0.00 75.79 -165.27
$GPRMC,044011.000,A,3938.1621,E,1.36,10F
CalmanFilter:0.00 67.30 -105.51
$GPRMC,044145.000,A,3,299.62,250916,,,D000,25,09,2016,,*5D
CalmanFilter:0.00 65.85 80.35
$GPRMC,044150.000,A,3,312.43,250916,,,D.000,25,09,2016,,*59
CalmanFilter:0.00 62.88 98.92
$GPRMC,044156.000,A,3,301.07,250916,,,D6.000,25,09,2016,,*5F
CalmanFilter:0.00 58.95 88.28
$GPRMC,044158.000,A,9,304.06,250916,,,D8.000,25,09,2016,,*51
CalmanFilter:0.00 61.32 70.44
$GPRMC,044200.000,A,311,305.54,250916,,00.000,25,09,2016,,*5F
CalmanFilter:0.00 56.39 109.05
$GPRMC,044204.000,A,6,308.18,250916,,,D4.000,25,09,2016,,*5B
CalmanFilter:0.00 61.14 76.51
$GPRMC,044207.000,A,36,305.78,250916,,,07.000,25,09,2016,,*58
CalmanFilter:0.00 60.01 73.34
$GPRMC,044208.000,A,6,304.98,250916,,,D000,25,09,2016,,*57
CalmanFilter:0.00 60.63 70.99
$GPRMC,044212.000,A,13938.1416,E,1.85,2*33
CalmanFilter:0.00 61.67 81.79
$GPRMC,044215.000,A1,304.34,250916,,,D*9
CalmanFilter:0.00 56.86 79.35
$GPRMC,044218.000,A,3,302.62,250916,,,D000,25,09,2016,,*56
CalmanFilter:0.00 52.41 105.09
$GPRMC,044219.000,A,38,302.22,250916,,,.48,N,2.73,K,D*32
CalmanFilter:0.00 69.24 55.93
$GPRMC,044242.000,A,8,324.94,250916,,,D
CalmanFilter:0.00 60.79 89.70
$GPRMC,044244.000,A,3,339.18,250916,,,D000,25,09,2016,,*5F
CalmanFilter:0.00 56.73 91.96
$GPRMC,044245.000,A,09,E,1.03,339.86,25
CalmanFilter:0.00 55.81 95.52
$GPRMC,044248.000,A,3,345.20,250916,,,D8.000,25,09,2016,,*53
CalmanFilter:0.00 58.67 88.87
$GPRMC,044249.000,A,0,336.84,250916,,,D
CalmanFilter:0.00 57.77 83.05
$GPRMC,044528.000,A,3520.1889,N,13938.0830,E24.22,T,,M,2.21,N,4.09,K,D*31
CalmanFilter:0.00 69.16 47.18
$GPRMC,044650.000,A,3520.2256,N,13938.0615,.43,T,,M,0.49,N,0.90,K,D*3D
CalmanFilter:0.00 4.17 -126.64
$GPRMC,044651.000,A,3520.2257,N,13938.0614VTG,307.22,T,,M,0.79,N,1.47,K,D*30
CalmanFilter:0.00 4.21 -137.47
$GPRMC,044734.000,A,3520.2269,N,13938.0563,E,0.15,249.87,2509165,N,0.28,K,D*36
CalmanFilter:0.00 8.86 -109.66
$GPRMC,045554.000,A,3520.2263,N,1
CalmanFilter:0.00 8.97 -109.09
$GPRMC,045555.000,A,3520.2262,N,1
CalmanFilter:0.00 8.85 -109.05
$GPRMC,045556.000,A,3520.2262,N,0
CalmanFilter:0.00 8.91 -109.11
$GPRMC,045557.000,A,3520.2262,N,11
CalmanFilter:0.00 8.84 -109.13
$GPRMC,045558.000,A,3520.2262,N,1
CalmanFilter:0.00 8.83 -109.17
$GPRMC,045559.000,A,3520.2262,N,1F
CalmanFilter:0.00 8.83 -109.17
$GPRMC,045600.000,A,3520.2262,N,1F
CalmanFilter:0.00 8.86 -109.12
$GPRMC,045601.000,A,3520.2262,N,1E
CalmanFilter:0.00 9.00 -108.99
$GPRMC,045602.000,A,3520.2262,N,1
CalmanFilter:0.00 8.85 -109.09
$GPRMC,045603.000,A,3520.2261,N,10
CalmanFilter:0.00 8.84 -109.14
$GPRMC,045604.000,A,3520.2261,N,17
CalmanFilter:0.00 8.91 -109.12
$GPRMC,045605.000,A,3520.2261,N,16
CalmanFilter:0.00 8.96 -109.16
$GPRMC,045606.000,A,3520.2261,N,14
CalmanFilter:0.00 8.85 -109.06
$GPRMC,045607.000,A,3520.2261,N,15
CalmanFilter:0.00 8.86 -109.11
$GPRMC,045608.000,A,3520.2261,N,1A
CalmanFilter:0.00 8.93 -109.18
$GPRMC,045609.000,A,3520.2261,N,1
CalmanFilter:0.00 8.82 -109.13
$GPRMC,045610.000,A,3520.2261,N,133
CalmanFilter:0.00 8.80 -109.16
$GPRMC,045611.000,A,3520.2261,N,1
CalmanFilter:0.00 8.80 -109.05
$GPRMC,045612.000,A,3520.2261,N,1
CalmanFilter:0.00 8.91 -109.10
$GPRMC,045613.000,A,3520.2261,N,1
CalmanFilter:0.00 9.03 -109.08
$GPRMC,045614.000,A,3520.2261,N,1
CalmanFilter:0.00 8.89 -109.13
$GPRMC,045615.000,A,3520.2261,N,1
CalmanFilter:0.00 8.81 -109.09
$GPRMC,045616.000,A,3520.2261,N,5
CalmanFilter:0.00 8.88 -109.10
$GPRMC,045617.000,A,3520.2261,N,64
CalmanFilter:0.00 8.98 -109.03
$GPRMC,045618.000,A,3520.2261,N,18
CalmanFilter:0.00 8.88 -109.09
$GPRMC,045619.000,A,3520.2261,N,1
CalmanFilter:0.00 8.94 -109.12
$GPRMC,045620.000,A,3520.2261,N,1
CalmanFilter:0.00 8.76 -109.17
$GPRMC,045621.000,A,3520.2261,N,1
CalmanFilter:0.00 8.86 -109.18
$GPRMC,045622.000,A,3520.2261,N,1
CalmanFilter:0.00 8.96 -109.16
$GPRMC,045623.000,A,3520.2261,N,11
CalmanFilter:0.00 9.06 -109.08
$GPRMC,045624.000,A,3520.2261,N,7
CalmanFilter:0.00 8.91 -109.06
$GPRMC,045625.000,A,3520.2261,N,15
CalmanFilter:0.00 8.85 -109.08
$GPRMC,045626.000,A,3520.2261,N,1
CalmanFilter:0.00 8.83 -109.07
$GPRMC,045627.000,A,3520.2261,N,16
CalmanFilter:0.00 8.76 -109.17
$GPRMC,045628.000,A,3520.2261,N,168
CalmanFilter:0.00 8.88 -109.22
$GPRMC,045629.000,A,3520.2261,N,18
CalmanFilter:0.00 8.98 -109.08
$GPRMC,045630.000,A,3520.2261,N,163
CalmanFilter:0.00 9.04 -109.06
$GPRMC,045631.000,A,3520.2261,N,1
CalmanFilter:0.00 9.00 -109.06
$GPRMC,045632.000,A,3520.2261,N,2
CalmanFilter:0.00 8.94 -109.08
$GPRMC,045633.000,A,3520.2261,N,1
CalmanFilter:0.00 8.88 -109.13
$GPRMC,045634.000,A,3520.2261,N,15
CalmanFilter:0.00 8.79 -109.15
$GPRMC,045635.000,A,3520.2261,N,1
CalmanFilter:0.00 8.76 -109.15
$GPRMC,045636.000,A,3520.2261,N,14
CalmanFilter:0.00 8.78 -109.23
$GPRMC,045637.000,A,3520.2261,N,1
CalmanFilter:0.00 8.77 -109.08
$GPRMC,045638.000,A,3520.2261,N,18
CalmanFilter:0.00 8.87 -108.99
$GPRMC,045639.000,A,3520.2261,N,1
CalmanFilter:0.00 8.86 -109.09
$GPRMC,045640.000,A,3520.2261,N,1
CalmanFilter:0.00 8.88 -109.13
$GPRMC,045641.000,A,3520.2261,N,166
CalmanFilter:0.00 8.86 -109.15
$GPRMC,045642.000,A,3520.2261,N,17
CalmanFilter:0.00 8.82 -109.06
$GPRMC,045643.000,A,3520.2261,N,15
CalmanFilter:0.00 8.84 -109.12
$GPRMC,045644.000,A,3520.2261,N,11
CalmanFilter:0.00 8.82 -109.13
$GPRMC,045645.000,A,3520.2261,N,1
CalmanFilter:0.00 8.84 -109.11
$GPRMC,045646.000,A,3520.2261,N,1
CalmanFilter:0.00 8.88 -109.18
$GPRMC,045647.000,A,3520.2261,N,12
CalmanFilter:0.00 8.89 -109.12
$GPRMC,045648.000,A,3520.2261,N,6D
CalmanFilter:0.00 8.95 -109.10
$GPRMC,045649.000,A,3520.2261,N,1
CalmanFilter:0.00 8.82 -109.13
$GPRMC,045650.000,A,3520.2261,N,1
CalmanFilter:0.00 8.80 -109.10
$GPRMC,045651.000,A,3520.2261,N,1
CalmanFilter:0.00 8.85 -109.06
$GPRMC,045652.000,A,3520.2261,N,14
CalmanFilter:0.00 8.87 -109.12
$GPRMC,045653.000,A,3520.2261,N,14
CalmanFilter:0.00 8.71 -109.06
$GPRMC,045654.000,A,3520.2261,N,1
CalmanFilter:0.00 8.76 -109.12
$GPRMC,045655.000,A,3520.2261,N,1
CalmanFilter:0.00 8.85 -109.07
$GPRMC,045656.000,A,3520.2261,N,1
CalmanFilter:0.00 8.97 -109.09
$GPRMC,045657.000,A,3520.2261,N,1
CalmanFilter:0.00 8.89 -109.10
$GPRMC,045658.000,A,3520.2261,N,1F
CalmanFilter:0.00 8.81 -109.10
$GPRMC,045659.000,A,3520.2261,N,1
CalmanFilter:0.00 8.78 -109.10
$GPRMC,045700.000,A,3520.2261,N,1
CalmanFilter:0.00 8.80 -109.16
$GPRMC,045701.000,A,3520.2261,N,1
CalmanFilter:0.00 8.83 -109.10
$GPRMC,045702.000,A,3520.2261,N,10
CalmanFilter:0.00 8.80 -109.18
$GPRMC,045703.000,A,3520.2261,N,1
CalmanFilter:0.00 8.93 -109.05
$GPRMC,045704.000,A,3520.2261,N,1
CalmanFilter:0.00 8.90 -109.16
$GPRMC,045705.000,A,3520.2261,N,1
CalmanFilter:0.00 8.84 -109.11
$GPRMC,045706.000,A,3520.2261,N,1*65
CalmanFilter:0.00 9.01 -109.11
$GPRMC,045707.000,A,3520.2261,N,
CalmanFilter:0.00 8.96 -109.11
$GPRMC,045708.000,A,3520.2261,N,16B
CalmanFilter:0.00 8.84 -109.07
$GPRMC,045709.000,A,3520.2261,N,1B
CalmanFilter:0.00 8.84 -109.02
$GPRMC,045710.000,A,3520.2261,N,1
CalmanFilter:0.00 8.80 -109.21
$GPRMC,045711.000,A,3520.2261,N,1
CalmanFilter:0.00 8.98 -109.17
$GPRMC,045712.000,A,3520.2261,N,160
CalmanFilter:0.00 8.94 -109.12
$GPRMC,045713.000,A,3520.2261,N,12
CalmanFilter:0.00 8.94 -109.15
$GPRMC,045714.000,A,3520.2261,N,5
CalmanFilter:0.00 9.01 -109.08
$GPRMC,045715.000,A,3520.2261,N,14
CalmanFilter:0.00 8.86 -109.11
$GPRMC,045716.000,A,3520.2261,N,1
CalmanFilter:0.00 8.86 -109.07
$GPRMC,045717.000,A,3520.2261,N,1
CalmanFilter:0.00 8.72 -109.12
$GPRMC,045718.000,A,3520.2261,N,1B
CalmanFilter:0.00 8.82 -109.09
$GPRMC,045719.000,A,3520.2261,N,1
CalmanFilter:0.00 8.91 -109.09
$GPRMC,045720.000,A,3520.2261,N,10
CalmanFilter:0.00 8.83 -109.09
$GPRMC,045721.000,A,3520.2261,N,1
CalmanFilter:0.00 8.97 -109.07
$GPRMC,045722.000,A,3520.2261,N,2
CalmanFilter:0.00 8.93 -109.14
$GPRMC,045723.000,A,3520.2261,N,13
CalmanFilter:0.00 8.85 -109.15
$GPRMC,045724.000,A,3520.2261,N66
CalmanFilter:0.00 8.87 -109.16
$GPRMC,045725.000,A,3520.2261,N64
CalmanFilter:0.00 8.78 -109.09
$GPRMC,045726.000,A,3520.2261,D*67
CalmanFilter:0.00 8.80 -109.03
$GPRMC,045727.000,A,3520.2261,D*66
CalmanFilter:0.00 8.76 -109.04
$GPRMC,045728.000,A,3520.2261,N68
CalmanFilter:0.00 8.83 -109.13
$GPRMC,045729.000,A,3520.2261,,,D*68
CalmanFilter:0.00 8.89 -109.12
$GPRMC,045730.000,A,3520.2261,N*62
CalmanFilter:0.00 8.92 -109.14
$GPRMC,045731.000,A,3520.2261*61
CalmanFilter:0.00 8.82 -109.11
$GPRMC,045732.000,A,3520.2261,*62
CalmanFilter:0.00 8.88 -109.16
$GPRMC,045733.000,A,3520.2261,N60
CalmanFilter:0.00 8.96 -109.15
$GPRMC,045734.000,A,3520.2261,N*67
CalmanFilter:0.00 8.79 -109.12
$GPRMC,045735.000,A,3520.2261,N65
CalmanFilter:0.00 8.93 -109.13
$GPRMC,045736.000,A,3520.2261,N65
CalmanFilter:0.00 8.87 -109.14
$GPRMC,045737.000,A,3520.2261,N64
CalmanFilter:0.00 8.89 -109.10
$GPRMC,045738.000,A,3520.2261,*6B
CalmanFilter:0.00 8.75 -109.17
$GPRMC,045739.000,A,3520.2261D*6A
CalmanFilter:0.00 9.03 -109.12
$GPRMC,045740.000,A,3520.2261,N67
CalmanFilter:0.00 8.95 -109.18
$GPRMC,045741.000,A,3520.2261,*65
CalmanFilter:0.00 8.86 -109.17
$GPRMC,045742.000,A,3520.2261,N66
CalmanFilter:0.00 8.93 -109.05
$GPRMC,045743.000,A,3520.2261,N*67
CalmanFilter:0.00 8.84 -109.11
$GPRMC,045744.000,A,3520.2261,N61
CalmanFilter:0.00 8.78 -109.10
$GPRMC,045745.000,A,3520.2261,N*62
CalmanFilter:0.00 8.77 -109.10
$GPRMC,045746.000,A,3520.2261,N*61
CalmanFilter:0.00 8.85 -109.13
$GPRMC,045747.000,A,3520.2261,N,60
CalmanFilter:0.00 8.97 -109.13
$GPRMC,045748.000,A,3520.2261,N,1
CalmanFilter:0.00 8.84 -109.08
$GPRMC,045749.000,A,3520.2261,N,1D
CalmanFilter:0.00 8.80 -109.02
$GPRMC,045750.000,A,3520.2261,N,15
CalmanFilter:0.00 8.75 -109.10
$GPRMC,045751.000,A,3520.2261,N,5
CalmanFilter:0.00 8.81 -109.10
$GPRMC,045752.000,A,3520.2261,N,1
CalmanFilter:0.00 8.84 -109.10
$GPRMC,045753.000,A,3520.2261,N,1
CalmanFilter:0.00 8.89 -109.16
$GPRMC,045754.000,A,3520.2261,N,1
CalmanFilter:0.00 8.84 -109.10
$GPRMC,045755.000,A,3520.2261,N,1
CalmanFilter:0.00 8.84 -109.11
$GPRMC,045756.000,A,3520.2261,N,62
CalmanFilter:0.00 8.84 -109.14
$GPRMC,045757.000,A,3520.2261,N,162
CalmanFilter:0.00 8.90 -109.14
$GPRMC,045758.000,A,3520.2261,N,1D
CalmanFilter:0.00 8.87 -109.15
$GPRMC,045759.000,A,3520.2261,N,1
CalmanFilter:0.00 8.87 -109.16
$GPRMC,045800.000,A,3520.2261,N,1
CalmanFilter:0.00 8.93 -109.09
$GPRMC,045801.000,A,3520.2261,N,1E
CalmanFilter:0.00 8.88 -109.05
$GPRMC,045802.000,A,3520.2261,N,1
CalmanFilter:0.00 8.81 -109.13
$GPRMC,045803.000,A,3520.2261,N,1
CalmanFilter:0.00 8.91 -109.12
$GPRMC,045804.000,A,3520.2261,N,1A
CalmanFilter:0.00 8.87 -109.15
$GPRMC,045805.000,A,3520.2261,N,1
CalmanFilter:0.00 9.05 -109.02
$GPRMC,045806.000,A,3520.2261,N,1
CalmanFilter:0.00 8.91 -109.08
$GPRMC,045807.000,A,3520.2261,N,1
CalmanFilter:0.00 8.89 -109.12
$GPRMC,045808.000,A,3520.2261,N,17
CalmanFilter:0.00 8.95 -109.10
$GPRMC,045809.000,A,3520.2261,N,1
CalmanFilter:0.00 8.86 -109.09
$GPRMC,045810.000,A,3520.2261,N,*6F
CalmanFilter:0.00 8.89 -109.18
$GPRMC,045811.000,A,3520.2261,N6C
CalmanFilter:0.00 8.85 -109.17
$GPRMC,045812.000,A,3520.2261,N6D
CalmanFilter:0.00 8.94 -109.14
$GPRMC,045813.000,A,3520.2261,N7,250916,,,D*6D
CalmanFilter:0.00 8.88 -109.13
$GPRMC,045814.000,A,3520.2261,N,49.87,250916,,,D*6B
CalmanFilter:0.00 8.92 -109.23
$GPRMC,045815.000,A,3520.2261,N*6B
CalmanFilter:0.00 8.97 -109.14
$GPRMC,045816.000,A,3520.2261,N6,,,D*69
CalmanFilter:0.00 8.95 -109.15
$GPRMC,045817.000,A,3520.2261,ND*69
CalmanFilter:0.00 8.89 -109.04
$GPRMC,045818.000,A,3520.2261,D*66
CalmanFilter:0.00 8.84 -109.08
$GPRMC,045819.000,A,3520.2261,N6,,,D*67
CalmanFilter:0.00 8.86 -109.15
$GPRMC,045820.000,A,3520.2261,N*6C
CalmanFilter:0.00 8.76 -109.16
$GPRMC,045821.000,A,3520.2261,N*6C
CalmanFilter:0.00 8.82 -109.21
$GPRMC,045822.000,A,3520.2261,N6F
CalmanFilter:0.00 8.83 -109.06
$GPRMC,045823.000,A,3520.2261,N*6E
CalmanFilter:0.00 8.86 -109.10
$GPRMC,045824.000,A,3520.2261,N69
CalmanFilter:0.00 8.89 -109.16
$GPRMC,045825.000,A,3520.2261,N7,250916,,,D*69
CalmanFilter:0.00 8.89 -109.22
$GPRMC,045826.000,A,3520.2261,N*6B
CalmanFilter:0.00 8.86 -109.21
$GPRMC,045827.000,A,3520.2261,N*6A
CalmanFilter:0.00 8.85 -109.14
$GPRMC,045828.000,A,3520.2261,N65
CalmanFilter:0.00 8.96 -109.14
$GPRMC,045829.000,A,3520.2261,N64
CalmanFilter:0.00 9.03 -109.14
$GPRMC,045830.000,A,3520.2261,N,6C
CalmanFilter:0.00 8.81 -109.12
$GPRMC,045831.000,A,3520.2261,N6D
CalmanFilter:0.00 8.85 -109.14
$GPRMC,045832.000,A,3520.2261,N6F
CalmanFilter:0.00 8.87 -109.12
$GPRMC,045833.000,A,3520.2261,N6F
CalmanFilter:0.00 8.85 -109.03
$GPRMC,045834.000,A,3520.2261,N*68
CalmanFilter:0.00 8.95 -109.06
$GPRMC,045835.000,A,3520.2261,N*69
CalmanFilter:0.00 8.93 -109.12
$GPRMC,045836.000,A,3520.2261,N6A
CalmanFilter:0.00 8.89 -109.18
$GPRMC,045837.000,A,3520.2261,N6B
CalmanFilter:0.00 8.77 -109.25
$GPRMC,045838.000,A,3520.2261,N65
CalmanFilter:0.00 8.87 -109.16
$GPRMC,045839.000,A,3520.2261,N*65
CalmanFilter:0.00 8.91 -109.12
$GPRMC,045840.000,A,3520.2261,N6B
CalmanFilter:0.00 8.96 -109.13
$GPRMC,045841.000,A,3520.2261,250916,,,D*6A
CalmanFilter:0.00 8.92 -109.14
$GPRMC,045842.000,A,3520.2261,N,*69
CalmanFilter:0.00 8.93 -109.10
$GPRMC,045843.000,A,3520.2261,*69
CalmanFilter:0.00 8.90 -109.10
$GPRMC,045844.000,A,3520.2261,*6F
CalmanFilter:0.00 8.96 -109.16
$GPRMC,045845.000,A,3520.2261,N6,,,D*6E
CalmanFilter:0.00 8.95 -109.14
$GPRMC,045846.000,A,3520.2261,916,,,D*6D
CalmanFilter:0.00 8.97 -109.15
$GPRMC,045847.000,A,3520.2261,N916,,,D*6C
CalmanFilter:0.00 8.84 -109.17
$GPRMC,045848.000,A,3520.2261,N,1
CalmanFilter:0.00 8.85 -109.14
$GPRMC,045849.000,A,3520.2261,N,1
CalmanFilter:0.00 9.10 -109.14
$GPRMC,045850.000,A,3520.2261,N,1B
CalmanFilter:0.00 9.03 -109.12
$GPRMC,045851.000,A,3520.2261,N,1B
CalmanFilter:0.00 8.80 -109.19
$GPRMC,045852.000,A,3520.2261,N,18
CalmanFilter:0.00 8.81 -109.15
$GPRMC,045853.000,A,3520.2261,N,1
CalmanFilter:0.00 8.92 -109.16
$GPRMC,045854.000,A,3520.2261,N,1E
CalmanFilter:0.00 8.92 -109.06
$GPRMC,045855.000,A,3520.2261,N,1
CalmanFilter:0.00 8.92 -109.15
$GPRMC,045856.000,A,3520.2261,NC
CalmanFilter:0.00 8.97 -109.17
$GPRMC,045857.000,A,3520.2261,N,1
CalmanFilter:0.00 8.85 -109.13
$GPRMC,045858.000,A,3520.2261,N,1
CalmanFilter:0.00 8.78 -109.14
$GPRMC,045859.000,A,3520.2261,N,13
CalmanFilter:0.00 8.89 -109.15
$GPRMC,045900.000,A,3520.2261,NE
CalmanFilter:0.00 9.06 -109.13
$GPRMC,045901.000,A,3520.2261,N,1
CalmanFilter:0.00 8.95 -109.14
$GPRMC,045902.000,A,3520.2261,N,1
CalmanFilter:0.00 8.89 -109.15
$GPRMC,045903.000,A,3520.2261,N,
CalmanFilter:0.00 8.81 -109.14
$GPRMC,045904.000,A,3520.2261,N,A
CalmanFilter:0.00 8.73 -109.16
$GPRMC,045905.000,A,3520.2261,N,1B
CalmanFilter:0.00 8.78 -109.23
$GPRMC,045906.000,A,3520.2261,N,1
CalmanFilter:0.00 8.92 -109.14
$GPRMC,045907.000,A,3520.2261,N,1
CalmanFilter:0.00 8.81 -109.07
$GPRMC,045908.000,A,3520.2261,N,
CalmanFilter:0.00 8.79 -109.20
$GPRMC,045909.000,A,3520.2261,N,1
CalmanFilter:0.00 8.76 -109.13
$GPRMC,045910.000,A,3520.2261,N,16F
CalmanFilter:0.00 8.87 -109.11
$GPRMC,045911.000,A,3520.2261,N,1
CalmanFilter:0.00 8.96 -109.12
$GPRMC,045912.000,A,3520.2261,N,16D
CalmanFilter:0.00 8.91 -109.13
$GPRMC,045913.000,A,3520.2261,N,1
CalmanFilter:0.00 8.82 -109.19
$GPRMC,045914.000,A,3520.2261,N,1A
CalmanFilter:0.00 8.95 -109.16
$GPRMC,045915.000,A,3520.2261,N,,D*6A
CalmanFilter:0.00 8.87 -109.11
$GPRMC,045916.000,A,3520.2261,16,,,D*69
CalmanFilter:0.00 8.74 -109.16
$GPRMC,045917.000,A,3520.2261,N250916,,,D*69
CalmanFilter:0.00 8.81 -109.14
$GPRMC,045918.000,A,3520.2261,N,6
CalmanFilter:0.00 8.94 -109.12
$GPRMC,045919.000,A,3520.2261,N,250916,,,D*66
CalmanFilter:0.00 8.93 -109.10
$GPRMC,045920.000,A,3520.2261,*6D
CalmanFilter:0.00 8.90 -109.11
$GPRMC,045921.000,A,3520.2261,N*6D
CalmanFilter:0.00 8.74 -109.18
$GPRMC,045922.000,A,3520.2261,N*6E
CalmanFilter:0.00 8.67 -109.14
$GPRMC,045923.000,A,3520.2261,N6F
CalmanFilter:0.00 8.93 -109.27
$GPRMC,045924.000,A,3520.2261,N*69
CalmanFilter:0.00 8.99 -109.15
$GPRMC,045925.000,A,3520.2261,N6,,,D*68
CalmanFilter:0.00 8.92 -109.12
$GPRMC,045926.000,A,3520.2261,N6B
CalmanFilter:0.00 8.86 -109.22
$GPRMC,045927.000,A,3520.2261,N*6B
CalmanFilter:0.00 8.82 -109.13
$GPRMC,045928.000,A,3520.2261,N*64
CalmanFilter:0.00 8.68 -109.27
$GPRMC,045929.000,A,3520.2261,ND*65
CalmanFilter:0.00 8.88 -109.20
$GPRMC,045930.000,A,3520.2261,N49.87,250916,,,D*6D
CalmanFilter:0.00 8.90 -109.14
$GPRMC,045931.000,A,3520.2261,N6D
CalmanFilter:0.00 8.96 -109.11
$GPRMC,045932.000,A,3520.2261,N6F
CalmanFilter:0.00 8.85 -109.17
$GPRMC,045933.000,A,3520.2261,*6C
CalmanFilter:0.00 8.86 -109.14
$GPRMC,045934.000,A,3520.2261,N6B
CalmanFilter:0.00 8.87 -109.20
$GPRMC,045935.000,A,3520.2261,ND*6B
CalmanFilter:0.00 9.00 -109.12
$GPRMC,045936.000,A,3520.2261,*68
CalmanFilter:0.00 8.89 -109.09
$GPRMC,045937.000,A,3520.2261,N50916,,,D*69
CalmanFilter:0.00 8.84 -109.12
$GPRMC,045938.000,A,3520.2261,ND*66
CalmanFilter:0.00 8.86 -109.18
$GPRMC,045939.000,A,3520.2261,N16,,,D*67
CalmanFilter:0.00 8.91 -109.16
$GPRMC,045940.000,A,3520.2,250916,,,D*69
CalmanFilter:0.00 8.85 -109.15
$GPRMC,045941.000,A,3520.2261,N916,,,D*6B
CalmanFilter:0.00 8.77 -109.15
$GPRMC,045942.000,A,3520.2261,N*6B
CalmanFilter:0.00 8.89 -109.15
$GPRMC,045943.000,A,3520.2261,N6A
CalmanFilter:0.00 8.98 -109.23
$GPRMC,045944.000,A,3520.2261,*6D
CalmanFilter:0.00 8.92 -109.20
$GPRMC,045945.000,A,3520.2261,N*6C
CalmanFilter:0.00 8.84 -109.12
$GPRMC,045946.000,A,3520.2261,N6,,,D*6C
CalmanFilter:0.00 8.78 -109.09
$GPRMC,045947.000,A,3520.2261,N6E
CalmanFilter:0.00 8.86 -109.14
$GPRMC,045948.000,A,3520.2261,*61
CalmanFilter:0.00 9.01 -109.08
$GPRMC,045949.000,A,3520.2262,*62
CalmanFilter:0.00 8.90 -109.33
$GPRMC,045950.000,A,3520.2262,N6A
CalmanFilter:0.00 8.89 -109.25
$GPRMC,045951.000,A,3520.2264,N916,,,D*60
CalmanFilter:0.00 8.81 -109.15
$GPRMC,045952.000,A,3520.2264,N*64
CalmanFilter:0.00 8.84 -109.07
$GPRMC,045953.000,A,3520.2264,N62
CalmanFilter:0.00 8.87 -109.07
$GPRMC,045954.000,A,3520.2264,N62
CalmanFilter:0.00 8.92 -109.22
$GPRMC,045955.000,A,3520.2264,N*64
CalmanFilter:0.00 8.87 -109.22
$GPRMC,045956.000,A,3520.2264,N67
CalmanFilter:0.00 8.86 -109.27
$GPRMC,045957.000,A,3520.2264,N67
CalmanFilter:0.00 8.86 -109.16
$GPRMC,045958.000,A,3520.2264,N6A
CalmanFilter:0.00 8.86 -109.16
$GPRMC,045959.000,A,3520.2264,N6A
CalmanFilter:0.00 8.98 -109.13
$GPRMC,050000.000,A,3520.2264,ND*6B
CalmanFilter:0.00 8.75 -109.13
$GPRMC,050001.000,A,3520.2264,N*6B
CalmanFilter:0.00 8.80 -109.12
$GPRMC,050002.000,A,3520.2264,N68
CalmanFilter:0.00 8.72 -109.14
$GPRMC,050003.000,A,3520.2264,N*68
CalmanFilter:0.00 8.88 -109.09
$GPRMC,050004.000,A,3520.2264,D*6F
CalmanFilter:0.00 8.94 -109.09
$GPRMC,050005.000,A,3520.2264,N6D
CalmanFilter:0.00 8.84 -109.10
$GPRMC,050006.000,A,3520.2264,N*6D
CalmanFilter:0.00 8.89 -109.11
$GPRMC,050007.000,A,3520.2264,N6C
CalmanFilter:0.00 8.85 -109.14
$GPRMC,050008.000,A,3520.2264,N*63
CalmanFilter:0.00 8.75 -109.19
$GPRMC,050009.000,A,3520.2264,N*62
CalmanFilter:0.00 8.81 -109.18
$GPRMC,050010.000,A,3520.2264,N6A
CalmanFilter:0.00 8.87 -109.12
$GPRMC,050011.000,A,3520.2264,N6A
CalmanFilter:0.00 8.91 -109.14
$GPRMC,050012.000,A,3520.2264,N,69
CalmanFilter:0.00 8.96 -109.13
$GPRMC,050013.000,A,3520.2265,*6B
CalmanFilter:0.00 8.89 -109.17
$GPRMC,050014.000,A,3520.2265,N*6F
CalmanFilter:0.00 8.78 -109.19
$GPRMC,050015.000,A,3520.2265,ND*6E
CalmanFilter:0.00 8.81 -109.06
$GPRMC,050016.000,A,3520.2265,N*6C
CalmanFilter:0.00 8.91 -109.11
$GPRMC,050017.000,A,3520.2265,N6C
CalmanFilter:0.00 8.92 -109.19
$GPRMC,050018.000,A,3520.2265,N,D*60
CalmanFilter:0.00 8.97 -109.17
$GPRMC,050019.000,A,3520.2265,N916,,,D*63
CalmanFilter:0.00 8.96 -109.17
$GPRMC,050020.000,A,3520.2265,N,*68
CalmanFilter:0.00 8.89 -109.22
$GPRMC,050021.000,A,3520.2265,N0916,,,D*69
CalmanFilter:0.00 8.90 -109.16
$GPRMC,050022.000,A,3520.250916,,,D*6A
CalmanFilter:0.00 8.75 -109.25
$GPRMC,050023.000,A,3520.2265,N6A
CalmanFilter:0.00 8.83 -109.16
$GPRMC,050024.000,A,3520.2265,N0916,,,D*6C
CalmanFilter:0.00 8.78 -109.13
$GPRMC,050025.000,A,3520.2265,N250916,,,D*6C
CalmanFilter:0.00 8.90 -109.13
$GPRMC,050026.000,A,3520.2265*6E
CalmanFilter:0.00 8.91 -109.10
$GPRMC,050027.000,A,3520.2265,N6E
CalmanFilter:0.00 8.71 -109.18
$GPRMC,050028.000,A,3520.2265,N61
CalmanFilter:0.00 8.82 -109.12
$GPRMC,050029.000,A,3520.2265,N60
CalmanFilter:0.00 8.82 -109.15
$GPRMC,050030.000,A,3520.2265,N*69
CalmanFilter:0.00 8.87 -109.05
$GPRMC,050031.000,A,3520.2265,N50916,,,D*69
CalmanFilter:0.00 8.91 -109.10
$GPRMC,050032.000,A,3520.2265,N250916,,,D*6A
CalmanFilter:0.00 8.86 -109.20
$GPRMC,050033.000,A,3520.2265,N69
CalmanFilter:0.00 8.81 -109.18
$GPRMC,050034.000,A,3520.2265,N*6F
CalmanFilter:0.00 8.85 -109.13
$GPRMC,050035.000,A,3520.2265,N249.87,250916,,,D*6C
CalmanFilter:0.00 8.92 -109.13
$GPRMC,050036.000,A,3520.2265,N,D*6F
CalmanFilter:0.00 8.92 -109.18
$GPRMC,050037.000,A,3520.2265,N6E
CalmanFilter:0.00 8.86 -109.24
$GPRMC,050038.000,A,3520.2265,N*61
CalmanFilter:0.00 8.74 -109.14
$GPRMC,050039.000,A,3520.2265,N6,,,D*61
CalmanFilter:0.00 8.84 -109.06
$GPRMC,050040.000,A,3520.2265,N6F
CalmanFilter:0.00 8.84 -109.13
$GPRMC,050041.000,A,3520.2265,N16,,,D*6F
CalmanFilter:0.00 8.96 -109.10
$GPRMC,050042.000,A,3520.2265,N6D
CalmanFilter:0.00 9.01 -109.12
$GPRMC,050043.000,A,3520.2265,N,16D
CalmanFilter:0.00 8.96 -109.11
$GPRMC,050044.000,A,3520.2265,N,1A
CalmanFilter:0.00 8.94 -109.10
$GPRMC,050045.000,A,3520.2265,N,6A
CalmanFilter:0.00 9.00 -109.09
$GPRMC,050046.000,A,3520.2265,N,1
CalmanFilter:0.00 8.86 -109.19
$GPRMC,050047.000,A,3520.2265,N,19
CalmanFilter:0.00 8.75 -109.15
$GPRMC,050048.000,A,3520.2265,N,1
CalmanFilter:0.00 8.76 -109.18
$GPRMC,050049.000,A,3520.2265,N,1
CalmanFilter:0.00 8.92 -109.12
$GPRMC,050050.000,A,3520.2265,N,1
CalmanFilter:0.00 8.87 -109.16
$GPRMC,050051.000,A,3520.2265,N,1
CalmanFilter:0.00 8.98 -109.05
$GPRMC,050052.000,A,3520.2265,N,14
CalmanFilter:0.00 8.93 -109.05
$GPRMC,050053.000,A,3520.2265,N,1
CalmanFilter:0.00 8.81 -109.05
$GPRMC,050054.000,A,3520.2265,N,1
CalmanFilter:0.00 8.83 -109.07
$GPRMC,050055.000,A,3520.2265,N,163
CalmanFilter:0.00 8.82 -109.17
$GPRMC,050056.000,A,3520.2265,N,1
CalmanFilter:0.00 8.96 -109.17
$GPRMC,050057.000,A,3520.2265,N,1
CalmanFilter:0.00 8.91 -109.15
$GPRMC,050058.000,A,3520.2265,N,E
CalmanFilter:0.00 8.79 -109.08
$GPRMC,050059.000,A,3520.2265,N,1
CalmanFilter:0.00 8.95 -109.17
$GPRMC,050108.000,A,3520.2265,0916,,,D*6A
CalmanFilter:0.00 8.65 -109.12
$GPRMC,050119.000,A,3520.2265,*6F
CalmanFilter:0.00 8.79 -109.18
$GPRMC,050128.000,A,3520.2265,N*6B
CalmanFilter:0.00 8.75 -109.15
$GPRMC,050131.000,A,3520.2265,N*62
CalmanFilter:0.00 8.79 -109.02
$GPRMC,050132.000,A,3520.2265,N63
CalmanFilter:0.00 8.82 -109.06
$GPRMC,050134.000,A,3520.2265,N6,,,D*65
CalmanFilter:0.00 8.88 -109.15
$GPRMC,050135.000,A,3520.2265,ND*67
CalmanFilter:0.00 8.77 -109.18
$GPRMC,050137.000,A,3520.2265,N*65
CalmanFilter:0.00 8.92 -109.24
$GPRMC,050138.000,A,3520.2265,N69
CalmanFilter:0.00 8.94 -109.11
$GPRMC,050139.000,A,3520.2265,*68
CalmanFilter:0.00 9.01 -109.03
$GPRMC,050141.000,A,3520.2265,N*67
CalmanFilter:0.00 8.75 -109.15
$GPRMC,050142.000,A,3520.2264,N*6D
CalmanFilter:0.00 8.89 -109.10
$GPRMC,050146.000,A,3520.2264,N69
CalmanFilter:0.00 8.97 -109.12
$GPRMC,050147.000,A,3520.2264,N6B
CalmanFilter:0.00 8.92 -109.14
$GPRMC,050148.000,A,3520.2264,N65
CalmanFilter:0.00 8.82 -109.17
$GPRMC,050149.000,A,3520.2264,N6,,,D*65
CalmanFilter:0.00 8.95 -109.16
$GPRMC,050150.000,A,3520.2264,N6D
CalmanFilter:0.00 8.89 -109.24
$GPRMC,050151.000,A,3520.2264,N6,,,D*6C
CalmanFilter:0.00 8.83 -109.17
$GPRMC,050152.000,A,3520.2264,N*6C
CalmanFilter:0.00 8.99 -109.12
$GPRMC,050153.000,A,3520.2264,6D
CalmanFilter:0.00 8.97 -109.15
$GPRMC,050154.000,A,3520.2264,6,,,D*6A
CalmanFilter:0.00 9.10 -109.04
$GPRMC,050155.000,A,3520.2264D*6B
CalmanFilter:0.00 8.96 -109.09
$GPRMC,050156.000,A,3520.2264,N*6B
CalmanFilter:0.00 8.86 -109.23
$GPRMC,050157.000,A,3520.2264,6,,,D*69
CalmanFilter:0.00 8.96 -109.18
$GPRMC,050158.000,A,3520.2264,N66
CalmanFilter:0.00 8.87 -109.08
$GPRMC,050159.000,A,3520.2264,N,250916,,,D*67
CalmanFilter:0.00 9.00 -109.11
$GPRMC,050200.000,A,3520.2264,N250916,,,D*68
CalmanFilter:0.00 8.84 -109.21
$GPRMC,050201.000,A,3520.2264,NA
CalmanFilter:0.00 8.79 -109.18
$GPRMC,050202.000,A,3520.2264,N6A
CalmanFilter:0.00 8.87 -109.18
$GPRMC,050203.000,A,3520.2264,N6B
CalmanFilter:0.00 8.85 -109.21
$GPRMC,050204.000,A,3520.2264,N50916,,,D*6C
CalmanFilter:0.00 8.96 -109.15
$GPRMC,050205.000,A,3520.2264,N916,,,D*6D
CalmanFilter:0.00 8.83 -109.09
$GPRMC,050206.000,A,3520.2264,N6,,,D*6E
CalmanFilter:0.00 8.88 -109.07
$GPRMC,050207.000,A,3520.2264,N*6F
CalmanFilter:0.00 8.90 -109.09
$GPRMC,050208.000,A,3520.2264,N*60
CalmanFilter:0.00 8.90 -109.16
$GPRMC,050209.000,A,3520.2264,N62
CalmanFilter:0.00 8.73 -109.13
$GPRMC,050210.000,A,3520.2264,ND*68
CalmanFilter:0.00 8.78 -109.16
$GPRMC,050223.000,A,3520.2264,*6B
CalmanFilter:0.00 8.83 -109.14
$GPRMC,050232.000,A,3520.2264,*69
CalmanFilter:0.00 8.76 -109.20
$GPRMC,050242.000,A,3520.2264,N,139D
CalmanFilter:0.00 8.89 -109.16
$GPRMC,050252.000,A,352016,,,D*6D
CalmanFilter:0.00 8.86 -109.22
$GPRMC,050310.000,A,3520.2264,N,B
CalmanFilter:0.00 8.81 -109.18
$GPRMC,050323.000,A,3520.2264,N,8
CalmanFilter:0.00 8.85 -109.15
$GPRMC,050325.000,A,3520.2264,N,E
CalmanFilter:0.00 8.85 -109.23
$GPRMC,050344.000,A,3520.2264,N,9
CalmanFilter:0.00 8.81 -109.18
$GPRMC,050350.000,A,3520.2264,N,C
CalmanFilter:0.00 8.83 -109.20
$GPRMC,050352.000,A,3520.2264,N,E
CalmanFilter:0.00 9.00 -109.08
$GPRMC,050433.000,AVTG,249.87,T,,M,0.01,N,0.03,K,D*3A
CalmanFilter:0.00 8.99 -109.14
$GPRMC,050443.000,A,3520.226,D*68
CalmanFilter:0.00 8.83 -109.07
$GPRMC,050458.000,A,3520.2264,N,13938.0569,49.87,T,,M,0.02,N,0.03,K,D*39
CalmanFilter:0.00 8.95 -109.17
$GPRMC,050527.000,A,3520.2264,N,13938.0569,.87,T,,M,0.03,N,0.06,K,D*3D
CalmanFilter:0.00 8.76 -109.14
$GPRMC,050534.000,A,3520.2264,N,13
CalmanFilter:0.00 8.81 -109.14
$GPRMC,050612.000,A,3520.2264,N,13938.0569,49.87,T,,M,0.01,N,0.02,K,D*3B
CalmanFilter:0.00 8.81 -109.16
$GPRMC,050828.000,A,3520.2264,N,13938.0569,49.87,T,,M,0.01,N,0.01,K,D*38
CalmanFilter:0.00 8.96 -109.17
$GPRMC,051150.000,A,3520.2265,N,13938.0571,49.87,T,,M,0.01,N,0.02,K,D*3B
CalmanFilter:0.00 8.98 -109.30
$GPRMC,051153.000,A,3520.2265,N,13938.0571,49.87,T,,M,0.01,N,0.02,K,D*3B
CalmanFilter:0.00 8.86 -109.04
$GPRMC,051317.000,A,3520.2265,N,13938.0571,249.87,T,,M,0.02,N,0.03,K,D*39
CalmanFilter:0.00 8.94 -109.18
$GPRMC,051351.000,A,3520.2265,N,13938.0571249.87,T,,M,0.02,N,0.03,K,D*39
CalmanFilter:0.00 8.84 -109.11
$GPRMC,051408.000,A,3520.2265,N,13938.0571249.87,T,,M,0.02,N,0.04,K,D*3E
CalmanFilter:0.00 8.86 -109.17
$GPRMC,051412.000,A,3520.2265,N,13938.0572,249.87,T,,M,0.03,N,0.06,K,D*3D
CalmanFilter:0.00 8.97 -109.16
$GPRMC,051449.000,A,3520.2265,N,13938.0572,49.87,T,,M,0.01,N,0.01,K,D*38
CalmanFilter:0.00 8.98 -109.13
$GPRMC,051452.000,A,3520.2265,N,13938.0572,E49.87,T,,M,0.00,N,0.01,K,D*39
CalmanFilter:0.00 8.90 -109.18
$GPRMC,051453.000,A,3520.2265,N,13938.0572,E49.87,T,,M,0.00,N,0.01,K,D*39
CalmanFilter:0.00 8.73 -109.20
$GPRMC,051455.000,A,3520.2265,N,13938.0572,E49.87,T,,M,0.00,N,0.01,K,D*39
CalmanFilter:0.00 8.74 -109.18
$GPRMC,051456.000,A,3520.2265,N,13938.0572,E49.87,T,,M,0.00,N,0.01,K,D*39
CalmanFilter:0.00 8.72 -109.18
$GPRMC,051457.000,A,3520.2265,N,13938.0572,E49.87,T,,M,0.00,N,0.01,K,D*39
CalmanFilter:0.00 8.84 -109.20
$GPRMC,051459.000,A,3520.2265,N,13938.0572,E249.87,T,,M,0.00,N,0.00,K,D*38
CalmanFilter:0.00 8.85 -109.33
$GPRMC,051500.000,A,3520.2265,N,13938.0572,E49.87,T,,M,0.02,N,0.04,K,D*3E
CalmanFilter:0.00 8.88 -109.17
$GPRMC,051501.000,A,3520.2265,N,13938.0572,E49.87,T,,M,0.01,N,0.01,K,D*38
CalmanFilter:0.00 8.82 -109.21
$GPRMC,051512.000,A,3520.2265,N,13938.0572,E49.87,T,,M,0.01,N,0.02,K,D*3B
CalmanFilter:0.00 8.78 -109.25
$GPRMC,051514.000,A,3520.2265,N,13938.0572,E49.87,T,,M,0.01,N,0.02,K,D*3B
CalmanFilter:0.00 8.86 -109.15
$GPRMC,051516.000,A,3520.2265,N,13938.0572,E249.87,T,,M,0.01,N,0.03,K,D*3A
CalmanFilter:0.00 8.79 -109.29
$GPRMC,051533.000,A,3520.2266,N,13938.0572,249.87,T,,M,0.02,N,0.04,K,D*3E
CalmanFilter:0.00 8.80 -109.11
$GPRMC,051540.000,A,3520.2266,N,13938.0572,E49.87,T,,M,0.01,N,0.02,K,D*3B
CalmanFilter:0.00 8.74 -109.13
$GPRMC,051541.000,A,3520.2266,N,13938.0572,E49.87,T,,M,0.01,N,0.03,K,D*3A
CalmanFilter:0.00 8.89 -109.15
$GPRMC,051542.000,A,3520.2266,N,13938.0572,49.87,T,,M,0.02,N,0.
CalmanFilter:0.00 8.88 -109.15
$GPRMC,051543.000,A,3520.2266,N,13938.0572,E249.87,T,,M,0.02,N,0.03,K,D*39
CalmanFilter:0.00 8.73 -109.12
$GPRMC,051640.000,A,3520.2266,N,13938.0572,49.87,T,,M,0.02,N,0.04,K,D*3E
CalmanFilter:0.00 8.98 -109.20
$GPRMC,051801.000,A,3520.2266,N,13938.0573,E49.87,T,,M,0.02,N,0.04,K,D*3E
CalmanFilter:0.00 8.84 -109.12
$GPRMC,051803.000,A,3520.2266,N,13938.0573,E49.87,T,,M,0.02,N,0.04,K,D*3E
CalmanFilter:0.00 8.81 -109.32
$GPRMC,051807.000,A,3520.2266,N,13938.0573,E49.87,T,,M,0.01,N,0.01,K,D*38
CalmanFilter:0.00 8.85 -109.20
$GPRMC,051809.000,A,3520.2266,N,13938.0573,E49.87,T,,M,0.01,N,0.01,K,D*38
CalmanFilter:0.00 8.89 -109.17
$GPRMC,051813.000,A,3520.2266,N,13938.0573,E249.87,T,,M,0.01,N,0.02,K,D*3B
CalmanFilter:0.00 8.78 -109.14
$GPRMC,051815.000,A,3520.2266,N,13938.0573,E49.87,T,,M,0.01,N,0.01,K,D*38
CalmanFilter:0.00 8.97 -109.16
$GPRMC,051818.000,A,3520.2266,N,13938.0573,E,49.87,T,,M,0.02,N,0.03,K,D*39
CalmanFilter:0.00 8.86 -109.22
$GPRMC,051819.000,A,3520.2266,N,13938.0573,E49.87,T,,M,0.02,N,0.04,K,D*3E
CalmanFilter:0.00 8.89 -109.24
$GPRMC,051820.000,A,3520.2266,N,13938.0573,E49.87,T,,M,0.01,N,0.01,K,D*38
CalmanFilter:0.00 8.89 -109.19
$GPRMC,051821.000,A,3520.2266,N,13938.0573,E49.87,T,,M,0.01,N,0.01,K,D*38
CalmanFilter:0.00 8.90 -109.22
$GPRMC,052030.000,A,3520.2267,N,13938.0574,E49.87,T,,M,0.02,N,0.03,K,D*39
CalmanFilter:0.00 8.85 -109.17
$GPRMC,052032.000,A,3520.2267,N,13938.0574,E,49.87,T,,M,0.02,N,0.04,K,D*3E
CalmanFilter:0.00 8.95 -109.35
$GPRMC,052034.000,A,3520.2267,N,13938.0574,E49.87,T,,M,0.02,N,0.04,K,D*3E
CalmanFilter:0.00 8.80 -109.26
$GPRMC,052035.000,A,3520.2267,N,13938.0574,E49.87,T,,M,0.02,N,0.03,K,D*39
CalmanFilter:0.00 8.84 -109.10
$GPRMC,052036.000,A,3520.2267,N,13938.0574,E49.87,T,,M,0.01,N,0.02,K,D*3B
CalmanFilter:0.00 8.87 -109.11
$GPRMC,052038.000,A,3520.2267,N,13938.0574,E49.87,T,,M,0.02,N,0.04,K,D*3E
CalmanFilter:0.00 8.92 -109.10
$GPRMC,052039.000,A,3520.2267,N,13938.0574,E49.87,T,,M,0.03,N,0.05,K,D*3E
CalmanFilter:0.00 8.85 -109.14
$GPRMC,052047.000,A,3520.2267,N7
CalmanFilter:0.00 8.81 -109.21
$GPRMC,052055.000,A,3520.2267,N*64
CalmanFilter:0.00 8.83 -109.15
$GPRMC,052115.000,A,3520.2267,D*61
CalmanFilter:0.00 9.04 -109.07
$GPRMC,052117.000,A,3520.2267,*60
CalmanFilter:0.00 9.06 -109.12
$GPRMC,052124.000,A,3520.2267,*63
CalmanFilter:0.00 8.87 -109.43
$GPRMC,052125.000,A,3520.2267,*62
CalmanFilter:0.00 8.78 -109.20
$GPRMC,052136.000,A,3520.2267,N61
CalmanFilter:0.00 9.08 -109.10
$GPRMC,052139.000,A,3520.2267,*6C
CalmanFilter:0.00 8.82 -109.33
$GPRMC,052147.000,A,3520.2267,D*65
CalmanFilter:0.00 9.00 -109.03
$GPRMC,052152.000,A,3520.2267,D*61
CalmanFilter:0.00 8.79 -109.15
$GPRMC,052153.000,A,3520.2267,*60
CalmanFilter:0.00 8.94 -109.30
$GPRMC,052159.000,A,3520.2267,*6A
CalmanFilter:0.00 8.78 -109.04
$GPRMC,052202.000,A,3520.2267,*64
CalmanFilter:0.00 9.00 -109.01
