$GPRMC,014416.000,A,3520.2260,N,13937.9854,E,0.23,340.38,25091643,K,A*37
$GPRMC,014417.000,A,3520.2260,N,13937.9853,E,0.29,340.38,25091654,K,A*3B
$GPRMC,014418.000,A,3520.2261,N,13937.9852,E,0.40,340.38,25091675,K,A*37
$GPRMC,014419.000,A,3520.2261,N,13937.9851,E,0.46,340.38,250916.85,K,A*3E
$GPRMC,014420.000,A,3520.2262,N,13937.9849,E,0.49,340.38,250916.91,K,A*34
$GPRMC,014421.000,A,3520.2263,N,13937.9848,E,0.36,340.38,250916.67,K,A*35
$GPRMC,014422.000,A,3520.2263,N,13937.9847,E,0.27,340.38,25091649,K,A*39
$GPRMC,014423.000,A,3520.2264,N,13937.9847,E,0.30,340.38,250916.56,K,A*31
$GPRMC,014424.000,A,3520.2265,N,13937.9846,E,0.16,340.38,250916.30,K,A*35
$GPRMC,014425.000,A,3520.2265,N,13937.9846,E,0.08,340.38,250916,0.16,K,A*3E
$GPRMC,014426.000,A,3520.2233,N,13937.9754,E,0.10,340.38,250916.18,K,A*39
$GPRMC,014427.000,A,3520.2219,N,13937.9747,E,0.16,340.38,250916.29,K,A*3D
$GPRMC,014428.000,A,3520.2218,N,13937.9751,E,0.12,340.38,250916.23,K,A*33
$GPRMC,014429.000,A,3520.2216,N,13937.9752,E,0.14,340.38,2509160.26,K,A*30
$GPRMC,014430.000,A,3520.2213,N,13937.9751,E,0.14,340.38,250916.26,K,A*30
$GPRMC,014431.000,A,3520.2213,N,13937.9752,E,0.12,340.38,2509160.21,K,A*31
$GPRMC,014432.000,A,3520.2211,N,13937.9753,E,0.08,340.38,2509160.15,K,A*3D
$GPRMC,014433.000,A,3520.2210,N,13937.9754,E,0.08,340.38,25091614,K,A*3C
$GPRMC,014434.000,A,3520.2213,N,13937.9750,E,0.07,340.38,250916,K,A*35
$GPRMC,014435.000,A,3520.2212,N,13937.9751,E,0.08,340.38,2509165,K,A*3D
$GPRMC,014436.000,A,3520.2211,N,13937.9752,E,0.11,340.38,2509160,K,A*33
$GPRMC,014437.000,A,3520.2208,N,13937.9754,E,0.12,340.38,250916.22,K,A*32
$GPRMC,014438.000,A,3520.2206,N,13937.9754,E,0.12,340.38,25091623,K,A*33
$GPRMC,014439.000,A,3520.2206,N,13937.9754,E,0.02,340.38,25091604,K,A*37
$GPRMC,014440.000,A,3520.2206,N,13937.9754,E,0.02,340.38,250916.04,K,A*37
$GPRMC,014441.000,A,3520.2206,N,13937.9754,E,0.01,340.38,2509161,K,A*31
$GPRMC,014442.000,A,3520.2206,N,13937.9754,E,0.01,340.38,25091603,K,A*33
$GPRMC,014443.000,A,3520.2206,N,13937.9754,E,0.07,340.38,25091614,K,A*33
$GPRMC,014444.000,A,3520.2206,N,13937.9754,E,0.01,340.38,25091602,K,A*32
$GPRMC,014445.000,A,3520.2206,N,13937.9754,E,0.01,340.38,250916.01,K,A*31
$GPRMC,014446.000,A,3520.2206,N,13937.9754,E,0.01,340.38,25091602,K,A*32
$GPRMC,014447.000,A,3520.2206,N,13937.9754,E,0.02,340.38,250916.04,K,A*37
$GPRMC,014448.000,A,3520.2206,N,13937.9754,E,0.02,340.38,2509164,K,A*37
$GPRMC,014449.000,A,3520.2206,N,13937.9754,E,0.04,340.38,2509167,K,A*32
$GPRMC,014451.000,A,3520.2206,N,13937.9754,E,1.16,50.64,250916,,K,A*0B
$GPRMC,014452.000,A,3520.2206,N,13937.9760,E,0.60,44.60,250916,,A*0C
$GPRMC,014453.000,A,3520.2210,N,13937.9760,E,1.00,326.15,250916,K,A*33
$GPRMC,014454.000,A,3520.2211,N,13937.9760,E,0.67,326.77,250916,K,A*3C
$GPRMC,014455.000,A,3520.2211,N,13937.9761,E,0.28,326.77,25091651,K,A*34
$GPRMC,014456.000,A,3520.2212,N,13937.9761,E,0.26,326.77,2509168,K,A*32
$GPRMC,014457.000,A,3520.2211,N,13937.9763,E,0.19,326.77,2509166,K,A*37
$GPRMC,014458.000,A,3520.2213,N,13937.9764,E,0.13,326.77,250916,K,A*3F
$GPRMC,014459.000,A,3520.2213,N,13937.9764,E,0.14,326.77,2509166,K,A*3B
$GPRMC,014501.000,A,3520.2213,N,13937.9764,E,0.03,326.77,250916,K,A*3F
$GPRMC,014504.000,A,3520.2213,N,13937.9764,E,0.16,326.77,250916,K,A*3E
$GPRMC,014506.000,A,3520.2212,N,13937.9765,E,0.22,326.77,250916,K,A*3E
$GPRMC,014507.000,A,3520.2212,N,13937.9766,E,0.24,326.77,250916,K,A*3C
$GPRMC,014508.000,A,3520.2212,N,13937.9767,E,0.11,326.77,250916,K,A*39
$GPRMC,014509.000,A,3520.2211,N,13937.9767,E,0.13,326.77,250916,K,A*3E
$GPRMC,014510.000,A,3520.2211,N,13937.9767,E,0.13,326.77,250916,K,A*3F
$GPRMC,014602.000,A,3520.2204,N,13937.9766,E,0.01,326.77,25091602,K,A*39
$GPRMC,014603.000,A,3520.2204,N,13937.9766,E,0.01,326.77,250916.02,K,A*39
$GPRMC,014604.000,A,3520.2204,N,13937.9766,E,0.01,326.77,250916.02,K,A*39
$GPRMC,014605.000,A,3520.2204,N,13937.9766,E,0.01,326.77,250916.01,K,A*3A
$GPRMC,014606.000,A,3520.2204,N,13937.9766,E,0.01,326.77,250916.03,K,A*38
$GPRMC,014607.000,A,3520.2204,N,13937.9766,E,0.01,326.77,250916.01,K,A*3A
$GPRMC,014608.000,A,3520.2204,N,13937.9766,E,0.01,326.77,250916.02,K,A*39
$GPRMC,014609.000,A,3520.2204,N,13937.9766,E,0.01,326.77,250916.03,K,A*38
$GPRMC,014610.000,A,3520.2204,N,13937.9766,E,0.00,326.77,25091601,K,A*3B
$GPRMC,014611.000,A,3520.2204,N,13937.9766,E,0.01,326.77,250916.02,K,A*39
$GPRMC,014701.000,A,3520.2203,N,13937.9767,E,0.01,326.77,250916,K,A*39
$GPRMC,014702.000,A,3520.2203,N,13937.9767,E,0.03,326.77,25091605,K,A*3C
$GPRMC,014703.000,A,3520.2203,N,13937.9767,E,0.01,326.77,2509162,K,A*39
$GPRMC,014704.000,A,3520.2203,N,13937.9767,E,0.01,326.77,2509161,K,A*3A
$GPRMC,014705.000,A,3520.2203,N,13937.9767,E,0.01,326.77,2509161,K,A*3A
$GPRMC,014706.000,A,3520.2203,N,13937.9767,E,0.02,326.77,250916,K,A*3B
$GPRMC,014707.000,A,3520.2203,N,13937.9767,E,0.01,326.77,2509161,K,A*3A
$GPRMC,014708.000,A,3520.2204,N,13937.9767,E,0.01,326.77,250916,K,A*3A
$GPRMC,014709.000,A,3520.2204,N,13937.9767,E,0.00,326.77,2509161,K,A*3B
$GPRMC,014710.000,A,3520.2204,N,13937.9767,E,0.00,326.77,250916,K,A*3A
$GPRMC,014711.000,A,3520.2204,N,13937.9767,E,0.01,326.77,2509162,K,A*39
$GPRMC,014712.000,A,3520.2204,N,13937.9767,E,0.01,326.77,250916,K,A*3A
$GPRMC,014713.000,A,3520.2204,N,13937.9767,E,0.01,326.77,250916,K,A*3A
$GPRMC,014733.000,A,3520.2204,N,13937.9767,E,0.03,326.77,250916,,,A*61
$GPRMC,014734.000,A,3520.2204,N,13937.9767,E,0.03,326.77,250916,,,A*66
$GPRMC,014735.000,A,3520.2204,N,13937.9767,E,0.04,326.77,250916,,,A*60
$GPRMC,014748.000,A,3520.2205,N,13937.9767,E,0.05,326.77,250916,,,A*6A
$GPRMC,014751.000,A,3520.2205,N,13937.9767,E,0.03,326.77,250916,,,A*64
$GPRMC,014754.000,A,3520.2205,N,13937.9767,E,0.03,326.77,250916,K,A*3C
$GPRMC,014755.000,A,3520.2205,N,13937.9767,E,0.03,326.77,250916,K,A*3C
$GPRMC,014756.000,A,3520.2205,N,13937.9767,E,0.03,326.77,250916,K,A*3C
$GPRMC,014800.000,A,3520.2205,N,13937.9767,E,0.01,326.77,250916,K,A*39
$GPRMC,014814.000,A,3520.2205,N,13937.9767,E,0.02,326.77,250916,K,A*3C
$GPRMC,014821.000,A,3520.2205,N,13937.9767,E,0.01,326.77,250916,K,A*39
$GPRMC,014836.000,A,3520.2206,N,13937.9768,E,0.01,326.77,250916,K,A*39
$GPRMC,014841.000,A,3520.2206,N,13937.9768,E,0.02,326.77,250916,K,A*3B
$GPRMC,014847.000,A,3520.2206,N,13937.9768,E,0.02,326.77,250916,K,A*3C
$GPRMC,014857.000,A,3520.2206,N,13937.9768,E,0.00,326.77,250916,K,A*3B
$GPRMC,014915.000,A,3520.2206,N,13937.9768,E,0.01,326.77,250916,,,A*64
$GPRMC,014919.000,A,3520.2206,N,13937.9768,E,0.01,326.77,250916,,,A*68
$GPRMC,014921.000,A,3520.2206,N,13937.9768,E,0.01,326.77,250916,,,A*63
$GPRMC,015336.000,A,3520.2198,N,13937.9758,E,0.01,6.34,.34,T,,M
$GPRMC,015344.000,A,3520.2199,N,13937.9757,E,0.02,6.34,2509,,A*A
$GPRMC,015352.000,A,3520.2199,N,13937.9757,E,0.01,6.34,250916,,01,N,0.03,K,A*3E
$GPRMC,015353.000,A,3520.2199,N,13937.9757,E,0.02,6.34,250916,,02,N,0.03,K,A*3D
$GPRMC,015354.000,A,3520.2199,N,13937.9757,E,0.01,6.34,250916,,,N,0.01,K,A*3C
$GPRMC,015355.000,A,3520.2199,N,13937.9757,E,0.01,6.34,250916,,,N,0.02,K,A*3F
$GPRMC,015356.000,A,3520.2199,N,13937.9757,E,0.02,6.34,250916,,,N,0.04,K,A*3A
$GPRMC,015357.000,A,3520.2199,N,13937.9757,E,0.03,6.34,250916,,,N,0.05,K,A*3A
$GPRMC,015358.000,A,3520.2199,N,13937.9757,E,0.03,6.34,250916,,,N,0.06,K,A*39
$GPRMC,015359.000,A,3520.2198,N,13937.9757,E,0.04,6.34,250916,,,0.07,K,A*3F
$GPRMC,015400.000,A,3520.2198,N,13937.9757,E,0.04,6.34,250916,,,N,0.08,K,A*30
$GPRMC,015732.000,A,3520.2205,N,13937.9788,E,0.02,45.4,45.48,T,16,,*5F
$GPRMC,015743.000,A,3520.2207,N,13937.9787,E,0.03,45.4845.48,T,,*59
$GPRMC,015802.000,A,3520.2193,N,13937.9788,E,0.32,197.35,97.35,,*53
$GPRMC,015804.000,A,3520.2191,N,13937.9789,E,0.18,197.397.35,T,9,2016,,*55
$GPRMC,015806.000,A,3520.2191,N,13937.9791,E,0.39,197.35,297.35,,*57
$GPRMC,015807.000,A,3520.2192,N,13937.9792,E,0.19,197.35,,,,A*616,,*56
$GPRMC,015811.000,A,3520.2192,N,13937.9789,E,0.19,197.35,197.356,,*51
$GPRMC,015921.000,A,3520.2180,N,13937.9792,E,0.32,197.35,257.35016,,*53
$GPRMC,015940.000,A,3520.2174,N,13937.9789,E,0.12,197.3,197.35,9,2016,,*54
$GPRMC,015957.000,A,3520.2186,N,13937.9789,E,0.46,28.20,220,T,,
$GPRMC,020001.000,A,3520.2189,N,13937.9789,E,0.17,28G,28.20,T,,5E
$GPRMC,020032.000,A,3520.2200,N,13937.9792,E,0.01,28.20,250916,,A*05
$GPRMC,040953.000,A,3520.2203,N,13937.9862,E,0.23,198.62,250916,,,A*64
$GPRMC,041014.000,A,3520.2217,N,13937.9899,E,2.37,58.77,250916,37,N,4.39,K,A*08
$GPRMC,041056.000,A,3520.2319,N,13938.0252,E,3.48,75.49,250916,8,N,6.44,K,A*0B
$GPRMC,041057.000,A,3520.2324,N,13938.0262,E,2.51,74.83,250916,,N,4.64,K,A*05
$GPRMC,041058.000,A,3520.2326,N,13938.0271,E,2.51,71.34,250916,,N,4.66,K,A*0E
$GPRMC,041059.000,A,3520.2330,N,13938.0280,E,3.31,70.06,250916,31,N,6.13,K,A*09
$GPRMC,041100.000,A,3520.2333,N,13938.0288,E,2.94,72.42,250916,94,N,5.44,K,A*04
$GPRMC,041101.000,A,3520.2335,N,13938.0296,E,2.77,66.65,250916,7,N,5.12,K,A*0A
$GPRMC,041102.000,A,3520.2338,N,13938.0305,E,3.38,61.87,250916,,N,6.26,K,A*0F
$GPRMC,041103.000,A,3520.2343,N,13938.0315,E,3.94,65.24,250916,N,7.30,K,A*02
$GPRMC,041104.000,A,3520.2346,N,13938.0326,E,3.30,66.49,250916,0,N,6.11,K,A*06
$GPRMC,041105.000,A,3520.2350,N,13938.0336,E,3.36,64.28,250916,,N,6.23,K,A*04
$GPRMC,041106.000,A,3520.2353,N,13938.0346,E,3.43,61.89,250916,3,N,6.35,K,A*0F
$GPRMC,041107.000,A,3520.2357,N,13938.0355,E,2.40,58.46,250916,40,N,4.46,K,A*02
$GPRMC,041108.000,A,3520.2360,N,13938.0363,E,3.11,62.56,250916,11,N,5.76,K,A*0D
$GPRMC,041113.000,A,3520.2383,N,13938.0414,E,2.97,57.31,250916,97,N,5.50,K,A*01
$GPRMC,041114.000,A,3520.2387,N,13938.0423,E,2.94,57.60,250916,94,N,5.45,K,A*02
$GPRMC,041119.000,A,3520.2416,N,13938.0492,E,3.00,58.03,250916,00,N,5.56,K,A*06
$GPRMC,041123.000,A,3520.2438,N,13938.0540,E,2.81,49.58,250916,81,N,5.20,K,A*01
$GPRMC,041124.000,A,3520.2442,N,13938.0545,E,2.40,50.63,250916,40,N,4.44,K,A*0F
$GPRMC,041125.000,A,3520.2446,N,13938.0553,E,2.95,51.92,250916,95,N,5.46,K,A*0B
$GPRMC,041130.000,A,3520.2460,N,13938.0593,E,2.79,61.36,250916,79,N,5.17,K,A*00
$GPRMC,041134.000,A,3520.2478,N,13938.0609,E,2.85,48.61,250916,85,N,5.28,K,A*06
$GPRMC,041138.000,A,3520.2493,N,13938.0634,E,2.99,54.26,250916,99,N,5.54,K,A*0E
$GPRMC,041139.000,A,3520.2496,N,13938.0639,E,2.95,53.98,250916,95,N,5.47,K,A*02
$GPRMC,041144.000,A,3520.2519,N,13938.0674,E,2.74,61.67,250916,74,N,5.07,K,A*08
$GPRMC,041145.000,A,3520.2523,N,13938.0681,E,3.04,59.58,250916,04,N,5.64,K,A*0C
$GPRMC,041146.000,A,3520.2527,N,13938.0689,E,2.59,58.14,250916,9,N,4.81,K,A*06
$GPRMC,041147.000,A,3520.2530,N,13938.0695,E,2.66,62.53,250916,6,N,4.92,K,A*02
$GPRMC,041150.000,A,3520.2546,N,13938.0726,E,3.94,60.83,250916,94,N,7.30,K,A*0A
$GPRMC,041244.000,A,3520.2570,N,13938.0724,E,0.00,55.74,250916,,N,0.01,K,A*0F
$GPRMC,041345.000,A,3520.2575,N,13938.0740,E,0.03,20.89,250916,N,0.06,K,A*0B
$GPRMC,041346.000,A,3520.2576,N,13938.0740,E,0.75,20.89,250916,75,N,1.39,K,A*07
$GPRMC,041350.000,A,3520.2576,N,13938.0732,E,0.42,320.65,25091642,N,0.78,K,A*36
$GPRMC,041359.000,A,3520.2581,N,13938.0727,E,0.27,320.65,25091627,N,0.49,K,A*37
$GPRMC,041426.000,A,3520.2580,N,13938.0723,E,0.37,216.74,25091637,N,0.69,K,A*30
$GPRMC,041429.000,A,3520.2580,N,13938.0726,E,0.07,216.74,25091607,N,0.12,K,A*3F
$GPRMC,043842.000,A,,59.04,250916,,,D*542.000,25,09,2016,,*54
$GPRMC,043909.000,A112.14,250916,,,D*6F0,25,09,2016,,*5A
$GPRMC,043936.000,A,,117.75,250916,,,D*.000,25,09,2016,,*56
$GPRMC,043941.000,A,9,89.86,250916,,,D*.000,25,09,2016,,*56
$GPRMC,043948.000,A,140.33,250916,,,D*648.000,25,09,2016,,*5F
$GPRMC,043952.000,A,88.61,250916,,,D*5A00,25,09,2016,,*54
$GPRMC,043957.000,A,,127.11,250916,,,D*00,25,09,2016,,*51
$GPRMC,044005.000,A,,123.36,250916,,,D*00,25,09,2016,,*58
$GPRMC,044145.000,A,3,299.62,250916,,,D000,25,09,2016,,*5D
$GPRMC,044150.000,A,3,312.43,250916,,,D.000,25,09,2016,,*59
$GPRMC,044156.000,A,3,301.07,250916,,,D6.000,25,09,2016,,*5F
$GPRMC,044158.000,A,9,304.06,250916,,,D8.000,25,09,2016,,*51
$GPRMC,044200.000,A,311,305.54,250916,,00.000,25,09,2016,,*5F
$GPRMC,044204.000,A,6,308.18,250916,,,D4.000,25,09,2016,,*5B
$GPRMC,044207.000,A,36,305.78,250916,,,07.000,25,09,2016,,*58
$GPRMC,044208.000,A,6,304.98,250916,,,D000,25,09,2016,,*57
$GPRMC,044218.000,A,3,302.62,250916,,,D000,25,09,2016,,*56
$GPRMC,044219.000,A,38,302.22,250916,,,.48,N,2.73,K,D*32
$GPRMC,044244.000,A,3,339.18,250916,,,D000,25,09,2016,,*5F
$GPRMC,044248.000,A,3,345.20,250916,,,D8.000,25,09,2016,,*53
$GPRMC,044528.000,A,3520.1889,N,13938.0830,E24.22,T,,M,2.21,N,4.09,K,D*31
$GPRMC,044650.000,A,3520.2256,N,13938.0615,.43,T,,M,0.49,N,0.90,K,D*3D
$GPRMC,044651.000,A,3520.2257,N,13938.0614VTG,307.22,T,,M,0.79,N,1.47,K,D*30
$GPRMC,044734.000,A,3520.2269,N,13938.0563,E,0.15,249.87,2509165,N,0.28,K,D*36
$GPRMC,050433.000,AVTG,249.87,T,,M,0.01,N,0.03,K,D*3A
$GPRMC,050458.000,A,3520.2264,N,13938.0569,49.87,T,,M,0.02,N,0.03,K,D*39
$GPRMC,050527.000,A,3520.2264,N,13938.0569,.87,T,,M,0.03,N,0.06,K,D*3D
$GPRMC,050612.000,A,3520.2264,N,13938.0569,49.87,T,,M,0.01,N,0.02,K,D*3B
$GPRMC,050828.000,A,3520.2264,N,13938.0569,49.87,T,,M,0.01,N,0.01,K,D*38
$GPRMC,051150.000,A,3520.2265,N,13938.0571,49.87,T,,M,0.01,N,0.02,K,D*3B
$GPRMC,051153.000,A,3520.2265,N,13938.0571,49.87,T,,M,0.01,N,0.02,K,D*3B
$GPRMC,051317.000,A,3520.2265,N,13938.0571,249.87,T,,M,0.02,N,0.03,K,D*39
$GPRMC,051351.000,A,3520.2265,N,13938.0571249.87,T,,M,0.02,N,0.03,K,D*39
$GPRMC,051408.000,A,3520.2265,N,13938.0571249.87,T,,M,0.02,N,0.04,K,D*3E
$GPRMC,051412.000,A,3520.2265,N,13938.0572,249.87,T,,M,0.03,N,0.06,K,D*3D
$GPRMC,051449.000,A,3520.2265,N,13938.0572,49.87,T,,M,0.01,N,0.01,K,D*38
$GPRMC,051452.000,A,3520.2265,N,13938.0572,E49.87,T,,M,0.00,N,0.01,K,D*39
$GPRMC,051453.000,A,3520.2265,N,13938.0572,E49.87,T,,M,0.00,N,0.01,K,D*39
$GPRMC,051455.000,A,3520.2265,N,13938.0572,E49.87,T,,M,0.00,N,0.01,K,D*39
$GPRMC,051456.000,A,3520.2265,N,13938.0572,E49.87,T,,M,0.00,N,0.01,K,D*39
$GPRMC,051457.000,A,3520.2265,N,13938.0572,E49.87,T,,M,0.00,N,0.01,K,D*39
$GPRMC,051459.000,A,3520.2265,N,13938.0572,E249.87,T,,M,0.00,N,0.00,K,D*38
$GPRMC,051500.000,A,3520.2265,N,13938.0572,E49.87,T,,M,0.02,N,0.04,K,D*3E
$GPRMC,051501.000,A,3520.2265,N,13938.0572,E49.87,T,,M,0.01,N,0.01,K,D*38
$GPRMC,051512.000,A,3520.2265,N,13938.0572,E49.87,T,,M,0.01,N,0.02,K,D*3B
$GPRMC,051514.000,A,3520.2265,N,13938.0572,E49.87,T,,M,0.01,N,0.02,K,D*3B
$GPRMC,051516.000,A,3520.2265,N,13938.0572,E249.87,T,,M,0.01,N,0.03,K,D*3A
$GPRMC,051533.000,A,3520.2266,N,13938.0572,249.87,T,,M,0.02,N,0.04,K,D*3E
$GPRMC,051540.000,A,3520.2266,N,13938.0572,E49.87,T,,M,0.01,N,0.02,K,D*3B
$GPRMC,051541.000,A,3520.2266,N,13938.0572,E49.87,T,,M,0.01,N,0.03,K,D*3A
$GPRMC,051542.000,A,3520.2266,N,13938.0572,49.87,T,,M,0.02,N,0.
$GPRMC,051543.000,A,3520.2266,N,13938.0572,E249.87,T,,M,0.02,N,0.03,K,D*39
$GPRMC,051640.000,A,3520.2266,N,13938.0572,49.87,T,,M,0.02,N,0.04,K,D*3E
$GPRMC,051801.000,A,3520.2266,N,13938.0573,E49.87,T,,M,0.02,N,0.04,K,D*3E
$GPRMC,051803.000,A,3520.2266,N,13938.0573,E49.87,T,,M,0.02,N,0.04,K,D*3E
$GPRMC,051807.000,A,3520.2266,N,13938.0573,E49.87,T,,M,0.01,N,0.01,K,D*38
$GPRMC,051809.000,A,3520.2266,N,13938.0573,E49.87,T,,M,0.01,N,0.01,K,D*38
$GPRMC,051813.000,A,3520.2266,N,13938.0573,E249.87,T,,M,0.01,N,0.02,K,D*3B
$GPRMC,051815.000,A,3520.2266,N,13938.0573,E49.87,T,,M,0.01,N,0.01,K,D*38
$GPRMC,051818.000,A,3520.2266,N,13938.0573,E,49.87,T,,M,0.02,N,0.03,K,D*39
$GPRMC,051819.000,A,3520.2266,N,13938.0573,E49.87,T,,M,0.02,N,0.04,K,D*3E
$GPRMC,051820.000,A,3520.2266,N,13938.0573,E49.87,T,,M,0.01,N,0.01,K,D*38
$GPRMC,051821.000,A,3520.2266,N,13938.0573,E49.87,T,,M,0.01,N,0.01,K,D*38
$GPRMC,052030.000,A,3520.2267,N,13938.0574,E49.87,T,,M,0.02,N,0.03,K,D*39
$GPRMC,052032.000,A,3520.2267,N,13938.0574,E,49.87,T,,M,0.02,N,0.04,K,D*3E
$GPRMC,052034.000,A,3520.2267,N,13938.0574,E49.87,T,,M,0.02,N,0.04,K,D*3E
$GPRMC,052035.000,A,3520.2267,N,13938.0574,E49.87,T,,M,0.02,N,0.03,K,D*39
$GPRMC,052036.000,A,3520.2267,N,13938.0574,E49.87,T,,M,0.01,N,0.02,K,D*3B
$GPRMC,052038.000,A,3520.2267,N,13938.0574,E49.87,T,,M,0.02,N,0.04,K,D*3E
$GPRMC,052039.000,A,3520.2267,N,13938.0574,E49.87,T,,M,0.03,N,0.05,K,D*3E
$GPRMC,053743.000,A,3520.2276,N,139GPVTG,196.39,T,,M,0.64,N,1.1,25,09,2016,,*5B
$GPRMC,053747.000,A,3520.2272,N,139GPVTG,241.63,T,,M,0.78,N,1.46,,*5F
$GPRMC,053852.000,A,3520.2269,N,139GPVTG,171.93,T,,M,1.34,N,2.4,2016,,*54
$GPRMC,053947.000,A,3520.1973,N,139GPVTG,185.56,T,,M,2.03,N,3.7,2016,,*51
$GPRMC,054629.000,A,3520.2559,N,13GPVTG,194.23,T,,M,2.00,N,3.721
$GPRMC,054648.000,A,3520.2458,N,139GPVTG,185.94,T,,M,1.30,N,2.456
$GPRMC,054724.000,A,3520.2224,N,1393VTG,183.19,T,,M,2.31,N,4.28,09,2016,,*5D
$GPRMC,054725.000,A,3520.2219,N,139PVTG,183.87,T,,M,2.33,N,4.32
$GPRMC,054738.000,A,3520.2135,N,139GPVTG,195.28,T,,M,2.98,N,5.5,*50
$GPRMC,054739.000,A,3520.2127,N,13GPVTG,196.90,T,,M,2.65,N,4.90*51
$GPRMC,054749.000,A,3520.2064,N,1393VTG,198.70,T,,M,2.58,N,4.79
$GPRMC,054751.000,A,3520.2052,N,139GPVTG,199.21,T,,M,2.02,N,3.7*5F
$GPRMC,054812.000,A,3520.1920,N,1393GPVTG,187.25,T,,M,3.74,N,6.,*57
$GPRMC,054814.000,A,3520.1903,N,139GPVTG,185.53,T,,M,3.29,N,6.1,,*51
$GPRMC,054826.000,A,3520.1815,N,13938VTG,194.19,T,,M,2.78,N,5.16,,*50
$GPRMC,054836.000,A,3520.1758,N,139GPVTG,191.39,T,,M,3.00,N,5.5
$GPRMC,054907.000,A,3520.1739,N,1393GPVTG,10.80,T,,M,1.93,N,3.552
$GPRMC,055013.000,A,3520.2187,N,13PVTG,13.55,T,,M,2.59,N,4.80,K5F
$GPRMC,055157.000,A,3520.2636,N,13938.1505,E,1.60,181.80,250916N,2.96,K,D*32
$GPRMC,055158.000,A,3520.2630,N,13938.1504,E,2.32,181.17,250916,4.29,K,D*3A
$GPRMC,055159.000,A,3520.2625,N,13938.1504,E,1.38,180.04,2509162.55,K,D*3D
$GPRMC,055200.000,A,3520.2622,N,13938.1501,E,1.08,217.61,2509162.00,K,D*30
$GPRMC,055201.000,A,3520.2619,N,13938.1497,E,0.72,200.36,2509161.34,K,D*3C
$GPRMC,055202.000,A,3520.2615,N,13938.1495,E,1.26,178.64,250916,2.34,K,D*34
$GPRMC,055203.000,A,3520.2610,N,13938.1494,E,1.42,182.06,2509162.64,K,D*32
$GPRMC,055204.000,A,3520.2606,N,13938.1493,E,1.25,182.04,2509165,N,2.31,K,D*31
$GPRMC,055205.000,A,3520.2600,N,13938.1490,E,1.89,184.47,250916,3.51,K,D*31
$GPRMC,055206.000,A,3520.2595,N,13938.1490,E,1.68,184.39,250916,N,3.10,K,D*32
$GPRMC,055207.000,A,3520.2589,N,13938.1489,E,1.75,186.38,250916,3.24,K,D*3A
$GPRMC,055208.000,A,3520.2582,N,13938.1488,E,1.92,185.82,250916,3.55,K,D*37
$GPRMC,055209.000,A,3520.2576,N,13938.1487,E,1.96,187.42,250916,3.64,K,D*3F
$GPRMC,055210.000,A,3520.2569,N,13938.1487,E,2.35,187.22,250916,N,4.35,K,D*30
$GPRMC,055211.000,A,3520.2561,N,13938.1486,E,2.37,187.95,250916N,4.40,K,D*3C
$GPRMC,055212.000,A,3520.2554,N,13938.1486,E,2.30,187.72,250916,4.27,K,D*33
$GPRMC,055213.000,A,3520.2547,N,13938.1485,E,2.33,188.27,2509164.32,K,D*3B
$GPRMC,055214.000,A,3520.2540,N,13938.1485,E,2.35,186.91,2509165,N,4.35,K,D*39
$GPRMC,055215.000,A,3520.2532,N,13938.1484,E,2.63,185.86,250916.88,K,D*39
$GPRMC,055216.000,A,3520.2525,N,13938.1484,E,1.77,185.79,250916N,3.28,K,D*32
$GPRMC,055217.000,A,3520.2518,N,13938.1483,E,3.07,185.16,250916.69,K,D*3D
$GPRMC,055218.000,A,3520.2510,N,13938.1482,E,1.99,185.17,2509163.69,K,D*3F
$GPRMC,055219.000,A,3520.2503,N,13938.1480,E,2.75,185.33,250916,5.09,K,D*38
$GPRMC,055220.000,A,3520.2496,N,13938.1479,E,2.09,185.86,250916,3.88,K,D*32
$GPRMC,055221.000,A,3520.2488,N,13938.1478,E,2.99,185.45,250916.54,K,D*33
$GPRMC,055222.000,A,3520.2480,N,13938.1476,E,2.24,186.31,250916,4.16,K,D*32
$GPRMC,055223.000,A,3520.2473,N,13938.1474,E,2.31,186.53,250916.28,K,D*3F
$GPRMC,055224.000,A,3520.2466,N,13938.1472,E,2.69,187.86,250916,4.99,K,D*31
$GPRMC,055225.000,A,3520.2459,N,13938.1470,E,2.39,187.74,250916.43,K,D*3E
$GPRMC,055226.000,A,3520.2452,N,13938.1468,E,2.67,188.62,250916,4.95,K,D*36
$GPRMC,055227.000,A,3520.2444,N,13938.1466,E,2.46,189.08,2509164.55,K,D*34
$GPRMC,055228.000,A,3520.2436,N,13938.1464,E,2.66,189.72,2509164.93,K,D*31
$GPRMC,055229.000,A,3520.2430,N,13938.1463,E,2.09,190.21,250916.88,K,D*3B
$GPRMC,055230.000,A,3520.2422,N,13938.1460,E,3.20,192.56,2509165.93,K,D*3F
$GPRMC,055231.000,A,3520.2414,N,13938.1456,E,2.55,194.28,2509164.73,K,D*3C
$GPRMC,055232.000,A,3520.2407,N,13938.1452,E,2.99,194.49,250916,5.54,K,D*3F
$GPRMC,055233.000,A,3520.2400,N,13938.1449,E,2.12,206.99,250916N,3.92,K,D*35
$GPRMC,055234.000,A,3520.2396,N,13938.1447,E,2.87,205.61,2509165.32,K,D*31
$GPRMC,055235.000,A,3520.2389,N,13938.1443,E,2.36,206.73,2509164.38,K,D*30
$GPRMC,055236.000,A,3520.2384,N,13938.1441,E,2.38,204.94,2509168,N,4.42,K,D*38
$GPRMC,055237.000,A,3520.2377,N,13938.1438,E,2.62,204.77,250916.86,K,D*32
$GPRMC,055238.000,A,3520.2372,N,13938.1435,E,1.98,207.41,2509168,N,3.67,K,D*3A
$GPRMC,055239.000,A,3520.2366,N,13938.1432,E,2.96,206.45,2509165.48,K,D*39
$GPRMC,055240.000,A,3520.2360,N,13938.1430,E,1.84,207.00,250916,3.40,K,D*37
$GPRMC,055241.000,A,3520.2356,N,13938.1428,E,2.18,207.07,250916,4.05,K,D*30
$GPRMC,055242.000,A,3520.2350,N,13938.1426,E,2.71,206.34,2509165.02,K,D*38
$GPRMC,055243.000,A,3520.2345,N,13938.1423,E,2.11,206.06,250916N,3.90,K,D*32
$GPRMC,055244.000,A,3520.2339,N,13938.1421,E,2.30,205.65,250916,4.26,K,D*3D
$GPRMC,055245.000,A,3520.2334,N,13938.1419,E,2.23,204.85,250916N,4.13,K,D*36
$GPRMC,055246.000,A,3520.2329,N,13938.1418,E,2.26,203.90,2509164.19,K,D*3A
$GPRMC,055247.000,A,3520.2322,N,13938.1415,E,2.79,203.22,250916.17,K,D*36
$GPRMC,055248.000,A,3520.2315,N,13938.1413,E,2.12,204.25,250916,3.92,K,D*30
$GPRMC,055249.000,A,3520.2309,N,13938.1409,E,2.73,203.99,250916,5.07,K,D*3D
$GPRMC,055250.000,A,3520.2303,N,13938.1406,E,2.03,205.63,250916,3.77,K,D*38
$GPRMC,055251.000,A,3520.2298,N,13938.1403,E,2.09,205.39,2509169,N,3.88,K,D*3D
$GPRMC,055252.000,A,3520.2292,N,13938.1399,E,2.39,205.68,2509164.43,K,D*3A
$GPRMC,055253.000,A,3520.2287,N,13938.1395,E,1.79,206.51,250916,3.32,K,D*35
$GPRMC,055254.000,A,3520.2282,N,13938.1392,E,2.80,206.68,2509165.18,K,D*34
$GPRMC,055255.000,A,3520.2276,N,13938.1388,E,2.01,208.30,250916,3.73,K,D*35
$GPRMC,055256.000,A,3520.2270,N,13938.1384,E,2.21,209.52,250916,4.10,K,D*30
$GPRMC,055257.000,A,3520.2265,N,13938.1380,E,1.96,209.81,250916N,3.63,K,D*32
$GPRMC,055258.000,A,3520.2258,N,13938.1376,E,3.01,209.44,250916,5.57,K,D*36
$GPRMC,055259.000,A,3520.2253,N,13938.1372,E,1.99,210.00,250916,3.70,K,D*3E
$GPRMC,055300.000,A,3520.2247,N,13938.1368,E,2.31,208.33,250916.28,K,D*3C
$GPRMC,055301.000,A,3520.2240,N,13938.1364,E,2.49,207.91,250916.62,K,D*3A
$GPRMC,055302.000,A,3520.2236,N,13938.1360,E,2.90,207.07,250916,5.38,K,D*3F
$GPRMC,055303.000,A,3520.2229,N,13938.1355,E,1.94,207.30,2509163.59,K,D*3D
$GPRMC,055304.000,A,3520.2222,N,13938.1350,E,3.16,206.30,2509165.86,K,D*30
$GPRMC,055305.000,A,3520.2214,N,13938.1345,E,3.18,207.11,2509165.90,K,D*3B
$GPRMC,055306.000,A,3520.2207,N,13938.1341,E,2.28,206.79,2509164.22,K,D*3E
$GPRMC,055307.000,A,3520.2200,N,13938.1338,E,3.13,206.34,250916,5.80,K,D*37
$GPRMC,055308.000,A,3520.2191,N,13938.1333,E,2.29,206.36,250916,4.24,K,D*32
$GPRMC,055309.000,A,3520.2183,N,13938.1330,E,3.21,205.62,250916,5.94,K,D*33
$GPRMC,055310.000,A,3520.2175,N,13938.1326,E,2.57,206.62,250916,4.76,K,D*3D
$GPRMC,060202.000,A,3520.2335,N,13938.0834,E,0.21,110.30,250916,,,D*68
$GPRMC,060853.000,A,3560.58,250916,,,D*00,25,09,2016,,*55
$GPRMC,060901.000,A,360.58,250916,,,D*500,25,09,2016,,*53
$GPRMC,060908.000,A,3560.58,250916,,,D*0,25,09,2016,,*5A
$GPRMC,060911.000,A,3560.58,250916,,,D*,25,09,2016,,*52
$GPRMC,060916.000,A,35214.01,250916,,,D16.000,25,09,2016,,*55
$GPRMC,060917.000,A,3214.01,250916,,,D*.000,25,09,2016,,*54
$GPRMC,060928.000,A,35358.54,250916,,,D000,25,09,2016,,*58
$GPRMC,062722.000,A,3565.45,250916,,,D*00,25,09,2016,,*5E
$GPRMC,062723.000,A,3526.08,250916,,,D*00,25,09,2016,,*5F
$GPRMC,062728.000,A,3571.31,250916,,,D*.000,25,09,2016,,*54
$GPRMC,062731.000,A,3571.31,250916,,,D*00,25,09,2016,,*5C
$GPRMC,062838.000,A,3571.31,250916,,,D*00,25,09,2016,,*5A
$GPRMC,062839.000,A,352.31,250916,,,D*5,25,09,2016,,*5B
$GPRMC,063232.000,A,3520.2209,N,13937.9821,E1,T,,M,0.03,N,0.05,K,D*0A
$GPRMC,063240.000,A,3520.2189,N,13937.9797,E.31,T,,M,0.05,N,0.10,K,D*08
$GPRMC,063250.000,A,3520.2181,N,13937.9794,E.31,T,,M,0.01,N,0.02,K,D*0F
$GPRMC,063251.000,A,3520.2177,N,13937.9791,E,M,0.02,N,0.04,K,D*0A
$GPRMC,063256.000,A,3520.2166,N,13937.9781,E.31,T,,M,0.03,N,0.06,K,D*09
$GPRMC,063321.000,A,3520.2162,N,13937.9781,EM,0.01,N,0.02,K,D*0F
$GPRMC,063333.000,A,3520.2153,N,13937.9771,T,,M,0.01,N,0.03,K,D*0E
$GPRMC,063338.000,A,3520.2158,N,13937.9771,1,T,,M,0.03,N,0.05,K,D*0A
$GPRMC,063340.000,A,3520.2165,N,13937.9769,E,0.03,71.31,250916,03,N,0.06,K,D*09
$GPRMC,063344.000,A,3520.2165,N,13937.9769,E,0.00,71.31,250916,00,N,0.01,K,D*0D
$GPRMC,063350.000,A,3520.2165,N,13937.9770,E,0.04,71.31,250916,04,N,0.07,K,D*0F
$GPRMC,063409.000,A,3520.2166,N,13937.9771,E,0.04,71.31,250916,4,N,0.07,K,D*0F
$GPRMC,063410.000,A,3520.2166,N,13937.9771,E,0.04,71.31,250916,4,N,0.07,K,D*0F
$GPRMC,063425.000,A,3520.2167,N,13937.9772,E,0.05,71.31,250916,05,N,0.09,K,D*00
$GPRMC,063439.000,A,3520.2168,N,13937.9775,E,0.02,71.31,250916,0.04,K,D*0A
$GPRMC,063515.000,A,3520.2170,N,13937.9780,E,0.04,71.31,250916,N,0.07,K,D*0F
$GPRMC,063521.000,A,3520.2170,N,13937.9780,E,0.02,71.31,250916,2,N,0.04,K,D*0A
$GPRMC,063523.000,A,3520.2170,N,13937.9780,E,0.03,71.31,250916,,,D*5D
$GPRMC,063551.000,A,3520.2168,N,13937.9816,E,0.01,71.31,250916,,,D*53
$GPRMC,063558.000,A,3520.2172,N,13937.9819,E,0.02,71.31,250916,02,N,0.03,K,D*0D
$GPRMC,063602.000,A,3520.2173,N,13937.9822,E,T,,M,0.02,N,0.05,K,D*0B
$GPRMC,063826.000,A,3520.2160,N,13937.9845,E,0.01,71.31,250D*5025,09,2016,,*54
$GPRMC,063925.000,A,3520.2161,N,13937.9846,E,0.01,71.31,250916,1,N,0.03,K,D*0E
$GPRMC,063926.000,A,3520.2161,N,13937.9846,E,0.01,71.31,250916,01,N,0.02,K,D*0F
$GPRMC,063927.000,A,3520.2161,N,13937.9846,E,0.01,71.31,250916,01,N,0.02,K,D*0F
$GPRMC,063928.000,A,3520.2161,N,13937.9846,E,0.01,71.31,250916,01,N,0.03,K,D*0E
$GPRMC,063929.000,A,3520.2161,N,13937.9846,E,0.01,71.31,250916,1,N,0.02,K,D*0F
$GPRMC,063930.000,A,3520.2161,N,13937.9846,E,0.00,71.31,250916,00,N,0.00,K,D*0C
$GPRMC,063931.000,A,3520.2161,N,13937.9846,E,0.00,71.31,250916,0,N,0.01,K,D*0D
$GPRMC,063933.000,A,3520.2161,N,13937.9846,E,0.01,71.31,250916,01,N,0.02,K,D*0F
$GPRMC,063934.000,A,3520.2161,N,13937.9846,E,0.01,71.31,250916,01,N,0.02,K,D*0F
$GPRMC,063936.000,A,3520.2161,N,13937.9846,E,0.02,71.31,250916,02,N,0.03,K,D*0D
$GPRMC,063937.000,A,3520.2161,N,13937.9846,E,0.02,71.31,250916,02,N,0.03,K,D*0D
$GPRMC,063938.000,A,3520.2161,N,13937.9846,E,0.01,71.31,250916,01,N,0.03,K,D*0E
$GPRMC,063939.000,A,3520.2161,N,13937.9846,E,0.01,71.31,250916,01,N,0.02,K,D*0F
$GPRMC,063941.000,A,3520.2161,N,13937.9846,E,0.01,71.31,250916,01,N,0.02,K,D*0F
$GPRMC,064002.000,A,3520.2161,N,13937.9847,E,0.02,71.31,250916,02,N,0.03,K,D*0D
$GPRMC,064104.000,A,3520.2162,N,13937.9848,E,0.00,71.31,250916,00,N,0.00,K,D*0C
$GPRMC,064131.000,A,3520.2159,N,13937.9861,E,0.03,71.31,250916,,,D*56
$GPRMC,064216.000,A,3520.2158,N,13937.9883,E31,T,,M,0.02,N,0.03,K,D*0D
$GPRMC,064633.000,A,3520.2162,N,13937.9884,,M,0.01,N,0.02,K,D*0F
$GPRMC,064703.000,A,3520.2155,N,13937.9897,E,,M,0.02,N,0.04,K,D*0A
$GPRMC,064929.000,A,3520.2155,N,13937.9877,E,0.01,71.31,250916,01,N,0.03,K,D*0E
$GPRMC,065437.000,A,3520.2160,N,13937.9869,E,0.00,71.31,250916,00,N,0.00,K,D*0C
$GPRMC,065443.000,A,3520.2160,N,13937.9869,E,0.01,71.31,250916,,,D*57
$GPRMC,065741.000,A,3520.2159,N,13937.9863,E,0.02,71.31,250916,02,N,0.03,K,D*0D
$GPRMC,070207.000,A,,250916,,,D*6B,25,09,2016,,*5F
$GPRMC,070236.000,A39,250916,,,D*60,25,09,2016,,*5D
$GPRMC,070300.000,A,3520.1113,N,6,0.000,25,09,2016,,*59
