$GPRMC,014023.000,A,3533.4970,N,13942.7462GPVTG,330.50,T,,M,0.22,N,0.40,K,A*3C
CalmanFilter:0.00 10.48 4.23
$GPRMC,014037.000,A,3533.4982,N,13942.7471,TG,330.50,T,,M,0.24,N,0.44,K,A*3E
CalmanFilter:0.00 10.48 4.18
$GPRMC,014044.000,A,3533.4985,N,13942.7
CalmanFilter:0.00 10.46 4.22
$GPRMC,014419.000,A,3533.5056,N,13942.743GPVTG,281.09,T,,M,0.47,N,0.88,K,A*3C
CalmanFilter:0.00 10.55 4.22
$GPRMC,014427.000,A,3533.5063,N,13942.742GPVTG,281.09,T,,M,0.34,N,0.62,K,A*3C
CalmanFilter:0.00 10.48 4.38
$GPRMC,015446.000,A,3533.4968,N,13942.7408,
CalmanFilter:0.00 10.56 4.40
$GPRMC,021312.000,A,3533.4817,N,13942.738
CalmanFilter:0.00 10.52 4.22
$GPRMC,021322.000,A,3533.4789,N,13942.7399,E,0.61,185.67,270916,,A*62
CalmanFilter:0.00 10.30 4.19
$GPRMC,021324.000,A,3533.4782,N,13942.7398,E,0.62,176.76,270916*61
CalmanFilter:0.00 10.55 4.02
$GPRMC,021325.000,A,3533.4780,N,13942.7400,E,0.64,179.99,270916A*6C
CalmanFilter:0.00 10.58 3.87
$GPRMC,021328.000,A,3533.4783,N,13942.7405,E,0.39,179.24,270916,A*69
CalmanFilter:0.00 10.61 4.29
$GPRMC,021331.000,A,3533.4787,N,13942.7407,E,0.30,179.44,270916,A*68
CalmanFilter:0.00 10.55 4.22
$GPRMC,021332.000,A,3533.4786,N,13942.7408,E,0.27,179.44,27091663
CalmanFilter:0.00 10.53 4.38
$GPRMC,021333.000,A,3533.4785,N,13942.7408,E,0.20,179.44,270916
CalmanFilter:0.00 10.48 4.24
$GPRMC,021334.000,A,3533.4785,N,13942.7409,E,0.25,179.44,2*65
CalmanFilter:0.00 10.60 4.24
$GPRMC,021334.000,A,3533.4785,N,13942.7409,E,0.25,179.44,2*65
27,09,2016,,*58
CalmanFilter:0.00 10.60 4.22
$GPRMC,021337.000,A,3533.4788,N,13942.7414,E,0.29,179.44,270916
CalmanFilter:0.00 10.56 3.94
$GPRMC,021342.000,A,3533.4792,N,13942.7421,E,0.17,179.44,270916
CalmanFilter:0.00 10.51 4.23
$GPRMC,021343.000,A,3533.4791,N,13942.7421,E,0.13,179.44,270916F
CalmanFilter:0.00 10.58 4.12
$GPRMC,021344.000,A,3533.4791,N,13942.7422,E,0.15,179.44,270916*6D
CalmanFilter:0.00 10.67 4.19
$GPRMC,021347.000,A,3533.4793,N,13942.7423,E,0.33,179.44,270916,A*69
CalmanFilter:0.00 10.53 4.05
$GPRMC,021356.000,A,3533.4796,N,13942.7427,E,0.13,179.44,2709166A
CalmanFilter:0.00 10.56 4.14
$GPRMC,021358.000,A,3533.4797,N,13942.7427,E,0.19,179.44,270916F
CalmanFilter:0.00 10.55 4.09
$GPRMC,021359.000,A,3533.4798,N,13942.7428,E,0.22,179.44,270916
CalmanFilter:0.00 10.57 4.08
$GPRMC,021408.000,A,3533.4806,N,13942.7433,E,0.55,179.44,270916
CalmanFilter:0.00 10.52 4.09
$GPRMC,021411.000,A,3533.4810,N,13942.7434,E,0.60,14.18,270916,5A
CalmanFilter:0.00 10.36 4.38
$GPRMC,021415.000,A,3533.4829,N,13942.7440,E,0.65,3.60,270916,,*6B
CalmanFilter:0.00 10.58 4.24
$GPRMC,021416.000,A,3533.4833,N,13942.7440,E,0.64,1.86,270916,,
CalmanFilter:0.00 10.49 4.14
$GPRMC,021418.000,A,3533.4842,N,13942.7444,E,0.64,6.87,270916,,2
CalmanFilter:0.00 10.64 4.45
$GPRMC,021420.000,A,3533.4849,N,13942.7447,E,0.62,17.35,270916,
CalmanFilter:0.00 10.57 4.08
$GPRMC,021422.000,A,3533.4852,N,13942.7452,E,0.65,18.58,270916,,,A*51
CalmanFilter:0.00 10.54 3.78
$GPRMC,021424.000,A,3533.4857,N,13942.7455,E,0.65,4.98,270916,,4
CalmanFilter:0.00 10.55 4.36
$GPRMC,021425.000,A,3533.4859,N,13942.7457,E,0.62,4.98,270916,,
CalmanFilter:0.00 10.49 4.31
$GPRMC,021430.000,A,3533.4869,N,13942.7468,E,0.56,5.92,270916,,
CalmanFilter:0.00 10.39 4.09
$GPRMC,021431.000,A,3533.4870,N,13942.7468,E,0.44,5.88,270916,,
CalmanFilter:0.00 10.53 4.07
$GPRMC,021433.000,A,3533.4872,N,13942.7469,E,0.26,5.88,270916,,D
CalmanFilter:0.00 10.51 4.24
$GPRMC,021434.000,A,3533.4873,N,13942.7470,E,0.18,5.88,270916,,
CalmanFilter:0.00 10.39 4.25
$GPRMC,021435.000,A,3533.4873,N,13942.7470,E,0.16,5.88,270916,,,A*61
CalmanFilter:0.00 10.59 4.37
$GPRMC,021438.000,A,3533.4874,N,13942.7469,E,0.17,5.88,270916,,2
CalmanFilter:0.00 10.58 4.02
$GPRMC,021448.000,A,3533.4869,N,13942.7463VTG,5.88,T,,M,0.41,N,0.75,K,A*3F
CalmanFilter:0.00 10.59 4.31
$GPRMC,021824.000,A,3533.4748,N,13942.7414,E,0.19,205.83,270916,,,A*6E
CalmanFilter:0.00 10.62 4.27
$GPRMC,021826.000,A,3533.4747,N,13942.7412,E,0.21,205.83,270916
CalmanFilter:0.00 10.56 4.17
$GPRMC,021827.000,A,3533.4747,N,13942.7412,E,0.23,205.83,270916,,,A*6D
CalmanFilter:0.00 10.27 4.14
$GPRMC,021831.000,A,3533.4745,N,13942.7412,E,0.07,205.83,270916,,,A*6E
CalmanFilter:0.00 10.55 4.12
$GPRMC,021834.000,A,3533.4745,N,13942.7412,E,0.11,205.83,270916,,,A*6C
CalmanFilter:0.00 10.47 4.44
$GPRMC,021835.000,A,3533.4745,N,13942.7412,E,0.06,205.83,270916,,,A*6B
CalmanFilter:0.00 10.50 4.44
$GPRMC,021836.000,A,3533.4745,N,13942.7412,E,0.18,205.83,270916,,,A*67
CalmanFilter:0.00 10.59 3.86
$GPRMC,021844.000,A,3533.4749,N,13942.7415,E,0.23,205.83,270916,,,A*61
CalmanFilter:0.00 10.43 4.26
$GPRMC,021914.000,A,3533.4828,N,13942.7438,E,0.15,27.13,270916,
CalmanFilter:0.00 10.60 4.38
$GPRMC,021918.000,A,3533.4827,N,13942.7438,E,0.31,27.13,270916,,,A*59
CalmanFilter:0.00 10.60 4.15
$GPRMC,021919.000,A,3533.4827,N,13942.7438,E,0.27,27.13,270916,,,A*5F
CalmanFilter:0.00 10.48 4.10
$GPRMC,021921.000,A,3533.4825,N,13942.7437,E,0.33,27.13,270916,,,A*5C
CalmanFilter:0.00 10.51 4.34
$GPRMC,021922.000,A,3533.4825,N,13942.7436,E,0.31,27.13,270916,,,A*5C
CalmanFilter:0.00 10.73 4.37
$GPRMC,021923.000,A,3533.4824,N,13942.7435,E,0.24,27.13,270916,,,A*5B
CalmanFilter:0.00 10.28 4.27
$GPRMC,021926.000,A,3533.4823,N,13942.7434,E,0.24,27.13,270916,8
CalmanFilter:0.00 10.39 4.00
$GPRMC,021931.000,A,3533.4819,N,13942.7432,E,0.31,27.13,270916,,,A*55
CalmanFilter:0.00 10.54 4.14
$GPRMC,021932.000,A,3533.4818,N,13942.7432,E,0.37,27.13,270916,,,A*51
CalmanFilter:0.00 10.58 4.06
$GPRMC,021957.000,A,3533.4811,N,13942.7433,E,27.13,T,,M,0.49,N,0.90,K,A*0E
CalmanFilter:0.00 10.50 4.10
$GPRMC,021959.000,A,3533.4814,N,13942.7434,E
CalmanFilter:0.00 10.40 4.34
$GPRMC,022004.000,A,3533.4820,N,13942.7438,EPVTG,27.13,T,,M,0.50,N,0.92,K,A*04
CalmanFilter:0.00 10.54 4.39
$GPRMC,022008.000,A,3533.4827,N,13942.7441,E,,A*58
CalmanFilter:0.00 10.56 4.19
$GPRMC,022013.000,A,3533.4831,N,13942.74
CalmanFilter:0.00 10.58 4.10
$GPRMC,022014.000,A,3533.4832,N,13942.7444,E52
CalmanFilter:0.00 10.55 4.32
$GPRMC,022017.000,A,3533.4834,N,13942.7446,E,0.VTG,22.70,T,,M,09
CalmanFilter:0.00 10.54 4.23
$GPRMC,022018.000,A,3533.4834,N,13942.74
CalmanFilter:0.00 10.52 4.05
$GPRMC,022019.000,A,3533.4835,N,13942.7446,EVTG,22.70,T,,M,0.09,N,0.17,K,A*05
CalmanFilter:0.00 10.43 3.77
$GPRMC,022021.000,A,3533.4835,N,13942.7446,E,0.01,22.70G,22.70,016,,*5C
CalmanFilter:0.00 10.59 4.16
$GPRMC,022023.000,A,3533.4835,N,13942.7446,E,0.09,22.70,270916,,,A*5A
CalmanFilter:0.00 10.62 4.38
$GPRMC,022024.000,A,3533.4835,N,13942.7445,E,0.15,22.70,270916,A*53
CalmanFilter:0.00 10.55 4.32
$GPRMC,022025.000,A,3533.4834,N,13942.7445,E,0.14,22.70,270916,*52
CalmanFilter:0.00 10.59 3.98
$GPRMC,022026.000,A,3533.4834,N,13942.7445,E,0.15,22.70,270916,,,A*50
CalmanFilter:0.00 10.57 4.33
$GPRMC,022028.000,A,3533.4833,N,13942.7445,E,0.06,22.70,270916,,,A*5B
CalmanFilter:0.00 10.55 4.13
$GPRMC,022030.000,A,3533.4833,N,13942.7444,E,0.23,22.70,270916,,A*54
CalmanFilter:0.00 10.67 4.18
$GPRMC,022031.000,A,3533.4832,N,13942.7443,E,0.27,22.70,270916,,,A*57
CalmanFilter:0.00 10.56 4.30
$GPRMC,022034.000,A,3533.4831,N,13942.7441,E,0.26,22.70,270916,*52
CalmanFilter:0.00 10.46 4.05
$GPRMC,022037.000,A,3533.4830,N,13942.7438,E,0.23,22.70,270916,*5B
CalmanFilter:0.00 10.54 4.02
$GPRMC,022038.000,A,3533.4830,N,13942.7438,E,0.11,22.70,270916,,,A*55
CalmanFilter:0.00 10.45 4.43
$GPRMC,022041.000,A,3533.4831,N,13942.7437,E,0.24,22.6,,,A*53
CalmanFilter:0.00 10.62 4.06
$GPRMC,022041.000,A,3533.4831,N,13942.7437,E,0.24,22.6,,,A*53
,27,09,2016,,*5A
CalmanFilter:0.00 10.61 4.10
$GPRMC,022043.000,A,3533.4832,N,13942.7436,E,0.20,22.70,2A*57
CalmanFilter:0.00 10.53 4.26
$GPRMC,022043.000,A,3533.4832,N,13942.7436,E,0.20,22.70,2A*57
7,09,2016,,*58
CalmanFilter:0.00 10.53 4.27
$GPRMC,022045.000,A,3533.4833,N,13942.7436,E,0.13,22.7GPVTG,22.6,,*5E
CalmanFilter:0.00 10.54 4.26
$GPRMC,022047.000,A,3533.4833,N,13942.7435,E,0.24,22.70,270916,55
CalmanFilter:0.00 10.53 4.03
$GPRMC,022048.000,A,3533.4834,N,13942.7435,E,0.26,22.70,270916,*5F
CalmanFilter:0.00 10.60 4.41
$GPRMC,022049.000,A,3533.4834,N,13942.7434,E,0.34,22.70,270916,,,A*5C
CalmanFilter:0.00 10.37 4.19
$GPRMC,022050.000,A,3533.4835,N,13942.7433,E,0.38,22.70,270916,A*5E
CalmanFilter:0.00 10.50 4.05
$GPRMC,022053.000,A,3533.4835,N,13942.7429,E,0.35,22.70,270916,,,A*5B
CalmanFilter:0.00 10.54 4.22
$GPRMC,022055.000,A,3533.4835,N,13942.7426,E,0.23,22.70,270916,55
CalmanFilter:0.00 10.50 4.20
$GPRMC,022056.000,A,3533.4835,N,13942.7426,E,0.17,22.70,270916,*51
CalmanFilter:0.00 10.60 4.28
$GPRMC,022059.000,A,3533.4835,N,13942.7423,E,0.27,22.70,27098
CalmanFilter:0.00 10.52 4.32
$GPRMC,022059.000,A,3533.4835,N,13942.7423,E,0.27,22.70,27098
09,2016,,*53
CalmanFilter:0.00 10.54 4.30
$GPRMC,022101.000,A,3533.4834,N,13942.7422,E,0.25,22.,,A*56
CalmanFilter:0.00 10.49 4.06
$GPRMC,022104.000,A,3533.4834,N,13942.7419,E,0.10,22.70,270916,D
CalmanFilter:0.00 10.62 4.31
$GPRMC,022106.000,A,3533.4834,N,13942.7419,E,0.20,22.70,270916,5C
CalmanFilter:0.00 10.37 4.16
$GPRMC,022107.000,A,3533.4835,N,13942.7419,E,0.26,22.70,270916,*5A
CalmanFilter:0.00 10.57 4.11
$GPRMC,022110.000,A,3533.4838,N,13942.7418,E,0.46,22.70,270916,
CalmanFilter:0.00 10.56 4.33
$GPRMC,022111.000,A,3533.4839,N,13942.7418,E,0.48,22.70,270916,,,A*58
CalmanFilter:0.00 10.60 4.32
$GPRMC,022112.000,A,3533.4840,N,13942.7418,E,0.57,22.70,270916,B
CalmanFilter:0.00 10.58 4.20
$GPRMC,022117.000,A,3533.4854,N,13942.7424,E,0.65,15.65,270916,*55
CalmanFilter:0.00 10.55 4.23
$GPRMC,022118.000,A,3533.4857,N,13942.7425,E,0.62,12.99,270916,*5B
CalmanFilter:0.00 10.57 4.09
$GPRMC,022119.000,A,3533.4859,N,13942.7426,E,0.59,12.99,270916,
CalmanFilter:0.00 10.55 4.21
$GPRMC,022120.000,A,3533.4863,N,13942.7429,E,0.58,16.32,270957,09,2016,,*5C
CalmanFilter:0.00 10.54 4.16
$GPRMC,022125.000,A,3533.4873,N,13942.7437,E,0.58,13.57,27*5A
CalmanFilter:0.00 10.70 4.04
$GPRMC,022125.000,A,3533.4873,N,13942.7437,E,0.58,13.57,27*5A
,09,2016,,*59
CalmanFilter:0.00 10.64 4.07
$GPRMC,022126.000,A,3533.4874,N,13942.7438,E,0.57,13.57,270E
CalmanFilter:0.00 10.52 4.08
$GPRMC,022128.000,A,3533.4876,N,13942.7439,E,0.46,13.57,270916,3
CalmanFilter:0.00 10.58 4.39
$GPRMC,022129.000,A,3533.4877,N,13942.7439,E,0.42,13.57,270916,*57
CalmanFilter:0.00 10.63 4.22
$GPRMC,022136.000,A,3533.4887,N,13942.7443,E,0.38,13.57,276
CalmanFilter:0.00 10.56 4.13
$GPRMC,022141.000,A,3533.4890,N,139429
CalmanFilter:0.00 10.57 4.15
$GPRMC,022225.000,A,3533.4811,N,13942.7399,E,0.36,199.15,2709163
CalmanFilter:0.00 10.58 4.21
$GPRMC,022227.000,A,3533.4812,N,13942.7399,E,0.270916,,,A*6D
CalmanFilter:0.00 10.55 4.05
$GPRMC,022228.000,A,3533.4811,N,13942.7398,E,0.25,199.15,2706D27,09,2016,,*57
CalmanFilter:0.00 10.58 4.30
$GPRMC,022229.000,A,3533.4811,N,13942.7
CalmanFilter:0.00 10.56 4.39
$GPRMC,022238.000,A,3533.4814,N,13942.7403,E,0.38,199.15,270916
CalmanFilter:0.00 10.43 4.08
$GPRMC,022241.000,A,3533.4817,N,13942.7406,E,0.49,199.15,270916A*6E
CalmanFilter:0.00 10.56 4.35
$GPRMC,022242.000,A,3533.4818,N,13942.7407,E,0.44,199.15,270916*6E
CalmanFilter:0.00 10.57 3.95
$GPRMC,022243.000,A,3533.4819,N,13942.7409,E,0.49,199.15,270916A*6D
CalmanFilter:0.00 10.64 4.10
$GPRMC,022244.000,A,3533.4820,N,13942.7410,E,0.50,199.15,270916
CalmanFilter:0.00 10.54 4.18
$GPRMC,022247.000,A,3533.4831,N,13942.7418,E,0.67,40.52,270916,9
CalmanFilter:0.00 10.59 4.21
$GPRMC,022248.000,A,3533.4834,N,13942.7420,E,0.66,39.97,275E
CalmanFilter:0.00 10.51 4.35
$GPRMC,022249.000,A,3533.4839,N,13942.7425,E,0.70,39.95,270916,2
CalmanFilter:0.00 10.39 4.19
$GPRMC,022253.000,A,3533.4846,N,13942.7434,E,0.50,31.72,270916
CalmanFilter:0.00 10.59 4.38
$GPRMC,022253.000,A,3533.4846,N,13942.7434,E,0.50,31.72,270916
09,2016,,*5B
CalmanFilter:0.00 10.58 4.35
$GPRMC,022255.000,A,3533.4850,N,13942.7439,E,0.52,31.72,270916,C
CalmanFilter:0.00 10.54 4.27
$GPRMC,022258.000,A,3533.4852,N,13942.7443,E,0.56,33.80,270916,*55
CalmanFilter:0.00 10.50 4.18
$GPRMC,022259.000,A,3533.4851,N,13942.7443,E,0.49,33.80,270916,*59
CalmanFilter:0.00 10.57 4.19
$GPRMC,022300.000,A,3533.4850,N,13942.7444,E,0.28,33.80,270916,5
CalmanFilter:0.00 10.64 4.05
$GPRMC,022302.000,A,3533.4850,N,13942.7445,E,0.24,33.80,270916,A*5A
CalmanFilter:0.00 10.54 4.43
$GPRMC,022306.000,A,3533.4852,N,13942.7447,E,0.18,33.80,270916,,,A*51
CalmanFilter:0.00 10.59 4.27
$GPRMC,022307.000,A,3533.4852,N,13942.7447,E,0.11,33.80,270916,*59
CalmanFilter:0.00 10.55 4.26
$GPRMC,022308.000,A,3533.4853,N,13942.7447,E,0.12,33.80,270916,,A*54
CalmanFilter:0.00 10.66 3.98
$GPRMC,022309.000,A,3533.4853,N,13942.7448,E,0.10,33.80,270916,,,A*58
CalmanFilter:0.00 10.57 4.05
$GPRMC,022331.000,A,3533.4869,N,13942.7450,E,0.58,339.66,270916E
CalmanFilter:0.00 10.48 4.18
$GPRMC,022332.000,A,3533.4870,N,13942.7451,E,0.56,339.66,270916A*6A
CalmanFilter:0.00 10.48 4.05
$GPRMC,022334.000,A,3533.4870,N,13942.7456,E,0.52,339.66,2709
CalmanFilter:0.00 10.59 4.26
$GPRMC,022337.000,A,3533.4872,N,13942.7459,E,0.51,339.66,270916*62
CalmanFilter:0.00 10.57 4.34
$GPRMC,022345.000,A,3533.4876,N,13942.7459,E,0.20,339.66,27091665
CalmanFilter:0.00 10.48 4.46
$GPRMC,022346.000,A,3533.4876,N,13942.7458,E,0.24,339.66,270
CalmanFilter:0.00 10.48 4.08
$GPRMC,022348.000,A,3533.4875,N,13942.7456,E,0.41,339.66,2A*63,27,09,2016,,*50
CalmanFilter:0.00 10.59 4.00
$GPRMC,022350.000,A,3533.4873,N,13942.7455,E,0.41,339.66,2709F7,09,2016,,*59
CalmanFilter:0.00 10.60 4.37
$GPRMC,022353.000,A,3533.4869,N,13942.7455,E,0.52,339.66,270916A*65
CalmanFilter:0.00 10.56 4.18
$GPRMC,022355.000,A,3533.4866,N,13942.7455,E,0.66,182.05,2C
CalmanFilter:0.00 10.58 4.17
$GPRMC,022357.000,A,3533.4857,N,13942.7451,E,0.70,190.810
CalmanFilter:0.00 10.50 4.41
$GPRMC,022358.000,A,3533.4851,N,13942.7448,E,0.73,191.52,2709166D
CalmanFilter:0.00 10.51 4.16
$GPRMC,022401.000,A,3533.4837,N,13942.7440,E,0.87,192.70,270916*66
CalmanFilter:0.00 10.53 3.91
$GPRMC,022403.000,A,3533.4829,N,13942.7437,E,0.94,186.35,270916A*6D
CalmanFilter:0.00 10.44 4.16
$GPRMC,022405.000,A,3533.4822,N,13942.7436,E,0.95,185.90,270916,A*6C
CalmanFilter:0.00 10.46 4.04
$GPRMC,022406.000,A,3533.4818,N,13942.7436,E,0.94,176.30,2709161
CalmanFilter:0.00 10.64 4.18
$GPRMC,022410.000,A,3533.4794,N,13942.7424,E,0.98,186.55,27091,09,2016,,*5A
CalmanFilter:0.00 10.54 4.04
$GPRMC,022418.000,A,3533.4789,N,13942.7423,PVTG,170.40,T,,M,0.6
CalmanFilter:0.00 10.58 4.12
$GPRMC,022422.000,A,3533.4795,N,13942.7430,E,0.46,170.40,270917,,*5B
CalmanFilter:0.00 10.60 4.15
$GPRMC,022423.000,A,3533.4794,N,13942.7431,E,0.43,170.40,270916,,,A*61
CalmanFilter:0.00 10.47 4.01
$GPRMC,022424.000,A,3533.4793,N,13942.7432,E,0.35,16,,,A*63
CalmanFilter:0.00 10.52 4.19
$GPRMC,022427.000,A,3533.4791,N,13942.7434,E,0.33,6,,,A*62
CalmanFilter:0.00 10.62 4.10
$GPRMC,022430.000,A,3533.4789,N,13942.7437,E,0.26,170.40,270*6A27,09,2016,,*58
CalmanFilter:0.00 10.62 4.03
$GPRMC,022433.000,A,3533.4788,N,13942.7439,E,0.32,170,A*63
CalmanFilter:0.00 10.59 4.19
$GPRMC,022435.000,A,3533.4787,N,13942.7441,E,0.21,170.40,27*6727,09,2016,,*5D
CalmanFilter:0.00 10.55 4.19
$GPRMC,022436.000,A,3533.4786,N,13942.7441,E,0.17,170.40,2TG,176,,*5E
CalmanFilter:0.00 10.57 4.38
$GPRMC,022437.000,A,3533.4786,N,13942.7442,E,0.12,170.40,2767
CalmanFilter:0.00 10.54 4.40
$GPRMC,022437.000,A,3533.4786,N,13942.7442,E,0.12,170.40,2767
27,09,2016,,*5F
CalmanFilter:0.00 10.56 4.35
$GPRMC,022441.000,A,3533.4787,N,13942.7441,E,0.16,16,,,A*60
CalmanFilter:0.00 10.53 4.31
$GPRMC,022445.000,A,3533.4795,N,13942.7442,E,0.06,170.40,27G,176,,*5A
CalmanFilter:0.00 10.51 4.16
$GPRMC,022447.000,A,3533.4795,N,13942.7443,E,0.16,170.6,,,A*67,27,09,2016,,*58
CalmanFilter:0.00 10.45 4.02
$GPRMC,022449.000,A,3533.4796,N,13942.7444,GPVTG,170.40,T,,M,0.6
CalmanFilter:0.00 10.48 4.28
$GPRMC,022451.000,A,3533.4797,N,13942.7445,E,0.32,170.40,270970*5F
CalmanFilter:0.00 10.60 4.18
$GPRMC,022454.000,A,3533.4798,N,13942.7447,E,0.33,170.40,,,A*6B,27,09,2016,,*5A
CalmanFilter:0.00 10.55 4.33
$GPRMC,022456.000,A,3533.4800,N,13942.7448,E,0.39,170.40,2VTG,116,,*58
CalmanFilter:0.00 10.61 4.01
$GPRMC,022457.000,A,3533.4801,N,13942.7449,E,0.41,170,A*6C
CalmanFilter:0.00 10.49 4.22
$GPRMC,022500.000,A,3533.4804,N,13942.7449,E,0.28,170.40,270916,,,A*65
CalmanFilter:0.00 10.63 4.06
$GPRMC,022501.000,A,3533.4805,N,13942.7449,E,0.39,170.40,270170,*5B
CalmanFilter:0.00 10.48 4.23
$GPRMC,022505.000,A,3533.4809,N,13942.7449,E,0.31,170.40,270970*5F
CalmanFilter:0.00 10.58 4.23
$GPRMC,022506.000,A,3533.4810,N,13942.7449,E,0.32,170.40,2709166D
CalmanFilter:0.00 10.55 4.35
$GPRMC,022507.000,A,3533.4811,N,13942.7449GPVTG,170.40,T,,M,0.2D
CalmanFilter:0.00 10.58 4.11
$GPRMC,022510.000,A,3533.4814,N,13942.7449,
CalmanFilter:0.00 10.58 4.10
$GPRMC,022511.000,A,3533.4815,N,13942.7448,GPVTG,170.40,T,,M,0.31,N,0.58,K,A*30
CalmanFilter:0.00 10.43 4.20
$GPRMC,022517.000,A,3533.4820,N,139A*68
CalmanFilter:0.00 10.52 4.38
$GPRMC,022525.000,A,3533.4821,N,13942.7447,E,0.21,1,170.40,T,,M
CalmanFilter:0.00 10.54 4.17
$GPRMC,022537.000,A,3533.4821,N,13942.744GPVTG,170.40,T,,M,0.22
CalmanFilter:0.00 10.59 4.18
$GPRMC,022636.000,A,3533.4815,N,13942.7360,E,0.25,170.40,27091662
CalmanFilter:0.00 10.66 4.21
$GPRMC,022639.000,A,3533.4822,N,13942.7366,E,0.24,170.40,270916,,,A*6E
CalmanFilter:0.00 10.54 4.31
$GPRMC,022640.000,A,3533.4826,N,13942.7372,E,0.25,170.40,270916,,A*60
CalmanFilter:0.00 10.45 4.24
$GPRMC,022641.000,A,3533.4827,N,13942.7376,E,0.27,170.40,270916A*66
CalmanFilter:0.00 10.56 4.16
$GPRMC,022643.000,A,3533.4831,N,13942.7383,E,0.28,170.40,270916A*66
CalmanFilter:0.00 10.54 4.26
$GPRMC,022652.000,A,3533.4835,N,13942.7390,E,0.33,170.40,270916A
CalmanFilter:0.00 10.55 4.17
$GPRMC,022653.000,A,3533.4835,N,13942.7391,E,0.38,170.40,270916,,,A*61
CalmanFilter:0.00 10.57 4.17
$GPRMC,022659.000,A,3533.4836,N,13942.7397,E,0.31,170.40,270916
CalmanFilter:0.00 10.51 4.34
$GPRMC,022849.000,A,3533.4826,N,13942.7430,E,0.14,152.72,2709165
CalmanFilter:0.00 10.52 4.31
$GPRMC,022853.000,A,3533.4825,N,13942.7426,E,0.17,152.72,270916*69
CalmanFilter:0.00 10.49 4.24
$GPRMC,022900.000,A,3533.4823,N,13942.7422,E,0.08,152.72,270916,,,A*62
CalmanFilter:0.00 10.55 4.34
$GPRMC,022901.000,A,3533.4824,N,13942.7422,E,0.06,152.72,270916,,,A*6A
CalmanFilter:0.00 10.60 4.07
$GPRMC,022902.000,A,3533.4824,N,13942.7422,E,0.11,152.72,270916A*6F
CalmanFilter:0.00 10.65 4.04
$GPRMC,022905.000,A,3533.4825,N,13942.7421,E,0.17,152.72,270916,A*6C
CalmanFilter:0.00 10.53 4.07
$GPRMC,022907.000,A,3533.4826,N,13942.7421,E,0.27,152.72,270916,,,A*6E
CalmanFilter:0.00 10.44 4.13
$GPRMC,022915.000,A,3533.4830,N,13942.7417,E,0.19,152.72,270916,,A*62
CalmanFilter:0.00 10.53 4.16
$GPRMC,022916.000,A,3533.4830,N,13942.7417,E,0.12,152.72,270916,A*6A
CalmanFilter:0.00 10.55 4.22
$GPRMC,022918.000,A,3533.4830,N,13942.7416,E,0.18,152.72,270916
CalmanFilter:0.00 10.56 4.16
$GPRMC,022921.000,A,3533.4829,N,13942.7414,E,0.21,152.72,270916,,,A*65
CalmanFilter:0.00 10.59 4.04
$GPRMC,022946.000,A,3533.4880,N,13942.7398,E,0.25,152.72,270916,,,A*60
CalmanFilter:0.00 10.51 4.10
$GPRMC,022947.000,A,3533.4880,N,13942.7397,E,0.07,152.72,270916,A*6E
CalmanFilter:0.00 10.46 4.56
$GPRMC,022951.000,A,3533.4878,N,13942.7397,E,0.09,152.72,270916,A*60
CalmanFilter:0.00 10.57 4.06
$GPRMC,022959.000,A,3533.4861,N,13942.7390,E,0.07,152.72,27091669
CalmanFilter:0.00 10.54 4.29
$GPRMC,023002.000,A,3533.4857,N,13942.7387,E,0.08,152.72,270916,,,A*63
CalmanFilter:0.00 10.50 4.31
$GPRMC,023003.000,A,3533.4857,N,13942.7386,E,0.05,152.72,270916
CalmanFilter:0.00 10.64 4.26
$GPRMC,023005.000,A,3533.4856,N,13942.7386,E,0.19,152.72,270916,,,A*64
CalmanFilter:0.00 10.67 4.15
$GPRMC,023006.000,A,3533.4855,N,13942.7386,E,0.22,152.72,270916*6C
CalmanFilter:0.00 10.66 4.38
$GPRMC,023007.000,A,3533.4855,N,13942.7386,E,0.21,152.72,270916,,,A*6E
CalmanFilter:0.00 10.49 4.47
$GPRMC,023008.000,A,3533.4854,N,13942.7386,E,0.22,152.72,270916,,,A*63
CalmanFilter:0.00 10.54 4.12
$GPRMC,023013.000,A,3533.4849,N,13942.7387,E,0.35,152.72,27091662
CalmanFilter:0.00 10.54 4.14
$GPRMC,023116.000,A,3533.4825,N,13942.7361,E,0.14,152.72,270916,,,A*67
CalmanFilter:0.00 10.59 4.05
$GPRMC,023119.000,A,3533.4824,N,13942.7361,E,0.14,152.72,270916,A*69
CalmanFilter:0.00 10.56 4.07
$GPRMC,023122.000,A,3533.4834,N,13942.7357,E,0.12,152.72,270916,A*63
CalmanFilter:0.00 10.50 4.25
$GPRMC,023125.000,A,3533.4837,N,13942.7356,E,0.21,152.72,270916,,,A*66
CalmanFilter:0.00 10.55 4.44
$GPRMC,023154.000,A,3533.4857,N,13942.7329,E,0.16,152.72,270916A
CalmanFilter:0.00 10.58 4.23
$GPRMC,023155.000,A,3533.4854,N,13942.7329,E,0.23,152.72,270916*6E
CalmanFilter:0.00 10.57 4.00
$GPRMC,023206.000,A,3533.4850,N,13942.7330,E,0.14,152.72,270916*63
CalmanFilter:0.00 10.50 4.00
$GPRMC,023212.000,A,3533.4850,N,13942.7338,E,0.21,152.72,270916A*68
CalmanFilter:0.00 10.54 4.33
$GPRMC,023217.000,A,3533.4848,N,13942.7353,E,0.42,152.72,270916*6C
CalmanFilter:0.00 10.44 4.23
$GPRMC,023337.000,A,3533.4834,N,13942.7390,E,0.08,110.16,270916A*61
CalmanFilter:0.00 10.57 4.42
$GPRMC,023342.000,A,3533.4833,N,13942.7390,E,0.35,110.16,270916,,,A*6A
CalmanFilter:0.00 10.66 4.45
$GPRMC,023343.000,A,3533.4832,N,13942.7389,E,0.28,110.16,270916,A*6E
CalmanFilter:0.00 10.56 4.31
$GPRMC,023344.000,A,3533.4831,N,13942.7389,E,0.15,110.16,270916*64
CalmanFilter:0.00 10.55 4.24
$GPRMC,023352.000,A,3533.4831,N,13942.7396,E,0.37,110.16,270916*6D
CalmanFilter:0.00 10.52 3.89
$GPRMC,023401.000,A,3533.4839,N,13942.7402,E,0.28,110.16,270916A*60
CalmanFilter:0.00 10.60 3.87
$GPRMC,023420.000,A,3533.4840,N,13942.7410,E,0.21,110.16,270916,,A*67
CalmanFilter:0.00 10.46 4.29
$GPRMC,023422.000,A,3533.4840,N,13942.7407,E,0.21,110.16,270916,,,A*63
CalmanFilter:0.00 10.54 4.35
$GPRMC,023732.000,A,3533.4853,N,13942.7451,E,0.51,356.28,270916,,,A*6A
CalmanFilter:0.00 10.36 4.19
$GPRMC,023735.000,A,3533.4857,N,13942.7451,E,0.33,356.28,270916,,A*6D
CalmanFilter:0.00 10.62 4.22
$GPRMC,023737.000,A,3533.4858,N,13942.7450,E,0.16,356.28,270916A*66
CalmanFilter:0.00 10.52 4.09
$GPRMC,023738.000,A,3533.4859,N,13942.7450,E,0.17,356.28,270916,,A*69
CalmanFilter:0.00 10.27 4.34
$GPRMC,023818.000,A,3533.4816,N,139*6C
CalmanFilter:0.00 10.53 4.22
$GPRMC,023827.000,A,3533.4820,N,6F
CalmanFilter:0.00 10.57 4.36
$GPRMC,023837.000,A,3533.4831,N,13942.58
CalmanFilter:0.00 10.66 4.41
$GPRMC,023907.000,A,3533.4890,N,13942.75
CalmanFilter:0.00 10.47 4.20
$GPRMC,023911.000,A,3533.4903,N,13942.7558,E,1.05,74.45,,M,1.05,N,1.94,K,A*07
CalmanFilter:0.00 10.57 4.10
$GPRMC,023919.000,A,3533.4924,N,13942*51
CalmanFilter:0.00 10.59 4.12
$GPRMC,023957.000,A,3533.4926,N,13942.7548,E,0.35,74.36,270916
CalmanFilter:0.00 10.53 4.37
$GPRMC,023957.000,A,3533.4926,N,13942.7548,E,0.35,74.36,270916
9,2016,,*55
CalmanFilter:0.00 10.53 4.35
$GPRMC,024255.000,A,3533.4868,N6,,,A*6E
CalmanFilter:0.00 10.54 4.17
$GPRMC,025553.000,A,3533.4887,N,13942.7399,E,0.27,178.47,270916
CalmanFilter:0.00 10.30 4.24
$GPRMC,025556.000,A,3533.4882,N,13942.7397,E,0.17,1786,,,A*68
CalmanFilter:0.00 10.56 4.38
$GPRMC,025636.000,A,3533.4856,N,13942.7390,GPVTG,178.47,T,,M,0.B
CalmanFilter:0.00 10.51 4.35
$GPRMC,025647.000,A,3533.4846,N,13942.7390,E,TG,197.10,T,,M,0.59,N,1.10,K,A*3F
CalmanFilter:0.00 10.44 4.01
$GPRMC,025656.000,A,3533.4836,N,13942.748
CalmanFilter:0.00 10.48 4.11
$GPRMC,025704.000,A,3533.4856,N,13942.7
CalmanFilter:0.00 10.56 4.14
$GPRMC,025722.000,A,3533.4873,N,13942.7475,E,0.17,87.28,270916,,,A*54
CalmanFilter:0.00 10.59 4.22
$GPRMC,025725.000,A,3533.4874,N,13942.7474,E,0.10,87.,,A*52
CalmanFilter:0.00 10.45 4.26
$GPRMC,025728.000,A,3533.4875,N,13942.7475,E,0.16,87.28,270916,,A*59
CalmanFilter:0.00 10.49 3.89
$GPRMC,025838.000,A,3533.4917,N,13942.7472,E,0.38,87.28,270916,
CalmanFilter:0.00 10.60 4.30
$GPRMC,025842.000,A,3533.4912,N,13942.7473,E,0.52,87.28,27091609,2016,,*56
CalmanFilter:0.00 10.56 4.23
$GPRMC,025843.000,A,3533.4911,N,13942.7474,E,0.54,87.28,270916,5F
CalmanFilter:0.00 10.57 4.11
$GPRMC,025847.000,A,3533.4902,N,13942.7473,E,0.60,180.01,27091664
CalmanFilter:0.00 10.39 4.28
$GPRMC,025849.000,A,3533.4895,N,13942.7470,E,0.63,177.62,27091668
CalmanFilter:0.00 10.80 3.97
$GPRMC,025850.000,A,3533.4896,N,13942.7471,E,0.57,177.62,27091665
CalmanFilter:0.00 10.40 4.25
$GPRMC,025855.000,A,3533.4892,N,13942.7472,E,0.54,177.45,270916
CalmanFilter:0.00 10.81 4.33
$GPRMC,025857.000,A,3533.4890,N,13942.7473,E,0.20,177.45,27091663
CalmanFilter:0.00 10.68 4.25
$GPRMC,025901.000,A,3533.4890,N,13942.7475,E,0.14,177.45,270916
CalmanFilter:0.00 10.60 4.31
$GPRMC,025911.000,A,3533.4894,N,13942.7482,E,0.16,177.45,270916,,,A*6F
CalmanFilter:0.00 10.35 4.37
$GPRMC,025912.000,A,3533.4894,N,13942.7482,E,0.11,177.45,270916*6B
CalmanFilter:0.00 10.24 4.20
$GPRMC,025914.000,A,3533.4895,N,13942.7482,E,0.29,177.45,270916,,,A*67
CalmanFilter:0.00 10.58 4.18
$GPRMC,025915.000,A,3533.4896,N,13942.7482,E,0.31,177.45,270916*6C
CalmanFilter:0.00 10.57 4.08
$GPRMC,025918.000,A,3533.4898,N,13942.7480,E,0.30,177.45,27
CalmanFilter:0.00 10.54 4.26
$GPRMC,025919.000,A,3533.4899,N,13942.7480,E,0.25,16,,,A*68
CalmanFilter:0.00 10.44 4.26
$GPRMC,025920.000,A,3533.4900,N,13942.7480,E,0.19,177.45,270916,,,A*6C
CalmanFilter:0.00 10.24 4.38
$GPRMC,025922.000,A,3533.4901,N,13942.7480,E,0.24,177.45,270916,,A*61
CalmanFilter:0.00 10.66 4.51
$GPRMC,025923.000,A,3533.4901,N,13942.7480,E,0.30,177.45,270916,,,A*65
CalmanFilter:0.00 10.97 4.19
$GPRMC,025924.000,A,3533.4902,N,13942.7480,E,0.30,177.4,,,A*61,27,09,2016,,*57
CalmanFilter:0.00 10.60 4.19
$GPRMC,025925.000,A,3533.4903,N,13942.7479,E,0.35,177.45,270917,09,2016,,*56
CalmanFilter:0.00 10.54 4.40
$GPRMC,025927.000,A,3533.4905,N,13942.7479,E,0.49,177.45D
CalmanFilter:0.00 10.63 4.27
$GPRMC,025928.000,A,3533.4906,N,13942.7478,E,0.57,177.45,270916
CalmanFilter:0.00 10.58 4.32
$GPRMC,025930.000,A,3533.4908,N,13942.7472,E,0.58,322.34,270916,,A*69
CalmanFilter:0.00 10.57 4.09
$GPRMC,025931.000,A,3533.4909,N,13942.7469,E,0.53,322.34,270916,,A*68
CalmanFilter:0.00 10.41 4.04
$GPRMC,025934.000,A,3533.4909,N,13942.7463,E,0.45,322.34,270916,,A*60
CalmanFilter:0.00 10.33 4.47
$GPRMC,025935.000,A,3533.4910,N,13942.7463,E,0.51,322.34,270916*6C
CalmanFilter:0.00 10.50 4.31
$GPRMC,025937.000,A,3533.4913,N,13942.7461,E,0.47,322.34,270916
CalmanFilter:0.00 10.71 4.11
$GPRMC,025938.000,A,3533.4914,N,13942.7460,E,0.42,322.34,27091664
CalmanFilter:0.00 10.52 4.40
$GPRMC,025939.000,A,3533.4915,N,13942.7459,E,0.42,322.34,270916A*6E
CalmanFilter:0.00 10.49 4.40
$GPRMC,025942.000,A,3533.4916,N,13942.7457,E,0.20,322.34,270916B
CalmanFilter:0.00 10.45 4.05
$GPRMC,025943.000,A,3533.4916,N,13942.7456,E,0.29,322.34,270916,,,A*62
CalmanFilter:0.00 10.43 4.03
$GPRMC,025948.000,A,3533.4918,N,13942.7452,E,0.08,322.34,270
CalmanFilter:0.00 10.74 4.31
$GPRMC,025952.000,A,3533.4919,N,13942.7450,E,0.22,322.34,27091660
CalmanFilter:0.00 10.63 4.09
$GPRMC,025954.000,A,3533.4919,N,13942.7448,E,0.32,322.34,270916
CalmanFilter:0.00 10.39 4.17
$GPRMC,025955.000,A,3533.4919,N,13942.7447,E,0.25,322.34,270916*66
CalmanFilter:0.00 10.45 4.07
$GPRMC,025959.000,A,3533.4917,N,13942.7444,E,0.18,322.34,270916,,,A*69
CalmanFilter:0.00 10.25 4.08
$GPRMC,030004.000,A,3533.4915,N,13942.7441,E,0.15,322.34,270916*66
CalmanFilter:0.00 10.32 3.97
$GPRMC,030006.000,A,3533.4914,N,13942.7441,E,0.22,322.34,270916A*61
CalmanFilter:0.00 10.55 4.13
$GPRMC,030008.000,A,3533.4913,N,13942.7440,E,0.32,322.34,27091668
CalmanFilter:0.00 10.69 4.12
$GPRMC,030011.000,A,3533.4910,N,13942.7439,E,0.40,322.34,270916
CalmanFilter:0.00 10.70 4.32
$GPRMC,030015.000,A,3533.4906,N,13942.7441,E,0.37,322.34,270916*64
CalmanFilter:0.00 10.57 4.24
$GPRMC,030023.000,A,3533.4900,N,13942.7450,E,0.64,122.03,270916
CalmanFilter:0.00 10.85 4.52
$GPRMC,030026.000,A,3533.4895,N,13942.7461,E,0.59,127.48,270916
CalmanFilter:0.00 10.73 4.31
$GPRMC,030030.000,A,3533.4896,N,13942.7473,E,0.43,127.48,270916
CalmanFilter:0.00 10.35 4.01
$GPRMC,030031.000,A,3533.4895,N,13942.7474,E,0.27,127.,,A*62
CalmanFilter:0.00 10.46 4.12
$GPRMC,030033.000,A,3533.4896,N,13942.7476,E,0.04,127.48,2709160
CalmanFilter:0.00 10.57 4.18
$GPRMC,030034.000,A,3533.4896,N,13942.7476,E,0.14,127.48,27091666
CalmanFilter:0.00 10.69 4.14
$GPRMC,030035.000,A,3533.4895,N,13942.7476,E,0.30,127.48,270916*62
CalmanFilter:0.00 10.59 4.27
$GPRMC,030043.000,A,3533.4896,N,13942.7482,E,0.22,127.48,2709168
CalmanFilter:0.00 10.56 4.25
$GPRMC,030044.000,A,3533.4896,N,13942.7482,E,0.24,127.48,270916,A*69
CalmanFilter:0.00 10.28 4.30
$GPRMC,030112.000,A,3533.4935,N,13942.7460,E,0.GPVTG,319.46,T,,5E
CalmanFilter:0.00 10.42 3.94
$GPRMC,030123.000,A,3533.4941,N,13942.7450,E,0.22,319.46,2709166A
CalmanFilter:0.00 10.34 4.27
$GPRMC,030125.000,A,3533.4945,N,13942.7451,E,0.24,319.46,270916,,A*6F
CalmanFilter:0.00 10.67 4.21
$GPRMC,030129.000,A,3533.4946,N,13942.7453,E,0.10,319.46,270916,,,A*65
CalmanFilter:0.00 10.49 4.28
$GPRMC,030131.000,A,3533.4946,N,13942.7453,E,0.20,3196,,,A*6F
CalmanFilter:0.00 10.60 4.08
$GPRMC,030132.000,A,3533.4946,N,13942.7453,E,0.270916,,,A*6C
CalmanFilter:0.00 10.48 4.19
$GPRMC,030356.000,A,3533.4903,N,1394*6E
CalmanFilter:0.00 10.21 3.98
$GPRMC,030359.000,A,3533.4895,N,13942.7454,E,0.88,165.94,270916,,,A*6F
CalmanFilter:0.00 10.64 3.92
$GPRMC,030400.000,A,3533.4893,N,13942.7448,E,0.83,169.40,270916,,,A*61
CalmanFilter:0.00 10.68 4.30
$GPRMC,030401.000,A,3533.4890,N,13942.7446,E,0.84,168.79,270916A*61
CalmanFilter:0.00 10.41 3.95
$GPRMC,030402.000,A,3533.4886,N,13942.7444,E,0.88,167.79,270916,,,A*64
CalmanFilter:0.00 10.57 3.79
$GPRMC,030405.000,A,3533.4880,N,13942.7435,E,0.84,168.42,27091668
CalmanFilter:0.00 10.29 4.20
$GPRMC,030407.000,A,3533.4875,N,13942.7431,E,0.75,176.27,27091666
CalmanFilter:0.00 10.79 4.20
$GPRMC,030410.000,A,3533.4873,N,13942.7425,E,0.47,176.27,270916,,A*62
CalmanFilter:0.00 10.48 4.10
$GPRMC,030412.000,A,3533.4872,N,13942.7425,E,0.34,176.27,270916A*65
CalmanFilter:0.00 10.39 4.17
$GPRMC,030931.000,A,3533.4886,N,13942.7400,E,0.12,147.51,270916
CalmanFilter:0.00 10.33 4.08
$GPRMC,030937.000,A,3533.48851,270916,,,A*68
CalmanFilter:0.00 10.78 4.14
$GPRMC,030938.000,A,3533.48851,270916,,,A*62
CalmanFilter:0.00 10.66 4.20
$GPRMC,030939.000,A,3533.48851,270916,,,A*60
CalmanFilter:0.00 10.52 4.03
$GPRMC,030940.000,A,3533.48851,270916,,,A*69
CalmanFilter:0.00 10.62 4.02
$GPRMC,030941.000,A,3533.48851,270916,,,A*6A
CalmanFilter:0.00 10.60 4.21
$GPRMC,030942.000,A,3533.4881,270916,,,A*6B
CalmanFilter:0.00 10.63 4.13
$GPRMC,030943.000,A,3533.488.51,270916,,,A*6D
CalmanFilter:0.00 10.48 3.91
$GPRMC,030944.000,A,3533.48851,270916,,,A*6F
CalmanFilter:0.00 10.74 4.41
$GPRMC,030945.000,A,3533.48751,270916,,,A*6B
CalmanFilter:0.00 10.91 4.02
$GPRMC,030946.000,A,3533.48751,270916,,,A*64
CalmanFilter:0.00 10.67 4.07
$GPRMC,030947.000,A,3533.48751,270916,,,A*62
CalmanFilter:0.00 10.56 4.06
$GPRMC,030948.000,A,3533.4871,270916,,,A*6F
CalmanFilter:0.00 10.48 4.18
$GPRMC,030949.000,A,3533.487751,270916,,,A*6B
CalmanFilter:0.00 10.52 4.22
$GPRMC,031021.000,A,3533.4842,N,13949,270916,,,A*6B
CalmanFilter:0.00 10.62 4.14
$GPRMC,031022.000,A,3533.4841,N,1399,270916,,,A*66
CalmanFilter:0.00 10.47 4.30
$GPRMC,031023.000,A,3533.4840,N,1399,270916,,,A*63
CalmanFilter:0.00 10.50 4.30
$GPRMC,031025.000,A,3533.4838,N,139429,270916,,,A*6B
CalmanFilter:0.00 10.45 4.02
$GPRMC,031026.000,A,3533.4838,N,139.39,270916,,,A*68
CalmanFilter:0.00 10.61 4.10
$GPRMC,031027.000,A,3533.4838,N,1394211,184.39,270916,,,A*6B
CalmanFilter:0.00 10.65 3.97
$GPRMC,031030.000,A,19,184.39,270916,,,A*6A
CalmanFilter:0.00 10.73 4.29
$GPRMC,031031.000,A,29,184.39,270916,,,A*6B
CalmanFilter:0.00 10.83 4.20
$GPRMC,031032.000,A,0.36,184.39,270916,,,A*67
CalmanFilter:0.00 10.58 4.03
$GPRMC,031033.000,A,0.41,184.39,270916,,,A*64
CalmanFilter:0.00 10.18 4.12
$GPRMC,031034.000,A,40,184.39,270916,,,A*64
CalmanFilter:0.00 10.69 4.28
$GPRMC,031035.000,A0.28,184.39,270916,,,A*6D
CalmanFilter:0.00 10.33 4.18
$GPRMC,031037.000,A,.15,184.39,270916,,,A*63
CalmanFilter:0.00 10.57 4.18
$GPRMC,031038.000,A,23,184.39,270916,,,A*69
CalmanFilter:0.00 10.48 4.17
$GPRMC,031039.000,A0.14,184.39,270916,,,A*63
CalmanFilter:0.00 10.50 4.20
$GPRMC,031040.000,A,14,184.39,270916,,,A*6D
CalmanFilter:0.00 10.80 4.10
$GPRMC,031041.000,A,17,184.39,270916,,,A*62
CalmanFilter:0.00 10.57 4.06
$GPRMC,031047.000,A0.14,184.39,270916,,,A*6B
CalmanFilter:0.00 10.72 4.13
$GPRMC,031049.000,A,0.11,184.39,270916,,,A*61
CalmanFilter:0.00 10.31 4.11
$GPRMC,031050.000,A,3,184.39,270916,,,A*6C
CalmanFilter:0.00 10.81 4.13
$GPRMC,031051.000,A,11,184.39,270916,,,A*66
CalmanFilter:0.00 10.63 4.11
$GPRMC,031052.000,A,309,184.39,270916,,,A*6C
CalmanFilter:0.00 10.72 4.55
$GPRMC,031053.000,A,08,184.39,270916,,,A*6C
CalmanFilter:0.00 10.62 4.03
$GPRMC,031054.000,A,306,184.39,270916,,,A*65
CalmanFilter:0.00 10.67 4.18
$GPRMC,031055.000,A,35,184.39,270916,,,A*66
CalmanFilter:0.00 10.52 4.19
$GPRMC,031056.000,A,30,184.39,270916,,,A*60
CalmanFilter:0.00 10.51 4.30
$GPRMC,031057.000,A,25,184.39,270916,,,A*66
CalmanFilter:0.00 10.51 4.28
$GPRMC,031058.000,A0.29,184.39,270916,,,A*64
CalmanFilter:0.00 10.38 4.11
$GPRMC,031059.000,A,.32,184.39,270916,,,A*6C
CalmanFilter:0.00 10.80 4.02
$GPRMC,031100.000,A,39,184.39,270916,,,A*63
CalmanFilter:0.00 10.64 4.20
$GPRMC,031101.000,A,332,184.39,270916,,,A*6E
CalmanFilter:0.00 10.62 4.12
$GPRMC,031102.000,A,325,184.39,270916,,,A*6A
CalmanFilter:0.00 10.75 4.13
$GPRMC,031103.000,A,3526,184.39,270916,,,A*69
CalmanFilter:0.00 10.77 4.23
$GPRMC,031104.000,A,24,184.39,270916,,,A*6F
CalmanFilter:0.00 10.13 4.26
$GPRMC,031105.000,A,3,184.39,270916,,,A*63
CalmanFilter:0.00 10.50 3.96
$GPRMC,031106.000,A,335,184.39,270916,,,A*63
CalmanFilter:0.00 10.58 4.42
$GPRMC,031108.000,A,3533.484.39,270916,,,A*62
CalmanFilter:0.00 10.60 4.10
$GPRMC,031109.000,A,327,184.39,270916,,,A*60
CalmanFilter:0.00 10.48 4.15
$GPRMC,031110.000,A,35,184.39,270916,,,A*60
CalmanFilter:0.00 10.89 4.24
$GPRMC,031122.000,A9,E,0.53,184.39,270916,,,A*68
CalmanFilter:0.00 10.79 4.26
$GPRMC,031123.000,A,0.56,184.39,270916,,,A*6E
CalmanFilter:0.00 10.64 4.32
$GPRMC,031124.000,A0.70,10.61,270916,,,A*53
CalmanFilter:0.00 10.51 4.18
$GPRMC,031132.000,A,3,0.63,341.60,270916,,,A*6F
CalmanFilter:0.00 10.59 4.16
$GPRMC,031133.000,A,.7416,E,0.66,351.63,270916,,,A*6D
CalmanFilter:0.00 10.15 4.27
$GPRMC,031134.000,A,70,355.84,270916,,,A*67
CalmanFilter:0.00 10.70 3.87
$GPRMC,031135.000,A,373,355.04,270916,,,A*6F
CalmanFilter:0.00 10.69 4.11
$GPRMC,031136.000,A,78,354.37,270916,,,A*61
CalmanFilter:0.00 10.64 3.96
$GPRMC,031137.000,A,371,351.43,270916,,,A*6D
CalmanFilter:0.00 10.49 3.97
$GPRMC,031138.000,A,351,351.43,270916,,,A*60
CalmanFilter:0.00 10.62 4.15
$GPRMC,031139.000,A,35,351.43,270916,,,A*61
CalmanFilter:0.00 10.61 4.25
$GPRMC,031140.000,A,33,351.43,270916,,,A*69
CalmanFilter:0.00 10.29 4.09
$GPRMC,031141.000,A0.25,351.43,270916,,,A*66
CalmanFilter:0.00 10.48 4.08
$GPRMC,031142.000,A,21,351.43,270916,,,A*60
CalmanFilter:0.00 10.99 3.97
$GPRMC,031143.000,A,319,351.43,270916,,,A*63
CalmanFilter:0.00 10.36 4.22
$GPRMC,031144.000,A,35,351.43,270916,,,A*68
CalmanFilter:0.00 10.65 4.39
$GPRMC,031145.000,A,353,351.43,270916,,,A*60
CalmanFilter:0.00 10.56 4.12
$GPRMC,031146.000,A,3533.488.43,270916,,,A*63
CalmanFilter:0.00 10.75 4.07
$GPRMC,031147.000,A,3533.48843,270916,,,A*64
CalmanFilter:0.00 10.65 4.04
$GPRMC,031148.000,A,3533.4890,N,270916,,,A*6E
CalmanFilter:0.00 10.48 4.16
$GPRMC,031149.000,A,3533.48943,270916,,,A*6F
CalmanFilter:0.00 10.43 4.17
$GPRMC,031150.000,A,3533.48943,270916,,,A*61
CalmanFilter:0.00 10.36 4.23
$GPRMC,031151.000,A,3533.48943,270916,,,A*6B
CalmanFilter:0.00 10.49 4.29
$GPRMC,031152.000,A,3533.48943,270916,,,A*61
CalmanFilter:0.00 10.54 3.97
$GPRMC,031153.000,A,3533.48843,270916,,,A*60
CalmanFilter:0.00 10.64 3.98
$GPRMC,031154.000,A,3533.48843,270916,,,A*66
CalmanFilter:0.00 10.57 4.21
$GPRMC,031155.000,A,3533.488443,270916,,,A*6A
CalmanFilter:0.00 10.64 4.14
$GPRMC,031202.000,A,3533.1.43,270916,,,A*6E
CalmanFilter:0.00 10.58 4.21
$GPRMC,031205.000,A,3533.4.43,270916,,,A*6B
CalmanFilter:0.00 10.41 4.03
$GPRMC,031206.000,A,3533.41.43,270916,,,A*6E
CalmanFilter:0.00 10.60 4.04
$GPRMC,031207.000,A,3533.481.43,270916,,,A*62
CalmanFilter:0.00 10.48 4.22
$GPRMC,031208.000,A,3533.41.43,270916,,,A*6B
CalmanFilter:0.00 10.50 4.24
$GPRMC,031209.000,A,3533.41.43,270916,,,A*6F
CalmanFilter:0.00 10.93 3.95
$GPRMC,031210.000,A,3533.4.22,351.43,270916,,,A*6B
CalmanFilter:0.00 10.73 4.00
$GPRMC,031211.000,A,3533.4.24,351.43,270916,,,A*6D
CalmanFilter:0.00 10.45 4.14
$GPRMC,031212.000,A,3533.4.18,351.43,270916,,,A*61
CalmanFilter:0.00 10.53 4.19
$GPRMC,031213.000,A,3533.41.43,270916,,,A*61
CalmanFilter:0.00 10.74 4.23
$GPRMC,031214.000,A,3533.1.43,270916,,,A*6E
CalmanFilter:0.00 10.29 4.06
$GPRMC,031215.000,A,3533.41.43,270916,,,A*65
CalmanFilter:0.00 10.53 4.06
$GPRMC,031216.000,A,3533.351.43,270916,,,A*60
CalmanFilter:0.00 10.29 4.20
$GPRMC,031217.000,A,3533.41.43,270916,,,A*65
CalmanFilter:0.00 10.52 4.04
$GPRMC,031218.000,A,3533.41.43,270916,,,A*66
CalmanFilter:0.00 10.84 4.07
$GPRMC,031219.000,A,3533.1.43,270916,,,A*63
CalmanFilter:0.00 10.75 4.20
$GPRMC,031220.000,A,3533.1.43,270916,,,A*6D
CalmanFilter:0.00 10.42 4.13
$GPRMC,031221.000,A,3533.1.43,270916,,,A*6A
CalmanFilter:0.00 10.93 4.05
$GPRMC,031222.000,A,3533.1.43,270916,,,A*61
CalmanFilter:0.00 10.74 4.07
$GPRMC,031225.000,A,3533351.43,270916,,,A*6E
CalmanFilter:0.00 10.77 4.04
$GPRMC,031231.000,A,353,351.43,270916,,,A*69
CalmanFilter:0.00 10.70 4.24
$GPRMC,031232.000,A,3533.351.43,270916,,,A*6B
CalmanFilter:0.00 10.61 4.32
$GPRMC,031233.000,A,3533351.43,270916,,,A*6E
CalmanFilter:0.00 10.62 4.03
$GPRMC,031235.000,A,3533351.43,270916,,,A*66
CalmanFilter:0.00 10.39 4.12
$GPRMC,031236.000,A,3533351.43,270916,,,A*6B
CalmanFilter:0.00 10.86 4.14
$GPRMC,031238.000,A,3533351.43,270916,,,A*6A
CalmanFilter:0.00 10.69 4.08
$GPRMC,031239.000,A,3533.351.43,270916,,,A*64
CalmanFilter:0.00 10.54 4.16
$GPRMC,031240.000,A,3533351.43,270916,,,A*6B
CalmanFilter:0.00 10.62 4.38
$GPRMC,031241.000,A,3533351.43,270916,,,A*6F
CalmanFilter:0.00 10.60 4.10
$GPRMC,031242.000,A,3533351.43,270916,,,A*61
CalmanFilter:0.00 10.37 4.11
$GPRMC,031244.000,A,3533351.43,270916,,,A*6B
CalmanFilter:0.00 10.49 4.31
$GPRMC,031245.000,A,353351.43,270916,,,A*63
CalmanFilter:0.00 10.42 4.40
$GPRMC,031246.000,A,3533351.43,270916,,,A*67
CalmanFilter:0.00 10.53 4.33
$GPRMC,031252.000,A,3533.489351.43,270916,,,A*61
CalmanFilter:0.00 10.56 4.11
$GPRMC,031254.000,A,08,351.43,270916,,,A*6A
CalmanFilter:0.00 10.81 3.96
$GPRMC,031255.000,A0.13,351.43,270916,,,A*60
CalmanFilter:0.00 10.55 4.29
$GPRMC,031256.000,A,08,351.43,270916,,,A*69
CalmanFilter:0.00 10.53 3.90
$GPRMC,031258.000,A,.03,351.43,270916,,,A*6F
CalmanFilter:0.00 10.58 4.24
$GPRMC,031259.000,A.11,351.43,270916,,,A*6D
CalmanFilter:0.00 10.58 4.09
$GPRMC,031300.000,A,05,351.43,270916,,,A*66
CalmanFilter:0.00 10.66 4.20
$GPRMC,031301.000,A,35,351.43,270916,,,A*61
CalmanFilter:0.00 10.57 4.16
$GPRMC,031302.000,A,35,351.43,270916,,,A*6B
CalmanFilter:0.00 10.61 4.10
$GPRMC,031303.000,A,322,351.43,270916,,,A*61
CalmanFilter:0.00 10.64 4.31
$GPRMC,031304.000,A,317,351.43,270916,,,A*60
CalmanFilter:0.00 10.57 3.95
$GPRMC,031305.000,A,35,351.43,270916,,,A*6C
CalmanFilter:0.00 10.54 4.45
$GPRMC,031306.000,A,353,351.43,270916,,,A*68
CalmanFilter:0.00 10.57 4.00
$GPRMC,031307.000,A,339,351.43,270916,,,A*68
CalmanFilter:0.00 10.58 3.94
$GPRMC,031308.000,A,34,351.43,270916,,,A*6B
CalmanFilter:0.00 10.53 4.07
$GPRMC,031311.000,A,08,351.43,270916,,,A*60
CalmanFilter:0.00 10.46 4.06
$GPRMC,031312.000,A,3,351.43,270916,,,A*6E
CalmanFilter:0.00 10.70 3.84
$GPRMC,031313.000,A,315,351.43,270916,,,A*6E
CalmanFilter:0.00 10.73 4.28
$GPRMC,031314.000,A,324,351.43,270916,,,A*6B
CalmanFilter:0.00 10.65 4.06
$GPRMC,031315.000,A,3,351.43,270916,,,A*6B
CalmanFilter:0.00 10.57 4.36
$GPRMC,031316.000,A,315,351.43,270916,,,A*64
CalmanFilter:0.00 10.59 4.38
$GPRMC,031317.000,A,311,351.43,270916,,,A*61
CalmanFilter:0.00 10.57 3.91
$GPRMC,031318.000,A,19,351.43,270916,,,A*64
CalmanFilter:0.00 10.64 4.05
$GPRMC,031319.000,A,.35,351.43,270916,,,A*64
CalmanFilter:0.00 10.38 4.19
$GPRMC,031320.000,A,3,351.43,270916,,,A*6C
CalmanFilter:0.00 10.74 4.19
$GPRMC,031321.000,A,311,351.43,270916,,,A*6F
CalmanFilter:0.00 10.39 4.24
$GPRMC,031322.000,A,.05,351.43,270916,,,A*68
CalmanFilter:0.00 10.47 4.08
$GPRMC,031323.000,A,3503,351.43,270916,,,A*6F
CalmanFilter:0.00 10.84 4.47
$GPRMC,031324.000,A,306,351.43,270916,,,A*6D
CalmanFilter:0.00 10.82 4.12
$GPRMC,031325.000,A,307,351.43,270916,,,A*6D
CalmanFilter:0.00 10.79 4.18
$GPRMC,031326.000,A,3,351.43,270916,,,A*6D
CalmanFilter:0.00 10.39 4.04
$GPRMC,031327.000,A,37,351.43,270916,,,A*6F
CalmanFilter:0.00 10.48 3.84
$GPRMC,031328.000,A,3533.443,270916,,,A*65
CalmanFilter:0.00 10.71 4.16
$GPRMC,031329.000,A,3533.41.43,270916,,,A*6F
CalmanFilter:0.00 10.64 4.13
$GPRMC,031330.000,A,3533.41.43,270916,,,A*6C
CalmanFilter:0.00 10.37 4.42
$GPRMC,031331.000,A,3533.41.43,270916,,,A*6B
CalmanFilter:0.00 10.39 4.42
$GPRMC,031332.000,A,3533.1.43,270916,,,A*68
CalmanFilter:0.00 10.47 4.07
$GPRMC,031333.000,A,3533.41.43,270916,,,A*6D
CalmanFilter:0.00 10.78 3.92
$GPRMC,031334.000,A,3533.41.43,270916,,,A*69
CalmanFilter:0.00 11.03 3.96
$GPRMC,031335.000,A,3533.1.43,270916,,,A*6B
CalmanFilter:0.00 10.57 4.11
$GPRMC,031336.000,A,3533.41.43,270916,,,A*6F
CalmanFilter:0.00 10.24 3.95
$GPRMC,031337.000,A,3533.451.43,270916,,,A*60
CalmanFilter:0.00 10.56 4.13
$GPRMC,031338.000,A,3533.4.43,270916,,,A*6F
CalmanFilter:0.00 10.76 4.16
$GPRMC,031339.000,A,3533.41.43,270916,,,A*61
CalmanFilter:0.00 10.51 4.12
$GPRMC,031340.000,A,3533.41.43,270916,,,A*6D
CalmanFilter:0.00 10.61 4.12
$GPRMC,031341.000,A,3533.41.43,270916,,,A*63
CalmanFilter:0.00 10.56 4.15
$GPRMC,031342.000,A,3533.1.43,270916,,,A*6A
CalmanFilter:0.00 10.70 4.11
$GPRMC,031343.000,A,3533.41.43,270916,,,A*64
CalmanFilter:0.00 10.75 3.90
$GPRMC,031344.000,A,3533.1.43,270916,,,A*66
CalmanFilter:0.00 10.30 4.09
$GPRMC,031345.000,A,3533.481.43,270916,,,A*66
CalmanFilter:0.00 10.64 4.14
$GPRMC,031346.000,A,3533.41.43,270916,,,A*62
CalmanFilter:0.00 10.65 4.20
$GPRMC,031347.000,A,3533.451.43,270916,,,A*69
CalmanFilter:0.00 10.55 4.15
$GPRMC,031348.000,A,3533.41.43,270916,,,A*66
CalmanFilter:0.00 10.57 3.80
$GPRMC,031349.000,A,3533.41.43,270916,,,A*65
CalmanFilter:0.00 10.77 4.24
$GPRMC,031350.000,A,3533.481.43,270916,,,A*61
CalmanFilter:0.00 10.68 4.18
$GPRMC,031351.000,A,3533.481.43,270916,,,A*63
CalmanFilter:0.00 10.57 4.09
$GPRMC,031352.000,A,3533.41.43,270916,,,A*6C
CalmanFilter:0.00 10.61 4.26
$GPRMC,031421.000,A,3533.4853,270916,,,A*62
CalmanFilter:0.00 10.67 3.79
$GPRMC,031422.000,A,3533.4820.70,215.09,270916,,,A*61
CalmanFilter:0.00 10.58 4.31
$GPRMC,031423.000,A,30,208.06,270916,,,A*6A
CalmanFilter:0.00 10.44 3.83
$GPRMC,031424.000,A,3533.4818,208.46,270916,,,A*60
CalmanFilter:0.00 10.56 4.20
$GPRMC,031425.000,A,3533.4883,270916,,,A*6E
CalmanFilter:0.00 10.26 4.44
$GPRMC,031426.000,A,3533.48083,270916,,,A*67
CalmanFilter:0.00 10.67 3.88
$GPRMC,031427.000,A,3533.48083,270916,,,A*65
CalmanFilter:0.00 10.74 4.14
$GPRMC,031428.000,A,3533.4883,270916,,,A*6D
CalmanFilter:0.00 10.74 4.18
$GPRMC,031429.000,A,3533.479771,270916,,,A*61
CalmanFilter:0.00 10.49 4.06
$GPRMC,031430.000,A,3533.4776,270916,,,A*60
CalmanFilter:0.00 10.49 3.92
$GPRMC,031431.000,A,3533.47976,270916,,,A*61
CalmanFilter:0.00 10.62 4.29
$GPRMC,031432.000,A,3533.47976,270916,,,A*60
CalmanFilter:0.00 10.43 4.39
$GPRMC,031433.000,A,3533.479576,270916,,,A*60
CalmanFilter:0.00 10.68 3.85
$GPRMC,031434.000,A,3533.47.76,270916,,,A*62
CalmanFilter:0.00 10.73 4.09
$GPRMC,031435.000,A,3533.4776,270916,,,A*6C
CalmanFilter:0.00 10.26 4.16
$GPRMC,031436.000,A,3533.47976,270916,,,A*6C
CalmanFilter:0.00 10.82 4.29
$GPRMC,031437.000,A,3533.47976,270916,,,A*6D
CalmanFilter:0.00 10.60 4.17
$GPRMC,031438.000,A,3533.4776,270916,,,A*68
CalmanFilter:0.00 10.42 4.35
$GPRMC,031441.000,A,3533.47.76,270916,,,A*64
CalmanFilter:0.00 10.83 4.07
$GPRMC,031442.000,A,3533.4.10,207.76,270916,,,A*67
CalmanFilter:0.00 10.69 4.02
$GPRMC,031443.000,A,3533.4.07,207.76,270916,,,A*60
CalmanFilter:0.00 10.65 3.97
$GPRMC,031444.000,A,3533.47.76,270916,,,A*65
CalmanFilter:0.00 10.63 4.12
$GPRMC,031445.000,A,3533.4.76,270916,,,A*60
CalmanFilter:0.00 10.61 4.37
$GPRMC,031446.000,A,3533.476,270916,,,A*65
CalmanFilter:0.00 10.55 4.19
$GPRMC,031447.000,A,3533.4776,270916,,,A*63
CalmanFilter:0.00 10.53 4.15
$GPRMC,031448.000,A,3533.4776,270916,,,A*60
CalmanFilter:0.00 10.54 4.16
$GPRMC,031449.000,A,3533.47.76,270916,,,A*64
CalmanFilter:0.00 10.60 4.05
$GPRMC,031450.000,A,3533.07.76,270916,,,A*63
CalmanFilter:0.00 10.30 3.88
$GPRMC,031451.000,A,3533.47.76,270916,,,A*65
CalmanFilter:0.00 10.48 3.93
$GPRMC,031452.000,A,3533.47.76,270916,,,A*65
CalmanFilter:0.00 10.49 4.50
$GPRMC,031453.000,A,3533.47.76,270916,,,A*64
CalmanFilter:0.00 10.60 4.21
$GPRMC,031454.000,A,3533.47.76,270916,,,A*65
CalmanFilter:0.00 10.67 4.04
$GPRMC,031455.000,A,3533.7.76,270916,,,A*63
CalmanFilter:0.00 10.64 4.07
$GPRMC,031456.000,A,3533.4876,270916,,,A*69
CalmanFilter:0.00 10.48 4.30
$GPRMC,031457.000,A,3533.47.76,270916,,,A*65
CalmanFilter:0.00 10.40 4.18
$GPRMC,031458.000,A,3533.47.76,270916,,,A*6C
CalmanFilter:0.00 10.48 4.03
$GPRMC,031459.000,A,3533207.76,270916,,,A*6A
CalmanFilter:0.00 10.60 4.15
$GPRMC,031500.000,A,353207.76,270916,,,A*6B
CalmanFilter:0.00 10.73 4.07
$GPRMC,031501.000,A,353207.76,270916,,,A*60
CalmanFilter:0.00 10.65 3.77
$GPRMC,031502.000,A,3538,207.76,270916,,,A*6B
CalmanFilter:0.00 10.36 4.17
$GPRMC,031503.000,A,3533207.76,270916,,,A*65
CalmanFilter:0.00 10.57 4.34
$GPRMC,031504.000,A,3533207.76,270916,,,A*6D
CalmanFilter:0.00 10.72 4.24
$GPRMC,031525.000,A,0.95,339.97,270916,,,A*63
CalmanFilter:0.00 10.58 4.10
$GPRMC,031526.000,A,91,341.75,270916,,,A*68
CalmanFilter:0.00 10.62 4.03
$GPRMC,031527.000,A,3,345.58,270916,,,A*6B
CalmanFilter:0.00 10.65 3.78
$GPRMC,031528.000,A,3,338.48,270916,,,A*65
CalmanFilter:0.00 10.65 4.09
$GPRMC,031529.000,A,32,329.65,270916,,,A*6E
CalmanFilter:0.00 10.62 3.95
$GPRMC,031530.000,A,379,327.96,270916,,,A*60
CalmanFilter:0.00 10.62 3.81
$GPRMC,031531.000,A,381,322.56,270916,,,A*6F
CalmanFilter:0.00 10.45 4.01
$GPRMC,031532.000,A,383,317.47,270916,,,A*6E
CalmanFilter:0.00 10.64 4.21
$GPRMC,031533.000,A,.84,316.14,270916,,,A*6D
CalmanFilter:0.00 10.73 4.08
$GPRMC,031534.000,A,388,317.13,270916,,,A*6E
CalmanFilter:0.00 10.84 4.03
$GPRMC,031535.000,A,392,318.20,270916,,,A*62
CalmanFilter:0.00 10.82 4.04
$GPRMC,031536.000,A,35,329.79,270916,,,A*68
CalmanFilter:0.00 10.65 4.06
$GPRMC,031537.000,A,93,326.60,270916,,,A*6C
CalmanFilter:0.00 10.60 3.96
$GPRMC,031538.000,A,3,314.99,270916,,,A*64
CalmanFilter:0.00 10.65 3.97
$GPRMC,031539.000,A,3,317.59,270916,,,A*68
CalmanFilter:0.00 10.61 4.18
$GPRMC,031540.000,A,392,318.79,270916,,,A*69
CalmanFilter:0.00 10.61 3.69
$GPRMC,031541.000,A,3,315.88,270916,,,A*61
CalmanFilter:0.00 10.61 4.07
$GPRMC,031542.000,A,374,313.50,270916,,,A*61
CalmanFilter:0.00 10.74 4.16
$GPRMC,031543.000,A,8,307.39,270916,,,A*65
CalmanFilter:0.00 10.59 3.87
$GPRMC,031544.000,A,.80,308.71,270916,,,A*60
CalmanFilter:0.00 10.52 4.03
$GPRMC,031554.000,A0.85,306.88,270916,,,A*6D
CalmanFilter:0.00 10.72 4.12
$GPRMC,031555.000,A0.85,308.51,270916,,,A*67
CalmanFilter:0.00 10.66 4.01
$GPRMC,031556.000,A0.78,310.13,270916,,,A*69
CalmanFilter:0.00 10.69 3.99
$GPRMC,031557.000,A.76,311.63,270916,,,A*60
CalmanFilter:0.00 10.42 4.03
$GPRMC,031558.000,A0.59,328.23,270916,,,A*6E
CalmanFilter:0.00 10.76 4.25
$GPRMC,031559.000,A0.59,328.80,270916,,,A*66
CalmanFilter:0.00 10.48 4.54
$GPRMC,031600.000,A,76,328.07,270916,,,A*6A
CalmanFilter:0.00 10.64 3.95
$GPRMC,031601.000,A,75,325.37,270916,,,A*65
CalmanFilter:0.00 10.64 3.79
$GPRMC,031602.000,A,4,325.92,270916,,,A*6F
CalmanFilter:0.00 10.54 3.91
$GPRMC,031603.000,A,9,325.21,270916,,,A*6A
CalmanFilter:0.00 10.55 4.18
$GPRMC,031604.000,A.68,313.85,270916,,,A*64
CalmanFilter:0.00 10.60 4.10
$GPRMC,031605.000,A,7,314.80,270916,,,A*62
CalmanFilter:0.00 10.57 4.07
$GPRMC,031606.000,A,36,316.05,270916,,,A*6C
CalmanFilter:0.00 10.62 4.13
$GPRMC,031607.000,A,35,317.02,270916,,,A*65
CalmanFilter:0.00 10.59 4.11
$GPRMC,031608.000,A,37,313.82,270916,,,A*62
CalmanFilter:0.00 10.51 4.10
$GPRMC,031609.000,A,3508.16,270916,,,A*6E
CalmanFilter:0.00 10.60 4.07
$GPRMC,031610.000,A,3,295.64,270916,,,A*65
CalmanFilter:0.00 10.60 4.04
$GPRMC,031611.000,A,396.19,270916,,,A*60
CalmanFilter:0.00 10.60 3.93
$GPRMC,031612.000,A,396.19,270916,,,A*60
CalmanFilter:0.00 10.61 4.14
$GPRMC,031613.000,A,96.19,270916,,,A*6D
CalmanFilter:0.00 10.60 4.18
$GPRMC,031614.000,A,3531.18,270916,,,A*69
CalmanFilter:0.00 10.59 4.28
$GPRMC,031615.000,A,330.85,270916,,,A*64
CalmanFilter:0.00 10.65 4.09
$GPRMC,031616.000,A,30.04,270916,,,A*66
CalmanFilter:0.00 10.56 4.12
$GPRMC,031617.000,A,327.91,270916,,,A*6E
CalmanFilter:0.00 10.62 4.04
$GPRMC,031618.000,A,325.53,270916,,,A*63
CalmanFilter:0.00 10.62 4.30
$GPRMC,031619.000,A,3519.36,270916,,,A*68
CalmanFilter:0.00 10.61 3.94
$GPRMC,031620.000,A,316.41,270916,,,A*65
CalmanFilter:0.00 10.49 3.97
$GPRMC,031621.000,A,3533.4,270916,,,A*6F
CalmanFilter:0.00 10.51 3.93
$GPRMC,031622.000,A,3533.441,270916,,,A*68
CalmanFilter:0.00 10.59 4.18
$GPRMC,031623.000,A,3533.441,270916,,,A*66
CalmanFilter:0.00 10.67 4.24
$GPRMC,031624.000,A,3533.4.41,270916,,,A*6F
CalmanFilter:0.00 10.57 4.10
$GPRMC,031625.000,A,3533..41,270916,,,A*66
CalmanFilter:0.00 10.58 4.15
$GPRMC,031626.000,A,3533.6.41,270916,,,A*6C
CalmanFilter:0.00 10.56 4.01
$GPRMC,031627.000,A,3533.4941,270916,,,A*6D
CalmanFilter:0.00 10.48 4.25
$GPRMC,031628.000,A,3533.46.41,270916,,,A*65
CalmanFilter:0.00 10.65 3.91
$GPRMC,031629.000,A,3533.441,270916,,,A*63
CalmanFilter:0.00 10.67 4.26
$GPRMC,031630.000,A,3533.41,270916,,,A*69
CalmanFilter:0.00 10.62 4.24
$GPRMC,031631.000,A,3533.441,270916,,,A*6F
CalmanFilter:0.00 10.70 4.07
$GPRMC,031633.000,A,3533.46.41,270916,,,A*6F
CalmanFilter:0.00 10.49 4.19
$GPRMC,031634.000,A,3533.46.41,270916,,,A*6B
CalmanFilter:0.00 10.51 4.12
$GPRMC,031640.000,A,3533.16.41,270916,,,A*66
CalmanFilter:0.00 10.69 4.01
$GPRMC,031641.000,A,3533.46.41,270916,,,A*6A
CalmanFilter:0.00 10.64 4.14
$GPRMC,031642.000,A,3533.46.41,270916,,,A*6E
CalmanFilter:0.00 10.56 4.21
$GPRMC,031643.000,A,3533.46.41,270916,,,A*64
CalmanFilter:0.00 10.49 4.03
$GPRMC,031644.000,A,3533.46.41,270916,,,A*63
CalmanFilter:0.00 10.55 4.14
$GPRMC,031645.000,A,3533.6.41,270916,,,A*6E
CalmanFilter:0.00 10.58 4.24
$GPRMC,031646.000,A,3533.6.41,270916,,,A*69
CalmanFilter:0.00 10.63 3.87
$GPRMC,031647.000,A,3533.6.41,270916,,,A*60
CalmanFilter:0.00 10.61 3.85
$GPRMC,031648.000,A,3533.45.25,270916,,,A*6D
CalmanFilter:0.00 10.51 3.59
$GPRMC,031649.000,A,3533146.70,270916,,,A*67
CalmanFilter:0.00 10.65 3.97
$GPRMC,031650.000,A,3533.46.70,270916,,,A*67
CalmanFilter:0.00 10.53 4.34
$GPRMC,031651.000,A,3533.6.70,270916,,,A*63
CalmanFilter:0.00 10.54 4.29
$GPRMC,031652.000,A,3533.46.70,270916,,,A*61
CalmanFilter:0.00 10.56 4.24
$GPRMC,031653.000,A,3533.46.70,270916,,,A*63
CalmanFilter:0.00 10.62 4.29
$GPRMC,031654.000,A,3533.46.70,270916,,,A*62
CalmanFilter:0.00 10.53 4.18
$GPRMC,031655.000,A,3533.4.70,270916,,,A*61
CalmanFilter:0.00 10.56 4.17
$GPRMC,031656.000,A,3533.496.70,270916,,,A*6F
CalmanFilter:0.00 10.52 4.02
$GPRMC,031657.000,A,3533.46.70,270916,,,A*61
CalmanFilter:0.00 10.56 3.91
$GPRMC,031658.000,A,3533.6.70,270916,,,A*63
CalmanFilter:0.00 10.66 4.29
$GPRMC,031659.000,A,3533.46.70,270916,,,A*62
CalmanFilter:0.00 10.65 4.28
$GPRMC,031700.000,A,3533.46.70,270916,,,A*6C
CalmanFilter:0.00 10.58 4.26
$GPRMC,031701.000,A,3533.46.70,270916,,,A*69
CalmanFilter:0.00 10.59 4.05
$GPRMC,031702.000,A,3533.46.70,270916,,,A*6D
CalmanFilter:0.00 10.66 4.08
$GPRMC,031703.000,A,3533.46.70,270916,,,A*67
CalmanFilter:0.00 10.66 4.04
$GPRMC,031704.000,A,3533.6.70,270916,,,A*69
CalmanFilter:0.00 10.64 4.10
$GPRMC,031705.000,A,3533.6.70,270916,,,A*6E
CalmanFilter:0.00 10.60 4.07
$GPRMC,031706.000,A,3533.46.70,270916,,,A*63
CalmanFilter:0.00 10.60 4.18
$GPRMC,031708.000,A,3533.6.70,270916,,,A*6A
CalmanFilter:0.00 10.52 4.08
$GPRMC,031709.000,A,3533.470,270916,,,A*6B
CalmanFilter:0.00 10.61 4.00
$GPRMC,031710.000,A,3533.446.70,270916,,,A*60
CalmanFilter:0.00 10.61 4.11
$GPRMC,031711.000,A,3533.46.70,270916,,,A*69
CalmanFilter:0.00 10.58 3.99
$GPRMC,031712.000,A,3533.470,270916,,,A*64
CalmanFilter:0.00 10.62 4.26
$GPRMC,031713.000,A,3533.470,270916,,,A*6F
CalmanFilter:0.00 10.52 4.35
$GPRMC,031714.000,A,3533.470,270916,,,A*67
CalmanFilter:0.00 10.76 4.12
$GPRMC,031715.000,A,3533.46.70,270916,,,A*67
CalmanFilter:0.00 10.58 4.17
$GPRMC,031716.000,A,3533.46.70,270916,,,A*63
CalmanFilter:0.00 10.49 4.26
$GPRMC,031717.000,A,3533.446.70,270916,,,A*67
CalmanFilter:0.00 10.59 4.10
$GPRMC,031718.000,A,3533.6.70,270916,,,A*60
CalmanFilter:0.00 10.47 3.76
$GPRMC,031719.000,A,3533.46.70,270916,,,A*67
CalmanFilter:0.00 10.70 4.15
$GPRMC,031720.000,A,3533.46.70,270916,,,A*6D
CalmanFilter:0.00 10.78 3.76
$GPRMC,031721.000,A,3533.46.70,270916,,,A*69
CalmanFilter:0.00 10.68 4.16
$GPRMC,031722.000,A,3533.46.70,270916,,,A*63
CalmanFilter:0.00 10.67 4.14
$GPRMC,031723.000,A,3533.46.70,270916,,,A*68
CalmanFilter:0.00 10.59 4.23
$GPRMC,031724.000,A,3533.470,270916,,,A*68
CalmanFilter:0.00 10.59 4.10
$GPRMC,031725.000,A,3533.470,270916,,,A*62
CalmanFilter:0.00 10.56 4.17
$GPRMC,031726.000,A,.14,146.70,270916,,,A*65
CalmanFilter:0.00 10.50 4.18
$GPRMC,031727.000,A,8,146.70,270916,,,A*6B
CalmanFilter:0.00 10.51 4.34
$GPRMC,031728.000,A26,146.70,270916,,,A*69
CalmanFilter:0.00 10.59 4.07
$GPRMC,031729.000,A,.25,146.70,270916,,,A*6A
CalmanFilter:0.00 10.58 3.83
$GPRMC,031730.000,A,34,146.70,270916,,,A*6D
CalmanFilter:0.00 10.55 4.45
$GPRMC,031731.000,A,.47,146.70,270916,,,A*69
CalmanFilter:0.00 10.58 4.15
$GPRMC,031733.000,A,.61,351.74,270916,,,A*6B
CalmanFilter:0.00 10.57 4.11
$GPRMC,031734.000,A,63,356.85,270916,,,A*6F
CalmanFilter:0.00 10.60 4.11
$GPRMC,031735.000,A,.68,355.95,270916,,,A*69
CalmanFilter:0.00 10.60 3.92
$GPRMC,031736.000,A,73,354.25,270916,,,A*64
CalmanFilter:0.00 10.62 4.25
$GPRMC,031737.000,A.78,325.48,270916,,,A*61
CalmanFilter:0.00 10.57 4.05
$GPRMC,031738.000,A,.79,326.37,270916,,,A*6E
CalmanFilter:0.00 10.53 4.06
$GPRMC,031739.000,A,85,327.55,270916,,,A*62
CalmanFilter:0.00 10.58 4.05
$GPRMC,031740.000,A,.90,349.40,270916,,,A*60
CalmanFilter:0.00 10.61 4.07
$GPRMC,031741.000,A0.94,349.27,270916,,,A*6B
CalmanFilter:0.00 10.54 4.09
$GPRMC,031742.000,A,00,349.42,270916,,,A*62
CalmanFilter:0.00 10.66 4.08
$GPRMC,031743.000,A,1.07,351.78,270916,,,A*69
CalmanFilter:0.00 10.59 4.07
$GPRMC,031744.000,A,329,353.88,270916,,,A*60
CalmanFilter:0.00 10.62 4.10
$GPRMC,031745.000,A,25,352.58,270916,,,A*6C
CalmanFilter:0.00 10.58 4.16
$GPRMC,031746.000,A,19,353.26,270916,,,A*69
CalmanFilter:0.00 10.40 4.18
$GPRMC,031747.000,A,312,353.44,270916,,,A*60
CalmanFilter:0.00 10.71 4.10
$GPRMC,031748.000,A,382,347.38,270916,,,A*67
CalmanFilter:0.00 10.80 4.12
$GPRMC,031749.000,A,3,342.13,270916,,,A*64
CalmanFilter:0.00 10.67 4.17
$GPRMC,031750.000,A,347,342.13,270916,,,A*68
CalmanFilter:0.00 10.53 4.20
$GPRMC,031751.000,A,7,342.13,270916,,,A*6D
CalmanFilter:0.00 10.67 4.04
$GPRMC,031752.000,A,346,342.13,270916,,,A*67
CalmanFilter:0.00 10.59 4.09
$GPRMC,031753.000,A,3.39,342.13,270916,,,A*6D
CalmanFilter:0.00 10.59 4.12
$GPRMC,031754.000,A,335,342.13,270916,,,A*6F
CalmanFilter:0.00 10.63 4.07
$GPRMC,031755.000,A,332,342.13,270916,,,A*6E
CalmanFilter:0.00 10.66 4.14
$GPRMC,031756.000,A,328,342.13,270916,,,A*64
CalmanFilter:0.00 10.57 4.04
$GPRMC,031757.000,A,3528,342.13,270916,,,A*63
CalmanFilter:0.00 10.56 4.03
$GPRMC,031758.000,A,329,342.13,270916,,,A*6D
CalmanFilter:0.00 10.53 4.23
$GPRMC,031759.000,A,329,342.13,270916,,,A*6E
CalmanFilter:0.00 10.63 4.22
$GPRMC,031800.000,A,30,342.13,270916,,,A*6D
CalmanFilter:0.00 10.63 4.10
$GPRMC,031801.000,A,330,342.13,270916,,,A*63
CalmanFilter:0.00 10.60 4.05
$GPRMC,031802.000,A,3529,342.13,270916,,,A*69
CalmanFilter:0.00 10.55 4.10
$GPRMC,031803.000,A,3533.42.13,270916,,,A*64
CalmanFilter:0.00 10.60 4.28
$GPRMC,031804.000,A,3533.42.13,270916,,,A*67
CalmanFilter:0.00 10.62 4.01
$GPRMC,031805.000,A,3533.42.13,270916,,,A*67
CalmanFilter:0.00 10.62 4.09
$GPRMC,031806.000,A,3533.492.13,270916,,,A*65
CalmanFilter:0.00 10.58 4.05
$GPRMC,031807.000,A,3533.42.13,270916,,,A*65
CalmanFilter:0.00 10.53 3.96
$GPRMC,031808.000,A,3533.2.13,270916,,,A*69
CalmanFilter:0.00 10.37 4.02
$GPRMC,031809.000,A,3533.2.13,270916,,,A*64
CalmanFilter:0.00 10.75 4.13
$GPRMC,031810.000,A,3533.2.13,270916,,,A*60
CalmanFilter:0.00 10.75 4.23
$GPRMC,031811.000,A,3533.342.13,270916,,,A*68
CalmanFilter:0.00 10.70 3.78
$GPRMC,031812.000,A,3533.42.13,270916,,,A*63
CalmanFilter:0.00 10.71 4.19
$GPRMC,031813.000,A,3533.2.13,270916,,,A*67
CalmanFilter:0.00 10.62 4.32
$GPRMC,031814.000,A,3533.42.13,270916,,,A*6D
CalmanFilter:0.00 10.63 4.21
$GPRMC,031815.000,A,3533.42.13,270916,,,A*66
CalmanFilter:0.00 10.57 4.20
$GPRMC,031816.000,A,3533.492.13,270916,,,A*67
CalmanFilter:0.00 10.61 4.17
$GPRMC,031817.000,A,3533.49.13,270916,,,A*65
CalmanFilter:0.00 10.55 4.09
$GPRMC,031818.000,A,3533.42.13,270916,,,A*67
CalmanFilter:0.00 10.51 4.04
$GPRMC,031819.000,A,3533.4,0.16,342.13,270916,,,A*69
CalmanFilter:0.00 10.52 4.20
$GPRMC,031820.000,A,3533.42.13,270916,,,A*66
CalmanFilter:0.00 10.61 4.10
$GPRMC,031821.000,A,3533.2.13,270916,,,A*62
CalmanFilter:0.00 10.56 4.48
$GPRMC,031822.000,A,3533..17,342.13,270916,,,A*60
CalmanFilter:0.00 10.59 4.21
$GPRMC,031823.000,A,3533.42.13,270916,,,A*63
CalmanFilter:0.00 10.59 3.95
$GPRMC,031824.000,A,3533.42.13,270916,,,A*60
CalmanFilter:0.00 10.65 3.94
$GPRMC,031825.000,A,3533.4.13,270916,,,A*6F
CalmanFilter:0.00 10.61 4.03
$GPRMC,031826.000,A,3533.42.13,270916,,,A*61
CalmanFilter:0.00 10.60 3.98
$GPRMC,031827.000,A,3533.42.13,270916,,,A*65
CalmanFilter:0.00 10.63 4.20
$GPRMC,031828.000,A,3533.492.13,270916,,,A*69
CalmanFilter:0.00 10.61 4.12
$GPRMC,031834.000,A,3533.42.13,270916,,,A*65
CalmanFilter:0.00 10.56 4.08
$GPRMC,031841.000,A,3533.49.13,270916,,,A*6D
CalmanFilter:0.00 10.60 4.25
$GPRMC,031844.000,A,3533.2.13,270916,,,A*68
CalmanFilter:0.00 10.63 4.15
$GPRMC,031847.000,A,3533..27,342.13,270916,,,A*6F
CalmanFilter:0.00 10.60 4.23
$GPRMC,031848.000,A,3533.490,,,A*6A
CalmanFilter:0.00 10.61 3.98
$GPRMC,031849.000,A,3533.4.03,342.13,270916,,,A*60
CalmanFilter:0.00 10.58 4.27
$GPRMC,031851.000,A,3533.4E,0.10,342.13,270916,,,A*6B
CalmanFilter:0.00 10.63 4.07
$GPRMC,031852.000,A,3533.2.13,270916,,,A*6E
CalmanFilter:0.00 10.57 4.15
$GPRMC,031853.000,A,3533.4,E,0.18,342.13,270916,,,A*61
CalmanFilter:0.00 10.60 4.25
$GPRMC,031854.000,A,3533.418,342.13,270916,,,A*67
CalmanFilter:0.00 10.63 4.22
$GPRMC,031855.000,A,3533.4E,0.22,342.13,270916,,,A*6E
CalmanFilter:0.00 10.59 4.18
$GPRMC,031856.000,A,3533.42.13,270916,,,A*64
CalmanFilter:0.00 10.55 4.29
$GPRMC,031858.000,A,3533.4906,,,A*6D
CalmanFilter:0.00 10.60 4.05
$GPRMC,031859.000,A,3533.428,342.13,270916,,,A*65
CalmanFilter:0.00 10.60 4.00
$GPRMC,031900.000,A,3533.42.13,270916,,,A*68
CalmanFilter:0.00 10.58 4.11
$GPRMC,031901.000,A,3,270916,,,A*68
CalmanFilter:0.00 10.60 4.02
$GPRMC,031902.000,A,3533.4.13,270916,,,A*67
CalmanFilter:0.00 10.65 4.11
$GPRMC,031903.000,A,3533.4.13,270916,,,A*65
CalmanFilter:0.00 10.60 4.16
$GPRMC,031904.000,A,3533.413,270916,,,A*69
CalmanFilter:0.00 10.58 4.39
$GPRMC,031905.000,A,3533.4.13,270916,,,A*60
CalmanFilter:0.00 10.54 4.25
$GPRMC,031906.000,A,3533.42.13,270916,,,A*6C
CalmanFilter:0.00 10.53 3.99
