$GPRMC,040251.000,A,3533.5066,N,13942.7699,E,0.62,187.42,051016,,,A*6C
$GPRMC,040252.000,A,3533.5067,N,13942.7703,E,0.57,187.42,051016,,,A*6A
$MOTION,5038.00,-2426,1267,16113,-441,-252,-78,-441,-252,-78
$MOTION,410.00,-2418,1033,16063,-449,27,-49,-449,27,-49
$MOTION,168.00,-2430,1292,16101,-434,24,-87,-434,24,-87
$MOTION,118.00,-2441,1282,16143,-412,35,-72,-412,35,-72
$GPRMC,040253.000,A,3533.5072,N,13942.7708,E,0.41,187.42,051016,,,A*63
$MOTION,133.00,-2437,1297,16098,-456,71,-61,-456,71,-61
$MOTION,464.00,-2465,1231,16104,-442,53,-137,-442,53,-137
$MOTION,168.00,-2395,1325,15786,-435,4,-139,-435,4,-139
$MOTION,118.00,-2379,1281,15890,-426,56,-44,-426,56,-44
$GPRMC,040254.000,A,3533.5075,N,13942.7715,E,0.70,91.18,051016,,,A*54
$MOTION,151.00,-2454,1027,16048,-407,-21,-559,-407,-21,-559
$MOTION,498.00,-2425,1254,16096,-457,13,-52,-457,13,-52
$MOTION,167.00,-2487,1224,15888,-399,51,-41,-399,51,-41
$MOTION,117.00,-2463,1322,16092,-432,72,-58,-432,72,-58
$GPRMC,040255.000,A,3533.5082,N,13942.7721,E,0.67,88.55,051016,,,A*5D
$MOTION,131.00,-2409,1339,16094,-425,75,-57,-425,75,-57
$MOTION,467.00,-2399,1528,16068,-406,35,-318,-406,35,-318
$MOTION,167.00,-2480,1292,16094,-433,35,-58,-433,35,-58
$MOTION,117.00,-2416,1033,16087,-455,61,-67,-455,61,-67
$GPRMC,040256.000,A,3533.5084,N,13942.7722,E,0.61,88.55,051016,,,A*5D
$MOTION,152.00,-2779,1088,16584,-184,-99,-2321,-184,-99,-2321
$MOTION,520.00,-2466,1295,16379,-431,65,-74,-431,65,-74
$MOTION,168.00,-2437,1514,16098,-458,68,-67,-458,68,-67
$MOTION,118.00,-2645,1255,16110,-389,52,-369,-389,52,-369
$GPRMC,040257.000,A,3533.5088,N,13942.7726,E,0.44,88.55,051016,,,A*53
$MOTION,151.00,-2492,1345,16068,-449,39,80,-449,39,80
$MOTION,437.00,-2360,1283,16091,-412,59,-154,-412,59,-154
$MOTION,165.00,-2528,1168,16214,-448,18,-84,-448,18,-84
$MOTION,113.00,-2476,1534,16058,-429,18,-86,-429,18,-86
$GPRMC,040258.000,A,3533.5090,N,13942.7725,E,0.15,88.55,051016,,,A*52
$MOTION,130.00,-2415,1268,16060,-444,64,-68,-444,64,-68
$MOTION,507.00,-2502,1199,16270,-433,41,-109,-433,41,-109
$MOTION,166.00,-2443,1047,16068,-467,35,-80,-467,35,-80
$MOTION,115.00,-2458,1300,16092,-425,44,-45,-425,44,-45
$GPRMC,040259.000,A,3533.5093,N,13942.7724,E,0.17,88.55,051016,,,A*53
$MOTION,148.00,-2446,1034,16342,-457,40,-66,-457,40,-66
$MOTION,430.00,-2436,1273,16086,-446,50,-60,-446,50,-60
$MOTION,163.00,-2436,1305,16060,-412,40,-56,-412,40,-56
$MOTION,111.00,-2484,1270,16117,-454,22,-70,-454,22,-70
$GPRMC,040300.000,A,3533.5094,N,13942.7724,E,0.50,88.55,051016,,,A*5A
$MOTION,132.00,-2474,1278,16348,-436,62,-50,-436,62,-50
$MOTION,538.00,-2417,1284,16050,-416,48,-41,-416,48,-41
$MOTION,166.00,-2469,1521,16094,-425,30,-48,-425,30,-48
$MOTION,116.00,-2482,1274,16106,-465,53,-37,-465,53,-37
$GPRMC,040301.000,A,3533.5095,N,13942.7724,E,0.69,84.20,051016,,,A*5E
$MOTION,148.00,-2446,1302,16077,-429,70,-71,-429,70,-71
$MOTION,445.00,-2435,1288,16084,-440,43,-49,-440,43,-49
$MOTION,165.00,-2432,1277,16075,-485,41,-141,-485,41,-141
$MOTION,115.00,-2434,1488,16086,-439,24,-44,-439,24,-44
$GPRMC,040302.000,A,3533.5097,N,13942.7730,E,0.33,84.20,051016,,,A*55
$MOTION,131.00,-2407,1264,16055,-442,18,-71,-442,18,-71
$MOTION,457.00,-2446,1260,16094,-416,47,-79,-416,47,-79
$MOTION,165.00,-2431,1292,16115,-459,35,-53,-459,35,-53
$MOTION,113.00,-2456,1032,16105,-446,30,-58,-446,30,-58
$GPRMC,040303.000,A,3533.5103,N,13942.7734,E,0.36,84.20,051016,,,A*59
$MOTION,149.00,-2447,1524,16059,-418,44,-53,-418,44,-53
$MOTION,480.00,-2450,1506,16096,-430,42,-74,-430,42,-74
$MOTION,165.00,-2462,1053,16097,-500,48,-63,-500,48,-63
$MOTION,115.00,-2444,1289,16081,-441,37,-70,-441,37,-70
$GPRMC,040304.000,A,3533.5109,N,13942.7739,E,0.37,84.20,051016,,,A*58
$MOTION,148.00,-2452,1024,16090,-400,14,-246,-400,14,-246
$MOTION,471.00,-2392,1267,16060,-409,46,-72,-409,46,-72
$MOTION,165.00,-2458,1314,16114,-462,50,-102,-462,50,-102
$MOTION,114.00,-2441,1268,16130,-461,29,-93,-461,29,-93
$GPRMC,040305.000,A,3533.5113,N,13942.7746,E,0.09,84.20,051016,,,A*57
$MOTION,131.00,-2463,1267,16047,-458,53,-51,-458,53,-51
$MOTION,547.00,-2430,1274,16071,-393,21,-66,-393,21,-66
$MOTION,165.00,-2433,1305,16074,-441,58,-46,-441,58,-46
$MOTION,114.00,-2459,1039,16035,-482,18,-76,-482,18,-76
$GPRMC,040306.000,A,3533.5113,N,13942.7746,E,0.30,84.20,051016,,,A*5E
$MOTION,147.00,-2481,1285,16059,-462,21,-51,-462,21,-51
$MOTION,494.00,-2430,1280,16069,-453,22,-72,-453,22,-72
$MOTION,165.00,-2437,1284,16033,-448,34,-87,-448,34,-87
$MOTION,115.00,-2424,1357,16028,-432,42,-69,-432,42,-69
$GPRMC,040307.000,A,3533.5113,N,13942.7745,E,0.32,84.20,051016,,,A*5E
$MOTION,131.00,-2449,1286,16084,-412,38,-65,-412,38,-65
$MOTION,500.00,-2478,1256,16060,-415,19,-79,-415,19,-79
$MOTION,166.00,-2313,1285,16073,-445,31,-69,-445,31,-69
$MOTION,115.00,-2340,1213,15929,-442,25,-75,-442,25,-75
$GPRMC,040308.000,A,3533.5113,N,13942.7744,E,0.48,84.20,051016,,,A*5D
$MOTION,140.00,-2457,1258,16089,-443,26,-75,-443,26,-75
$MOTION,420.00,-2397,1352,15874,-409,43,-64,-409,43,-64
$MOTION,161.00,-2461,1323,16055,-477,46,-57,-477,46,-57
$MOTION,110.00,-2528,1504,16032,-447,60,-60,-447,60,-60
$GPRMC,040309.000,A,3533.5113,N,13942.7742,E,0.53,84.20,051016,,,A*50
$MOTION,131.00,-2448,1294,16052,-447,38,-49,-447,38,-49
$MOTION,532.00,-2463,1268,16068,-438,48,-68,-438,48,-68
$MOTION,163.00,-2469,1250,16047,-423,17,-50,-423,17,-50
$MOTION,113.00,-2472,1520,16076,-459,25,-40,-459,25,-40
$GPRMC,040310.000,A,3533.5113,N,13942.7741,E,0.60,278.92,051016,,,A*63
$MOTION,150.00,-2426,1300,16100,-450,36,-60,-450,36,-60
$MOTION,397.00,-2413,1345,16055,-445,30,-69,-445,30,-69
$MOTION,164.00,-2491,1282,16085,-463,47,-71,-463,47,-71
$MOTION,115.00,-2479,1284,16068,-430,26,-55,-430,26,-55
$GPRMC,040311.000,A,3533.5110,N,13942.7740,E,0.43,278.92,051016,,,A*61
$MOTION,152.00,-2416,1339,16074,-476,34,-41,-476,34,-41
$MOTION,509.00,-2448,1525,16074,-454,28,-67,-454,28,-67
$MOTION,164.00,-2441,1374,16114,-453,38,-83,-453,38,-83
$MOTION,113.00,-2464,1524,16106,-399,60,-56,-399,60,-56
$GPRMC,040312.000,A,3533.5106,N,13942.7740,E,0.43,278.92,051016,,,A*65
$MOTION,136.00,-2446,1325,16022,-456,51,-54,-456,51,-54
$MOTION,519.00,-2499,1279,16057,-477,53,-48,-477,53,-48
$MOTION,161.00,-2425,1286,16079,-438,38,-63,-438,38,-63
$MOTION,111.00,-2450,1535,16359,-457,35,-59,-457,35,-59
$GPRMC,040313.000,A,3533.5105,N,13942.7740,E,0.42,278.92,051016,,,A*66
$MOTION,150.00,-2495,1297,15886,-436,35,-65,-436,35,-65
$MOTION,437.00,-2461,1314,16062,-446,25,-65,-446,25,-65
$MOTION,160.00,-2432,1261,16061,-463,33,-69,-463,33,-69
$MOTION,108.00,-2451,1291,16165,-456,36,-59,-456,36,-59
$GPRMC,040314.000,A,3533.5105,N,13942.7743,E,0.25,278.92,051016,,,A*63
$MOTION,135.00,-2471,1306,16072,-438,39,-68,-438,39,-68
$MOTION,479.00,-2488,1280,16069,-430,52,-50,-430,52,-50
$MOTION,162.00,-2493,1303,15884,-421,31,-59,-421,31,-59
$MOTION,110.00,-2417,1285,16064,-430,47,-79,-430,47,-79
$GPRMC,040315.000,A,3533.5104,N,13942.7743,E,0.38,278.92,051016,,,A*6F
$MOTION,150.00,-2453,1309,16108,-435,41,-64,-435,41,-64
$MOTION,519.00,-2484,1282,16106,-458,40,-47,-458,40,-47
$MOTION,158.00,-2487,1530,16062,-442,55,-51,-442,55,-51
$MOTION,107.00,-2487,1518,15995,-448,61,-82,-448,61,-82
$GPRMC,040316.000,A,3533.5103,N,13942.7743,E,0.66,173.52,051016,,,A*64
$MOTION,137.00,-2457,1326,16069,-453,54,-62,-453,54,-62
$MOTION,455.00,-2446,1284,16059,-437,43,-66,-437,43,-66
$MOTION,161.00,-2457,1304,16107,-426,46,-61,-426,46,-61
$MOTION,111.00,-2472,1032,16073,-427,36,-61,-427,36,-61
$GPRMC,040317.000,A,3533.5100,N,13942.7742,E,0.63,185.69,051016,,,A*63
$MOTION,123.00,-2496,1284,16110,-426,34,-43,-426,34,-43
$MOTION,493.00,-2497,1240,16075,-432,44,-81,-432,44,-81
$MOTION,159.00,-2465,1259,16065,-454,37,-79,-454,37,-79
$MOTION,106.00,-2436,1323,16114,-428,38,-62,-428,38,-62
$GPRMC,040318.000,A,3533.5100,N,13942.7744,E,0.47,185.69,051016,,,A*6C
$MOTION,137.00,-2468,1041,15880,-450,38,-56,-450,38,-56
$MOTION,534.00,-2492,1304,16088,-405,27,-51,-405,27,-51
$MOTION,158.00,-2442,1263,16061,-418,49,-51,-418,49,-51
$MOTION,106.00,-2450,1288,16065,-429,21,-61,-429,21,-61
$GPRMC,040319.000,A,3533.5097,N,13942.7747,E,0.65,184.25,051016,,,A*68
$MOTION,122.00,-2434,1531,16092,-450,51,-64,-450,51,-64
$MOTION,477.00,-2484,1288,16040,-422,36,-70,-422,36,-70
$MOTION,159.00,-2470,1267,16031,-429,66,-49,-429,66,-49
$MOTION,106.00,-2442,1338,16069,-437,62,-74,-437,62,-74
$GPRMC,040320.000,A,3533.5094,N,13942.7748,E,0.71,182.81,051016,,,A*63
$MOTION,153.00,-2440,1276,16083,-433,51,-86,-433,51,-86
$MOTION,532.00,-2500,1526,16027,-412,42,-57,-412,42,-57
$MOTION,159.00,-2479,1272,16068,-440,26,-64,-440,26,-64
$MOTION,106.00,-2448,1265,16076,-432,20,-57,-432,20,-57
$GPRMC,040321.000,A,3533.5095,N,13942.7750,E,0.68,181.69,051016,,,A*67
$MOTION,121.00,-2436,1311,16024,-440,26,-89,-440,26,-89
$MOTION,495.00,-2507,1255,16073,-448,54,-61,-448,54,-61
$MOTION,158.00,-2477,1269,16065,-479,41,-74,-479,41,-74
$MOTION,106.00,-2553,1161,16006,-454,40,-59,-454,40,-59
$GPRMC,040322.000,A,3533.5103,N,13942.7755,E,0.28,181.69,051016,,,A*6B
$MOTION,136.00,-2537,1090,15890,-497,73,-46,-497,73,-46
$MOTION,460.00,-2467,1277,16127,-416,50,-59,-416,50,-59
$MOTION,159.00,-2471,1271,16163,-426,45,-66,-426,45,-66
$MOTION,107.00,-2421,1335,16021,-418,42,-62,-418,42,-62
$GPRMC,040323.000,A,3533.5107,N,13942.7763,E,0.29,181.69,051016,,,A*6A
$MOTION,137.00,-2437,1311,16081,-496,52,-76,-496,52,-76
$MOTION,505.00,-2473,1063,16126,-487,47,-57,-487,47,-57
$MOTION,160.00,-2444,1239,16054,-432,19,-38,-432,19,-38
$MOTION,110.00,-2448,1238,16111,-460,24,-56,-460,24,-56
$GPRMC,040324.000,A,3533.5110,N,13942.7773,E,0.57,181.69,051016,,,A*63
$MOTION,123.00,-2414,1027,16047,-423,38,-65,-423,38,-65
$MOTION,546.00,-2445,1502,15903,-455,55,-49,-455,55,-49
$MOTION,162.00,-2536,1233,16100,-394,23,-70,-394,23,-70
$MOTION,110.00,-2445,1222,16065,-434,46,-56,-434,46,-56
$GPRMC,040325.000,A,3533.5112,N,13942.7782,E,0.61,88.41,051016,,,A*59
$MOTION,141.00,-2470,1253,15910,-444,44,-53,-444,44,-53
$MOTION,467.00,-2470,1036,16334,-403,53,-48,-403,53,-48
$MOTION,161.00,-2472,1283,16332,-414,46,-34,-414,46,-34
$MOTION,110.00,-2445,1292,16073,-442,60,-65,-442,60,-65
$GPRMC,040326.000,A,3533.5119,N,13942.7793,E,0.67,86.68,051016,,,A*52
$MOTION,120.00,-2481,1273,16017,-460,13,-62,-460,13,-62
$MOTION,541.00,-2484,1292,16078,-471,37,-78,-471,37,-78
$MOTION,159.00,-2447,1530,16092,-449,30,-56,-449,30,-56
$MOTION,107.00,-2493,1029,16056,-399,36,-73,-399,36,-73
$GPRMC,040327.000,A,3533.5121,N,13942.7800,E,0.62,86.68,051016,,,A*58
$MOTION,137.00,-2429,1292,16061,-455,41,-55,-455,41,-55
$MOTION,491.00,-2479,1262,16070,-452,33,-46,-452,33,-46
$MOTION,160.00,-2459,1318,15872,-475,37,-64,-475,37,-64
$MOTION,106.00,-2488,1304,16127,-406,52,-63,-406,52,-63
$GPRMC,040328.000,A,3533.5126,N,13942.7809,E,0.70,85.53,051016,,,A*51
$MOTION,119.00,-2456,1196,16085,-426,64,-34,-426,64,-34
$MOTION,478.00,-2453,1040,16063,-466,41,-67,-466,41,-67
$MOTION,159.00,-2531,1192,16065,-469,26,-50,-469,26,-50
$MOTION,106.00,-2469,1242,16032,-427,68,-37,-427,68,-37
$GPRMC,040329.000,A,3533.5133,N,13942.7817,E,0.73,83.45,051016,,,A*59
$MOTION,138.00,-2514,1231,16111,-416,41,-72,-416,41,-72
$MOTION,535.00,-2441,1317,16065,-434,58,-75,-434,58,-75
$MOTION,160.00,-2396,1356,16109,-467,42,-75,-467,42,-75
$MOTION,106.00,-2506,1309,16065,-445,28,-51,-445,28,-51
$GPRMC,040330.000,A,3533.5144,N,13942.7828,E,0.98,43.72,051016,,,A*50
$MOTION,137.00,-2405,1530,16101,-422,28,-65,-422,28,-65
$MOTION,505.00,-2442,1299,16053,-435,27,-70,-435,27,-70
$MOTION,158.00,-2501,1507,16070,-433,36,-78,-433,36,-78
$MOTION,107.00,-2482,1335,16065,-477,40,-51,-477,40,-51
$GPRMC,040331.000,A,3533.5153,N,13942.7836,E,1.05,46.69,051016,,,A*52
$MOTION,119.00,-2457,1290,16012,-454,37,-62,-454,37,-62
$MOTION,456.00,-2456,1354,16267,-441,19,-56,-441,19,-56
$MOTION,159.00,-2523,1259,16082,-422,30,-70,-422,30,-70
$MOTION,107.00,-2501,1273,16122,-464,34,-62,-464,34,-62
$GPRMC,040332.000,A,3533.5161,N,13942.7839,E,1.07,46.09,051016,,,A*5B
$MOTION,138.00,-2499,1231,16073,-405,54,-53,-405,54,-53
$MOTION,517.00,-2441,1323,16080,-464,37,-74,-464,37,-74
$MOTION,158.00,-2456,1289,16071,-461,25,-50,-461,25,-50
$MOTION,106.00,-2486,1297,16060,-431,40,-31,-431,40,-31
$GPRMC,040333.000,A,3533.5164,N,13942.7844,E,1.08,45.41,051016,,,A*55
$MOTION,119.00,-2434,1311,16069,-468,36,-86,-468,36,-86
$MOTION,561.00,-2521,1295,16094,-456,36,-42,-456,36,-42
$MOTION,159.00,-2463,1292,16100,-448,71,-81,-448,71,-81
$MOTION,106.00,-2446,1239,16046,-424,42,-76,-424,42,-76
$GPRMC,040334.000,A,3533.5163,N,13942.7843,E,0.79,42.51,051016,,,A*53
$MOTION,137.00,-2451,1293,16092,-455,30,-54,-455,30,-54
$MOTION,495.00,-2449,1310,16119,-413,39,-54,-413,39,-54
$MOTION,158.00,-2477,1300,16374,-455,46,-74,-455,46,-74
$MOTION,106.00,-2464,1528,15885,-425,59,-34,-425,59,-34
$GPRMC,040335.000,A,3533.5162,N,13942.7841,E,0.53,42.51,051016,,,A*59
$MOTION,137.00,-2455,1529,16073,-469,46,-29,-469,46,-29
$MOTION,446.00,-2467,1283,16076,-420,42,-59,-420,42,-59
$MOTION,158.00,-2462,1307,16071,-464,24,-55,-464,24,-55
$MOTION,106.00,-2465,1312,16383,-437,41,-58,-437,41,-58
$GPRMC,040336.000,A,3533.5167,N,13942.7845,E,0.77,30.02,051016,,,A*5E
$MOTION,119.00,-2471,1265,16372,-429,51,-62,-429,51,-62
$MOTION,567.00,-2435,1294,16125,-430,17,-91,-430,17,-91
$MOTION,159.00,-2441,1024,16103,-432,45,-86,-432,45,-86
$MOTION,106.00,-2471,1276,16088,-405,62,-80,-405,62,-80
$GPRMC,040337.000,A,3533.5172,N,13942.7848,E,0.80,32.39,051016,,,A*54
$MOTION,136.00,-2456,1302,16094,-438,46,-49,-438,46,-49
$MOTION,445.00,-2503,1044,16097,-446,50,-78,-446,50,-78
$MOTION,158.00,-2464,1282,16065,-409,40,-68,-409,40,-68
$MOTION,106.00,-2434,1049,15879,-463,45,-59,-463,45,-59
$GPRMC,040338.000,A,3533.5178,N,13942.7849,E,0.81,33.09,051016,,,A*53
$MOTION,119.00,-2461,1028,16082,-447,40,-50,-447,40,-50
$MOTION,523.00,-2429,1269,16082,-396,53,-66,-396,53,-66
$MOTION,159.00,-2454,1303,16069,-429,38,-60,-429,38,-60
$MOTION,106.00,-2473,1061,16063,-492,34,-55,-492,34,-55
$GPRMC,040339.000,A,3533.5178,N,13942.7850,E,0.63,40.96,051016,,,A*54
$MOTION,136.00,-2415,1281,16124,-419,36,-57,-419,36,-57
$MOTION,551.00,-2473,1027,16079,-391,24,-59,-391,24,-59
$MOTION,159.00,-2420,1286,16077,-435,41,-61,-435,41,-61
$MOTION,107.00,-2463,1306,16059,-413,47,-114,-413,47,-114
$GPRMC,040340.000,A,3533.5185,N,13942.7854,E,0.61,40.96,051016,,,A*5E
$MOTION,119.00,-2501,1304,16083,-412,27,-87,-412,27,-87
$MOTION,470.00,-2445,1315,16071,-423,20,-69,-423,20,-69
$MOTION,159.00,-2467,1239,16116,-415,45,-37,-415,45,-37
$MOTION,106.00,-2459,1025,16092,-436,38,-64,-436,38,-64
$GPRMC,040341.000,A,3533.5188,N,13942.7858,E,0.56,40.96,051016,,,A*5A
$MOTION,136.00,-2446,1256,16104,-429,48,-41,-429,48,-41
$MOTION,545.00,-2465,1517,16075,-412,31,-66,-412,31,-66
$MOTION,162.00,-2483,1292,16094,-407,13,-73,-407,13,-73
$MOTION,110.00,-2495,1031,16107,-402,72,-66,-402,72,-66
$GPRMC,040342.000,A,3533.5193,N,13942.7864,E,0.52,40.96,051016,,,A*58
$MOTION,136.00,-2447,1047,16064,-406,61,-70,-406,61,-70
$MOTION,487.00,-2469,1028,16091,-432,47,-66,-432,47,-66
$MOTION,162.00,-2467,1316,16064,-410,40,-93,-410,40,-93
$MOTION,111.00,-2471,1300,16083,-463,32,-46,-463,32,-46
$GPRMC,040343.000,A,3533.5201,N,13942.7869,E,0.52,40.96,051016,,,A*5C
$MOTION,119.00,-2477,1256,16095,-429,26,-69,-429,26,-69
$MOTION,473.00,-2487,1309,16094,-434,54,-54,-434,54,-54
$MOTION,162.00,-2449,1047,16052,-406,54,-72,-406,54,-72
$MOTION,110.00,-2450,1284,16101,-453,30,-70,-453,30,-70
$GPRMC,040344.000,A,3533.5202,N,13942.7870,E,0.63,56.04,051016,,,A*5E
$MOTION,137.00,-2448,1292,16348,-427,49,-46,-427,49,-46
$MOTION,518.00,-2486,1287,16095,-452,38,-43,-452,38,-43
$MOTION,161.00,-2465,1216,16040,-440,45,-59,-440,45,-59
$MOTION,111.00,-2441,1031,16113,-422,49,-61,-422,49,-61
$GPRMC,040345.000,A,3533.5210,N,13942.7879,E,0.67,54.30,051016,,,A*54
$MOTION,120.00,-2441,1323,16109,-470,32,-73,-470,32,-73
$MOTION,469.00,-2449,1290,16108,-396,39,-58,-396,39,-58
$MOTION,161.00,-2442,1034,16067,-449,54,-90,-449,54,-90
$MOTION,109.00,-2464,1311,16123,-406,36,-75,-406,36,-75
$GPRMC,040346.000,A,3533.5219,N,13942.7884,E,0.74,46.44,051016,,,A*5E
$MOTION,137.00,-2481,1028,16087,-421,46,-61,-421,46,-61
$MOTION,518.00,-2499,1041,16119,-412,39,-89,-412,39,-89
$MOTION,160.00,-2469,1259,16092,-447,39,-62,-447,39,-62
$MOTION,111.00,-2459,1507,16090,-454,48,-58,-454,48,-58
$GPRMC,040347.000,A,3533.5231,N,13942.7896,E,1.13,43.65,051016,,,A*50
$MOTION,120.00,-2478,1251,16069,-442,56,-74,-442,56,-74
$MOTION,557.00,-2459,1301,16090,-408,59,-65,-408,59,-65
$MOTION,161.00,-2459,1315,16086,-418,33,-68,-418,33,-68
$MOTION,110.00,-2519,1292,16077,-447,53,-49,-447,53,-49
$GPRMC,040348.000,A,3533.5233,N,13942.7901,E,1.15,67.87,051016,,,A*5E
$MOTION,143.00,-2443,1301,16086,-414,54,-57,-414,54,-57
$MOTION,430.00,-2490,1323,16010,-433,48,-70,-433,48,-70
$MOTION,160.00,-2487,1522,16035,-421,45,-54,-421,45,-54
$MOTION,109.00,-2384,1241,16107,-438,35,-57,-438,35,-57
$GPRMC,040349.000,A,3533.5242,N,13942.7911,E,1.35,66.79,051016,,,A*5A
$MOTION,137.00,-2098,1513,15921,-430,31,-24,-430,31,-24
$MOTION,554.00,-2479,1367,15911,-410,30,-80,-410,30,-80
$MOTION,160.00,-2439,1269,16099,-397,36,-46,-397,36,-46
$MOTION,109.00,-2478,1291,16056,-446,60,-78,-446,60,-78
$GPRMC,040350.000,A,3533.5244,N,13942.7913,E,0.96,65.28,051016,,,A*59
$MOTION,121.00,-2559,1230,16099,-425,38,-30,-425,38,-30
$MOTION,480.00,-2804,1041,15812,-386,19,-72,-386,19,-72
$MOTION,161.00,-2328,1427,16612,-506,87,-83,-506,87,-83
$MOTION,109.00,-2631,824,16026,-412,33,-57,-412,33,-57
$GPRMC,040351.000,A,3533.5245,N,13942.7918,E,0.93,66.77,051016,,,A*5E
$MOTION,134.00,-2601,1068,15889,-472,28,-54,-472,28,-54
$MOTION,518.00,-2494,1338,15975,-418,51,-55,-418,51,-55
$MOTION,161.00,-2416,1334,16100,-425,54,-68,-425,54,-68
$MOTION,110.00,-2460,1528,16102,-439,32,-71,-439,32,-71
$GPRMC,040352.000,A,3533.5248,N,13942.7922,E,0.87,66.08,051016,,,A*54
$MOTION,120.00,-2460,1316,16085,-410,41,-60,-410,41,-60
$MOTION,462.00,-2438,1327,16085,-431,47,-35,-431,47,-35
$MOTION,160.00,-2477,1532,16086,-408,43,-67,-408,43,-67
$MOTION,109.00,-2456,1333,16079,-444,38,-82,-444,38,-82
$GPRMC,040353.000,A,3533.5246,N,13942.7918,E,0.43,66.08,051016,,,A*5A
$MOTION,134.00,-2504,1236,16044,-410,52,-70,-410,52,-70
$MOTION,556.00,-2423,1293,16056,-435,42,-42,-435,42,-42
$MOTION,161.00,-2442,1535,16049,-460,-1,-50,-460,-1,-50
$MOTION,109.00,-2446,1061,16005,-442,22,-75,-442,22,-75
$GPRMC,040354.000,A,3533.5250,N,13942.7926,E,0.65,89.02,051016,,,A*58
$MOTION,120.00,-2464,1308,16074,-417,23,-81,-417,23,-81
$MOTION,453.00,-2465,1306,15881,-462,42,-41,-462,42,-41
$MOTION,160.00,-2438,1318,16070,-433,34,-55,-433,34,-55
$MOTION,109.00,-2463,1264,16068,-450,45,-51,-450,45,-51
$GPRMC,040355.000,A,3533.5251,N,13942.7929,E,0.71,87.36,051016,,,A*5B
$MOTION,136.00,-2446,1521,16113,-414,19,-79,-414,19,-79
$MOTION,541.00,-2435,1279,16071,-400,26,-62,-400,26,-62
$MOTION,161.00,-2458,1269,16099,-439,35,-53,-439,35,-53
$MOTION,110.00,-2474,1523,16061,-429,26,-57,-429,26,-57
$GPRMC,040356.000,A,3533.5251,N,13942.7930,E,0.70,88.17,051016,,,A*5D
$MOTION,136.00,-2468,1508,16103,-411,37,-59,-411,37,-59
$MOTION,459.00,-2539,1522,16126,-486,37,-52,-486,37,-52
$MOTION,160.00,-2446,1506,16095,-463,31,-89,-463,31,-89
$MOTION,109.00,-2490,1057,16063,-451,44,-85,-451,44,-85
$GPRMC,040357.000,A,3533.5252,N,13942.7931,E,0.66,87.20,051016,,,A*52
$MOTION,120.00,-2472,1275,16078,-445,32,-50,-445,32,-50
$MOTION,555.00,-2474,1287,16068,-450,23,-64,-450,23,-64
$MOTION,162.00,-2457,1311,16081,-392,31,-71,-392,31,-71
$MOTION,109.00,-2467,1312,16071,-457,36,-72,-457,36,-72
$GPRMC,040358.000,A,3533.5254,N,13942.7935,E,0.61,87.20,051016,,,A*58
$MOTION,135.00,-2474,1301,15874,-437,49,-45,-437,49,-45
$MOTION,484.00,-2461,1313,16041,-408,29,-74,-408,29,-74
$MOTION,160.00,-2442,1025,16017,-417,48,-60,-417,48,-60
$MOTION,109.00,-2534,1238,16007,-449,26,-65,-449,26,-65
$GPRMC,040359.000,A,3533.5256,N,13942.7937,E,0.60,41.76,051016,,,A*51
$MOTION,120.00,-2480,1265,16076,-407,60,-74,-407,60,-74
$MOTION,465.00,-2475,1510,16053,-429,27,-62,-429,27,-62
$MOTION,160.00,-2505,1224,16082,-442,37,-47,-442,37,-47
$MOTION,111.00,-2478,1217,15888,-423,24,-58,-423,24,-58
$GPRMC,040400.000,A,3533.5257,N,13942.7946,E,0.59,65.43,051016,,,A*57
$MOTION,136.00,-2466,1310,16099,-461,51,-70,-461,51,-70
$MOTION,484.00,-2444,1286,16092,-404,53,-90,-404,53,-90
$MOTION,162.00,-951,2219,16990,-656,907,-267,-656,907,-267
$MOTION,110.00,-2455,1528,16680,-409,159,-53,-409,159,-53
$GPRMC,040401.000,A,3533.5255,N,13942.7949,E,0.60,64.34,051016,,,A*50
$MOTION,120.00,-2436,1352,16338,-433,48,-52,-433,48,-52
$MOTION,525.00,-2443,1270,16344,-437,91,-54,-437,91,-54
$MOTION,161.00,-2392,1297,15706,-464,57,-75,-464,57,-75
$MOTION,109.00,-2508,1327,16019,-412,43,-70,-412,43,-70
$GPRMC,040402.000,A,3533.5259,N,13942.7957,E,0.87,61.25,051016,,,A*5C
$MOTION,138.00,-2049,1250,15887,-457,28,-57,-457,28,-57
$MOTION,549.00,-2436,1372,16062,-419,27,-91,-419,27,-91
$MOTION,161.00,-2444,1244,15687,-480,27,-54,-480,27,-54
$MOTION,109.00,-2518,1529,15848,-413,31,-50,-413,31,-50
$GPRMC,040403.000,A,3533.5259,N,13942.7958,E,0.94,59.94,051016,,,A*51
$MOTION,137.00,-2458,1360,16118,-409,58,-82,-409,58,-82
$MOTION,478.00,-2464,1303,15890,-445,42,-70,-445,42,-70
$MOTION,161.00,-2433,1366,16015,-429,29,-69,-429,29,-69
$MOTION,110.00,-2789,1283,15823,-490,47,-58,-490,47,-58
$GPRMC,040404.000,A,3533.5265,N,13942.7969,E,1.29,59.39,051016,,,A*5B
$MOTION,120.00,-2522,1294,15978,-398,37,-65,-398,37,-65
$MOTION,523.00,-2450,1263,16060,-425,50,-83,-425,50,-83
$MOTION,162.00,-2439,1321,16065,-417,49,-51,-417,49,-51
$MOTION,110.00,-2537,1277,16078,-414,17,-71,-414,17,-71
$GPRMC,040405.000,A,3533.5269,N,13942.7975,E,1.26,57.39,051016,,,A*5A
$MOTION,135.00,-2456,1282,16047,-448,26,-68,-448,26,-68
$MOTION,466.00,-2470,1332,16115,-443,47,-56,-443,47,-56
$MOTION,161.00,-2509,1249,16087,-433,22,-68,-433,22,-68
$MOTION,110.00,-2487,1229,16033,-405,32,-53,-405,32,-53
$GPRMC,040406.000,A,3533.5272,N,13942.7980,E,1.27,59.03,051016,,,A*5F
$MOTION,120.00,-2482,1181,15906,-427,9,-51,-427,9,-51
$MOTION,462.00,-2513,1276,15885,-462,62,-83,-462,62,-83
$MOTION,161.00,-2462,1318,16043,-400,46,-56,-400,46,-56
$MOTION,109.00,-2466,1309,16073,-445,47,-47,-445,47,-47
$GPRMC,040407.000,A,3533.5275,N,13942.7986,E,1.50,72.67,051016,,,A*54
$MOTION,137.00,-2449,1333,16082,-436,34,-54,-436,34,-54
$MOTION,533.00,-2466,1347,16065,-441,41,-60,-441,41,-60
$MOTION,160.00,-2443,1043,16129,-477,43,-58,-477,43,-58
$MOTION,110.00,-2488,1310,15873,-488,48,-63,-488,48,-63
$GPRMC,040408.000,A,3533.5278,N,13942.7994,E,1.50,71.51,051016,,,A*53
$MOTION,141.00,-2453,1293,16073,-447,38,-74,-447,38,-74
$MOTION,545.00,-2434,1285,16102,-436,39,-76,-436,39,-76
$MOTION,161.00,-2512,1295,16078,-442,32,-55,-442,32,-55
$MOTION,110.00,-2458,1038,16091,-461,37,-87,-461,37,-87
$GPRMC,040409.000,A,3533.5279,N,13942.8003,E,1.82,74.88,051016,,,A*55
$MOTION,121.00,-2498,1303,16099,-469,33,-73,-469,33,-73
$MOTION,440.00,-2430,1282,16116,-457,49,-37,-457,49,-37
$MOTION,162.00,-2464,1510,16063,-429,13,-74,-429,13,-74
$MOTION,109.00,-2453,1025,16085,-425,43,-61,-425,43,-61
$GPRMC,040410.000,A,3533.5278,N,13942.8001,E,0.51,74.88,051016,,,A*51
$MOTION,136.00,-2441,1330,16106,-447,39,-68,-447,39,-68
$MOTION,486.00,-2489,1303,16070,-453,61,-65,-453,61,-65
$MOTION,161.00,-2477,1302,16053,-437,47,-63,-437,47,-63
$MOTION,108.00,-2469,1047,15879,-434,35,-46,-434,35,-46
$GPRMC,040411.000,A,3533.5281,N,13942.8004,E,0.94,36.24,051016,,,A*5A
$MOTION,121.00,-2462,1298,16061,-404,57,-58,-404,57,-58
$MOTION,522.00,-2469,1292,16090,-439,17,-80,-439,17,-80
$MOTION,160.00,-2445,1534,16093,-431,54,-78,-431,54,-78
$MOTION,108.00,-2452,1070,15898,-452,59,-72,-452,59,-72
$GPRMC,040412.000,A,3533.5283,N,13942.8008,E,0.72,82.41,051016,,,A*53
$MOTION,134.00,-2491,1488,16382,-449,34,-71,-449,34,-71
$MOTION,556.00,-2497,1323,16073,-416,66,-49,-416,66,-49
$MOTION,161.00,-2459,1328,16349,-437,50,-62,-437,50,-62
$MOTION,108.00,-2428,1323,16098,-447,37,-48,-447,37,-48
$GPRMC,040413.000,A,3533.5282,N,13942.8003,E,0.17,82.41,051016,,,A*5B
$MOTION,119.00,-2463,1246,16028,-437,37,-61,-437,37,-61
$MOTION,462.00,-2482,1308,16360,-448,34,-50,-448,34,-50
$MOTION,159.00,-2475,1307,16104,-416,36,-60,-416,36,-60
$MOTION,107.00,-2508,1304,16101,-404,22,-55,-404,22,-55
$GPRMC,040414.000,A,3533.5283,N,13942.8000,E,0.86,38.63,051016,,,A*57
$MOTION,138.00,-2433,1330,15962,-407,21,-64,-407,21,-64
$MOTION,501.00,-2468,1339,16084,-466,51,-71,-466,51,-71
$MOTION,158.00,-2493,1065,16058,-457,47,-61,-457,47,-61
$MOTION,105.00,-2462,1267,16077,-415,40,-55,-415,40,-55
$GPRMC,040415.000,A,3533.5280,N,13942.7984,E,1.21,8.92,051016,,,A*6E
$MOTION,139.00,-2454,1312,16109,-434,36,-47,-434,36,-47
$MOTION,486.00,-2470,1288,16057,-447,40,-32,-447,40,-32
$MOTION,157.00,-2430,1321,16011,-409,42,-83,-409,42,-83
$MOTION,105.00,-2464,1343,16071,-468,40,-63,-468,40,-63
$GPRMC,040416.000,A,3533.5272,N,13942.7960,E,0.52,8.92,051016,,,A*6F
$MOTION,117.00,-2502,1342,16095,-426,28,-60,-426,28,-60
$MOTION,586.00,-2437,1292,16044,-438,32,-66,-438,32,-66
$MOTION,160.00,-2443,1305,16114,-431,58,-41,-431,58,-41
$MOTION,108.00,-2445,1299,16091,-453,30,-60,-453,30,-60
$GPRMC,040417.000,A,3533.5270,N,13942.7952,E,0.50,8.92,051016,,,A*6F
$MOTION,135.00,-2474,1300,16070,-442,39,-67,-442,39,-67
$MOTION,454.00,-2503,1323,16102,-418,32,-84,-418,32,-84
$MOTION,158.00,-2435,1347,16068,-437,20,-61,-437,20,-61
$MOTION,109.00,-2459,1028,16071,-452,33,-55,-452,33,-55
$GPRMC,040418.000,A,3533.5264,N,13942.7943,E,1.21,218.83,051016,,,A*61
$MOTION,116.00,-2469,1027,16078,-444,30,-63,-444,30,-63
$MOTION,560.00,-2471,1310,16082,-440,29,-64,-440,29,-64
$MOTION,160.00,-2547,1365,16119,-425,46,-72,-425,46,-72
$MOTION,108.00,-2447,1520,16080,-423,45,-90,-423,45,-90
$GPRMC,040419.000,A,3533.5255,N,13942.7921,E,0.45,218.83,051016,,,A*65
$MOTION,137.00,-2494,1353,16100,-467,28,-71,-467,28,-71
$MOTION,500.00,-2486,1293,16188,-436,32,-86,-436,32,-86
$MOTION,161.00,-2457,1229,16084,-447,41,-64,-447,41,-64
$MOTION,111.00,-2439,1345,16110,-450,38,-52,-450,38,-52
$GPRMC,040420.000,A,3533.5250,N,13942.7911,E,0.87,75.47,051016,,,A*56
$MOTION,121.00,-2429,1026,16078,-415,14,-70,-415,14,-70
$MOTION,430.00,-2480,1337,16058,-464,43,-42,-464,43,-42
$MOTION,162.00,-2441,1287,15876,-418,46,-63,-418,46,-63
$MOTION,110.00,-2405,1372,16089,-445,37,-63,-445,37,-63
$GPRMC,040421.000,A,3533.5243,N,13942.7890,E,0.36,75.47,051016,,,A*57
$MOTION,137.00,-2492,1307,16010,-441,50,-74,-441,50,-74
$MOTION,484.00,-2436,1253,16000,-448,45,-80,-448,45,-80
$MOTION,161.00,-2496,1254,16043,-445,38,-73,-445,38,-73
$MOTION,111.00,-2461,1254,16058,-440,46,-69,-440,46,-69
$GPRMC,040422.000,A,3533.5240,N,13942.7881,E,0.61,251.95,051016,,,A*6E
$MOTION,137.00,-2493,1519,16053,-476,40,-66,-476,40,-66
$MOTION,508.00,-2462,1315,16074,-457,35,-69,-457,35,-69
$MOTION,160.00,-2476,1503,15879,-473,23,-46,-473,23,-46
$MOTION,111.00,-2466,1307,16057,-452,44,-80,-452,44,-80
$GPRMC,040423.000,A,3533.5237,N,13942.7869,E,1.33,249.81,051016,,,A*63
$MOTION,122.00,-2485,1046,15909,-469,32,-47,-469,32,-47
$MOTION,553.00,-2493,1024,16124,-431,51,-81,-431,51,-81
$MOTION,161.00,-2490,1265,15884,-459,34,-63,-459,34,-63
$MOTION,109.00,-2495,1271,16054,-449,40,-88,-449,40,-88
$GPRMC,040424.000,A,3533.5236,N,13942.7864,E,1.02,247.51,051016,,,A*69
$MOTION,138.00,-2465,1267,16058,-413,26,-59,-413,26,-59
$MOTION,488.00,-2454,1280,16057,-453,44,-61,-453,44,-61
$MOTION,162.00,-2469,1039,16376,-441,38,-52,-441,38,-52
$MOTION,109.00,-2466,1290,16099,-467,33,-57,-467,33,-57
$GPRMC,040425.000,A,3533.5236,N,13942.7866,E,0.43,247.51,051016,,,A*6E
$MOTION,122.00,-2464,1295,16367,-431,37,-57,-431,37,-57
$MOTION,514.00,-2452,1273,16127,-397,32,-51,-397,32,-51
$MOTION,160.00,-2499,1513,16377,-423,61,-63,-423,61,-63
$MOTION,110.00,-2468,1296,16122,-415,54,-33,-415,54,-33
$GPRMC,040426.000,A,3533.5232,N,13942.7870,E,1.74,243.33,051016,,,A*6B
$MOTION,137.00,-2484,1304,16068,-443,47,-29,-443,47,-29
$MOTION,481.00,-2490,1308,16083,-435,27,-72,-435,27,-72
$MOTION,156.00,-2466,1523,16083,-425,37,-88,-425,37,-88
$MOTION,104.00,-2499,1316,16073,-448,36,-61,-448,36,-61
$GPRMC,040427.000,A,3533.5226,N,13942.7867,E,2.20,239.97,051016,,,A*68
$MOTION,120.00,-2471,1318,16080,-437,34,-75,-437,34,-75
$MOTION,484.00,-2508,1304,16111,-462,31,-73,-462,31,-73
$MOTION,161.00,-2457,1028,16090,-454,16,-72,-454,16,-72
$MOTION,108.00,-2449,1296,16076,-450,39,-68,-450,39,-68
$GPRMC,040428.000,A,3533.5224,N,13942.7867,E,0.88,180.64,051016,,,A*68
$MOTION,137.00,-2490,1307,16131,-447,39,-67,-447,39,-67
$MOTION,472.00,-2444,1297,16003,-401,38,-83,-401,38,-83
$MOTION,161.00,-2441,1384,16210,-430,21,-45,-430,21,-45
$MOTION,109.00,-2473,1290,16073,-451,26,-63,-451,26,-63
$GPRMC,040429.000,A,3533.5223,N,13942.7866,E,0.39,180.64,051016,,,A*65
$MOTION,139.00,-2463,1289,16072,-450,41,-69,-450,41,-69
$MOTION,526.00,-2470,1335,16112,-430,38,-70,-430,38,-70
$MOTION,161.00,-2457,1285,16065,-406,45,-70,-406,45,-70
$MOTION,110.00,-2460,1525,15894,-469,52,-89,-469,52,-89
$GPRMC,040430.000,A,3533.5221,N,13942.7863,E,0.68,186.25,051016,,,A*6D
$MOTION,122.00,-2539,1120,16045,-447,58,-68,-447,58,-68
$MOTION,498.00,-2509,1024,16048,-427,31,-71,-427,31,-71
$MOTION,161.00,-2465,1532,16069,-446,19,-63,-446,19,-63
$MOTION,109.00,-2461,1309,16088,-437,30,-102,-437,30,-102
$GPRMC,040431.000,A,3533.5221,N,13942.7862,E,0.62,186.25,051016,,,A*67
$MOTION,137.00,-2473,1239,15951,-447,52,-67,-447,52,-67
$MOTION,503.00,-2459,1265,16080,-436,30,-60,-436,30,-60
$MOTION,162.00,-2455,1308,16061,-445,19,-69,-445,19,-69
$MOTION,111.00,-2451,1289,16095,-474,49,-29,-474,49,-29
$GPRMC,040432.000,A,3533.5220,N,13942.7862,E,0.87,190.55,051016,,,A*6E
$MOTION,122.00,-2443,1035,16079,-461,35,-69,-461,35,-69
$MOTION,507.00,-2474,1525,16083,-451,35,-70,-451,35,-70
$MOTION,160.00,-2470,1258,16102,-431,41,-44,-431,41,-44
$MOTION,111.00,-2477,1517,16082,-440,48,-68,-440,48,-68
$GPRMC,040433.000,A,3533.5220,N,13942.7861,E,0.48,190.55,051016,,,A*6F
$MOTION,140.00,-2521,1302,16022,-408,49,-57,-408,49,-57
$MOTION,518.00,-2461,1339,16099,-409,13,-43,-409,13,-43
$MOTION,160.00,-2467,1331,16086,-417,46,-69,-417,46,-69
$MOTION,110.00,-2476,1324,15873,-414,39,-61,-414,39,-61
$GPRMC,040434.000,A,3533.5222,N,13942.7865,E,0.99,55.79,051016,,,A*54
$MOTION,140.00,-2424,1029,16044,-421,21,-63,-421,21,-63
$MOTION,434.00,-2468,1295,15876,-441,42,-94,-441,42,-94
$MOTION,160.00,-2436,1500,15993,-421,46,-68,-421,46,-68
$MOTION,110.00,-2461,1529,16024,-425,49,-71,-425,49,-71
$GPRMC,040435.000,A,3533.5223,N,13942.7869,E,0.57,55.79,051016,,,A*5A
$MOTION,120.00,-2455,1293,16376,-431,40,-61,-431,40,-61
$MOTION,557.00,-2499,1297,16106,-469,15,-63,-469,15,-63
$MOTION,161.00,-2480,1029,15875,-452,41,-58,-452,41,-58
$MOTION,108.00,-2489,1535,16099,-414,24,-79,-414,24,-79
$GPRMC,040436.000,A,3533.5217,N,13942.7866,E,1.52,218.40,051016,,,A*64
$MOTION,135.00,-2450,1289,16083,-439,39,-67,-439,39,-67
$MOTION,453.00,-2453,1317,16064,-475,35,-68,-475,35,-68
$MOTION,160.00,-2473,1280,16081,-449,22,-80,-449,22,-80
$MOTION,110.00,-2471,1507,16101,-441,18,-31,-441,18,-31
$GPRMC,040437.000,A,3533.5212,N,13942.7862,E,1.03,217.72,051016,,,A*6E
$MOTION,122.00,-2453,1270,16119,-465,14,-49,-465,14,-49
$MOTION,550.00,-2471,1311,16033,-473,43,-87,-473,43,-87
$MOTION,161.00,-2446,1327,16063,-443,28,-73,-443,28,-73
$MOTION,109.00,-2494,1283,16026,-438,19,-73,-438,19,-73
$GPRMC,040438.000,A,3533.5208,N,13942.7858,E,0.60,216.94,051016,,,A*6E
$MOTION,137.00,-2460,1530,16069,-414,74,-81,-414,74,-81
$MOTION,469.00,-2784,1325,16614,-438,61,-66,-438,61,-66
$MOTION,160.00,-2463,1028,16102,-472,69,-73,-472,69,-73
$MOTION,110.00,-2558,1210,16035,-462,17,-46,-462,17,-46
$GPRMC,040439.000,A,3533.5208,N,13942.7858,E,0.56,216.94,051016,,,A*6A
$MOTION,121.00,-2463,1194,16303,-404,34,-76,-404,34,-76
$MOTION,562.00,-2506,1512,16072,-459,37,-56,-459,37,-56
$MOTION,162.00,-2437,1316,16373,-450,41,-68,-450,41,-68
$MOTION,113.00,-2498,1294,16109,-419,63,-79,-419,63,-79
$GPRMC,040440.000,A,3533.5206,N,13942.7853,E,0.32,216.94,051016,,,A*63
$MOTION,149.00,-2471,1287,16078,-452,37,-56,-452,37,-56
$MOTION,481.00,-2493,1308,16076,-416,21,-54,-416,21,-54
$MOTION,161.00,-2488,1062,16064,-424,26,-46,-424,26,-46
$MOTION,112.00,-2437,1520,16089,-436,54,-66,-436,54,-66
$GPRMC,040441.000,A,3533.5202,N,13942.7846,E,0.34,216.94,051016,,,A*64
$MOTION,147.00,-2482,1299,16111,-448,38,-49,-448,38,-49
$MOTION,440.00,-2482,1233,16075,-416,32,-75,-416,32,-75
$MOTION,163.00,-2513,1255,16089,-452,44,-61,-452,44,-61
$MOTION,113.00,-2460,1249,16083,-405,42,-71,-405,42,-71
$GPRMC,040442.000,A,3533.5199,N,13942.7838,E,0.27,216.79,051016,,,A*6E
$MOTION,136.00,-2478,1298,16086,-445,49,-67,-445,49,-67
$MOTION,464.00,-2468,1311,16070,-426,35,-52,-426,35,-52
$MOTION,164.00,-2473,1282,16062,-460,22,-52,-460,22,-52
$MOTION,113.00,-2486,1300,16075,-468,45,-53,-468,45,-53
$GPRMC,040443.000,A,3533.5199,N,13942.7838,E,0.67,49.16,051016,,,A*5A
$MOTION,186.00,-2480,1271,16064,-460,24,-66,-460,24,-66
$MOTION,460.00,-2471,1056,16083,-425,37,-61,-425,37,-61
$MOTION,163.00,-2467,1534,16101,-412,26,-53,-412,26,-53
$MOTION,113.00,-2485,1324,16079,-419,17,-88,-419,17,-88
$GPRMC,040444.000,A,3533.5199,N,13942.7836,E,0.73,24.13,051016,,,A*58
$MOTION,132.00,-2445,1315,16057,-405,31,-86,-405,31,-86
$MOTION,546.00,-2470,1233,16041,-441,25,-69,-441,25,-69
$MOTION,163.00,-2469,1290,16121,-468,53,-92,-468,53,-92
$MOTION,113.00,-2439,1031,16045,-456,54,-86,-456,54,-86
$GPRMC,040445.000,A,3533.5195,N,13942.7826,E,0.90,241.97,051016,,,A*64
$MOTION,150.00,-2462,1300,16096,-431,30,-53,-431,30,-53
$MOTION,480.00,-2528,1314,16063,-427,41,-52,-427,41,-52
$MOTION,164.00,-2458,1328,16089,-478,36,-56,-478,36,-56
$MOTION,111.00,-2495,1305,16106,-452,46,-71,-452,46,-71
$GPRMC,040446.000,A,3533.5191,N,13942.7820,E,0.64,238.62,051016,,,A*6A
$MOTION,135.00,-2467,1234,16053,-459,29,-72,-459,29,-72
$MOTION,482.00,-2441,1308,16070,-454,21,-43,-454,21,-43
$MOTION,163.00,-2494,1052,16072,-465,15,-70,-465,15,-70
$MOTION,113.00,-2475,1034,16010,-407,35,-72,-407,35,-72
$GPRMC,040447.000,A,3533.5184,N,13942.7812,E,1.35,237.68,051016,,,A*6E
$MOTION,150.00,-2492,1324,16148,-448,34,-68,-448,34,-68
$MOTION,454.00,-2488,1337,16027,-427,25,-77,-427,25,-77
$MOTION,164.00,-2433,1337,16082,-428,38,-64,-428,38,-64
$MOTION,112.00,-2429,1301,16049,-445,66,-84,-445,66,-84
$GPRMC,040448.000,A,3533.5179,N,13942.7804,E,0.22,237.68,051016,,,A*63
$MOTION,148.00,-2443,1050,16079,-474,46,-69,-474,46,-69
$MOTION,459.00,-2445,1313,16070,-427,25,-54,-427,25,-54
$MOTION,164.00,-2470,1298,15874,-455,56,-62,-455,56,-62
$MOTION,111.00,-2460,1520,16070,-417,43,-70,-417,43,-70
$GPRMC,040449.000,A,3533.5178,N,13942.7802,E,0.18,237.68,051016,,,A*6C
$MOTION,135.00,-2487,1301,16095,-434,43,-53,-434,43,-53
$MOTION,492.00,-2458,1325,16061,-501,42,-62,-501,42,-62
$MOTION,163.00,-2486,1310,16034,-451,59,-86,-451,59,-86
$MOTION,113.00,-2434,1323,16049,-435,27,-64,-435,27,-64
$GPRMC,040450.000,A,3533.5176,N,13942.7800,E,0.34,237.68,051016,,,A*66
$MOTION,150.00,-2451,1048,15872,-429,67,-66,-429,67,-66
$MOTION,551.00,-2466,1034,15999,-433,17,-97,-433,17,-97
$MOTION,162.00,-2502,1322,16074,-464,23,-54,-464,23,-54
$MOTION,113.00,-2453,1325,16085,-444,44,-135,-444,44,-135
$GPRMC,040451.000,A,3533.5178,N,13942.7803,E,0.38,237.50,051016,,,A*6D
$MOTION,133.00,-2478,1289,16065,-424,21,-54,-424,21,-54
$MOTION,436.00,-2454,1025,16119,-458,28,-81,-458,28,-81
$MOTION,163.00,-2437,1275,15976,-421,32,-60,-421,32,-60
$MOTION,112.00,-2458,1043,15997,-420,30,-55,-420,30,-55
$GPRMC,040452.000,A,3533.5178,N,13942.7802,E,0.23,237.59,051016,,,A*6C
$MOTION,150.00,-2530,1249,16128,-436,59,-50,-436,59,-50
$MOTION,498.00,-2495,1255,15924,-451,8,-54,-451,8,-54
$MOTION,163.00,-2436,1387,16081,-409,55,-58,-409,55,-58
$MOTION,112.00,-2467,1321,15894,-436,47,-64,-436,47,-64
$GPRMC,040453.000,A,3533.5177,N,13942.7801,E,0.85,283.16,051016,,,A*69
$MOTION,147.00,-2471,1347,16056,-437,31,-65,-437,31,-65
$MOTION,457.00,-2496,1276,16084,-416,54,-83,-416,54,-83
$MOTION,160.00,-2488,1285,15878,-436,20,-64,-436,20,-64
$MOTION,109.00,-2495,1294,16133,-431,49,-108,-431,49,-108
$GPRMC,040454.000,A,3533.5179,N,13942.7796,E,1.27,277.97,051016,,,A*6A
$MOTION,135.00,-2513,1239,16057,-432,47,-73,-432,47,-73
$MOTION,543.00,-2431,1322,15954,-433,31,-86,-433,31,-86
$MOTION,164.00,-2516,1254,16376,-409,52,-50,-409,52,-50
$MOTION,111.00,-2465,1245,16096,-431,20,-71,-431,20,-71
$GPRMC,040455.000,A,3533.5182,N,13942.7794,E,0.67,284.72,051016,,,A*6F
$MOTION,147.00,-2421,1259,15907,-457,-3,-74,-457,-3,-74
$MOTION,428.00,-2498,1278,16106,-436,24,-54,-436,24,-54
$MOTION,162.00,-2482,1276,16067,-439,30,-50,-439,30,-50
$MOTION,113.00,-2470,1279,16072,-429,34,-47,-429,34,-47
$GPRMC,040456.000,A,3533.5185,N,13942.7796,E,0.71,32.21,051016,,,A*57
$MOTION,134.00,-2460,1525,16104,-439,46,-59,-439,46,-59
$MOTION,531.00,-2474,1532,16098,-397,26,-66,-397,26,-66
$MOTION,164.00,-2486,1246,16070,-461,38,-69,-461,38,-69
$MOTION,113.00,-2476,1227,16071,-436,38,-74,-436,38,-74
$GPRMC,040457.000,A,3533.5184,N,13942.7794,E,0.75,34.45,051016,,,A*55
$MOTION,148.00,-2489,1257,16122,-416,19,-90,-416,19,-90
$MOTION,452.00,-2443,1346,16107,-449,42,-77,-449,42,-77
$MOTION,163.00,-2493,1314,16055,-432,25,-59,-432,25,-59
$MOTION,113.00,-2470,1040,16048,-452,35,-32,-452,35,-32
$GPRMC,040458.000,A,3533.5183,N,13942.7793,E,0.20,34.45,051016,,,A*5A
$MOTION,134.00,-2456,1051,16123,-413,52,-58,-413,52,-58
$MOTION,463.00,-2468,1333,16074,-419,45,-48,-419,45,-48
$MOTION,160.00,-2491,1285,16020,-448,45,-48,-448,45,-48
$MOTION,110.00,-2456,1345,16093,-439,-249,-75,-439,-249,-75
$GPRMC,040459.000,A,3533.5182,N,13942.7790,E,0.22,34.45,051016,,,A*5B
$MOTION,151.00,-2477,1328,16362,-414,33,-56,-414,33,-56
$MOTION,492.00,-2458,1268,15893,-431,45,-56,-431,45,-56
$MOTION,161.00,-2442,1526,16047,-445,48,-68,-445,48,-68
$MOTION,109.00,-2449,1310,15970,-429,25,-63,-429,25,-63
$GPRMC,040500.000,A,3533.5181,N,13942.7784,E,0.50,34.45,051016,,,A*55
$MOTION,135.00,-2457,1263,16080,-453,56,-66,-453,56,-66
$MOTION,543.00,-2435,1383,16027,-448,17,-69,-448,17,-69
$MOTION,161.00,-2382,1394,16141,-441,56,-81,-441,56,-81
$MOTION,111.00,-2414,1401,16066,-419,38,-64,-419,38,-64
$GPRMC,040501.000,A,3533.5179,N,13942.7778,E,0.15,34.45,051016,,,A*51
$MOTION,121.00,-2473,1369,15950,-475,30,-68,-475,30,-68
$MOTION,505.00,-2474,1331,16124,-459,47,-66,-459,47,-66
$MOTION,161.00,-2505,1265,16102,-440,29,-84,-440,29,-84
$MOTION,111.00,-2502,1158,16125,-441,47,-67,-441,47,-67
$GPRMC,040502.000,A,3533.5179,N,13942.7779,E,0.41,34.45,051016,,,A*52
$MOTION,136.00,-2495,1086,16004,-420,18,-70,-420,18,-70
$MOTION,455.00,-2492,1296,16080,-413,22,-48,-413,22,-48
$MOTION,159.00,-2368,1355,16190,-476,67,-66,-476,67,-66
$MOTION,110.00,-2404,1431,15986,-416,6,-91,-416,6,-91
$GPRMC,040503.000,A,3533.5180,N,13942.7779,E,0.65,353.71,051016,,,A*66
$MOTION,121.00,-2446,1433,16320,-425,41,-48,-425,41,-48
$MOTION,491.00,-2426,1410,16079,-394,60,-69,-394,60,-69
$MOTION,160.00,-2559,1215,16043,-420,28,-73,-420,28,-73
$MOTION,109.00,-2488,1244,16095,-423,12,-56,-423,12,-56
$GPRMC,040504.000,A,3533.5178,N,13942.7773,E,0.47,353.71,051016,,,A*6C
$MOTION,137.00,-2500,1159,15880,-369,22,-35,-369,22,-35
$MOTION,489.00,-2527,1321,15876,-455,37,-69,-455,37,-69
$MOTION,162.00,-2454,1459,16324,-478,40,-61,-478,40,-61
$MOTION,111.00,-2404,1306,16020,-442,46,-74,-442,46,-74
$GPRMC,040505.000,A,3533.5175,N,13942.7764,E,0.86,247.91,051016,,,A*61
$MOTION,122.00,-2454,1344,16146,-459,33,-73,-459,33,-73
$MOTION,567.00,-2516,1238,15942,-402,61,-62,-402,61,-62
$MOTION,162.00,-2471,1229,15976,-464,50,-57,-464,50,-57
$MOTION,111.00,-2513,1291,16048,-435,36,-63,-435,36,-63
$GPRMC,040506.000,A,3533.5162,N,13942.7741,E,2.36,245.63,051016,,,A*65
$MOTION,139.00,-2511,1272,16098,-432,34,-66,-432,34,-66
$MOTION,483.00,-2438,1114,16118,-402,41,-60,-402,41,-60
$MOTION,162.00,-2445,1379,16072,-469,44,-42,-469,44,-42
$MOTION,111.00,-2451,1472,16348,-477,29,-55,-477,29,-55
$GPRMC,040507.000,A,3533.5152,N,13942.7726,E,2.52,243.56,051016,,,A*64
$MOTION,138.00,-2423,1404,16067,-454,26,-60,-454,26,-60
$MOTION,488.00,-2527,1049,16076,-402,14,-63,-402,14,-63
$MOTION,161.00,-2497,1515,16362,-439,37,-58,-439,37,-58
$MOTION,110.00,-2453,1258,16114,-483,44,-73,-483,44,-73
$GPRMC,040508.000,A,3533.5149,N,13942.7726,E,1.68,242.99,051016,,,A*69
$MOTION,123.00,-2447,1286,16067,-434,19,-68,-434,19,-68
$MOTION,466.00,-2474,1281,16116,-429,57,-56,-429,57,-56
$MOTION,161.00,-2456,1251,16031,-453,42,-57,-453,42,-57
$MOTION,110.00,-2495,1049,16072,-389,68,-71,-389,68,-71
$GPRMC,040509.000,A,3533.5146,N,13942.7727,E,1.43,242.09,051016,,,A*66
$MOTION,137.00,-2461,1276,15872,-392,38,-28,-392,38,-28
$MOTION,488.00,-2451,1315,16042,-395,19,-37,-395,19,-37
$MOTION,161.00,-2416,1288,16066,-427,56,-76,-427,56,-76
$MOTION,109.00,-2473,1058,16056,-456,25,-85,-456,25,-85
$GPRMC,040510.000,A,3533.5144,N,13942.7724,E,0.74,244.85,051016,,,A*68
$MOTION,123.00,-2474,1307,16124,-459,54,-46,-459,54,-46
$MOTION,514.00,-2475,1300,15872,-456,29,-62,-456,29,-62
$MOTION,162.00,-2475,1266,16049,-403,40,-50,-403,40,-50
$MOTION,113.00,-2469,1529,15875,-414,61,-60,-414,61,-60
$GPRMC,040511.000,A,3533.5145,N,13942.7728,E,0.68,3.78,051016,,,A*6A
$MOTION,157.00,-2461,1305,16135,-410,57,-63,-410,57,-63
$MOTION,532.00,-2436,1325,16334,-418,40,-35,-418,40,-35
$MOTION,164.00,-2477,1349,16040,-411,8,-47,-411,8,-47
$MOTION,113.00,-2477,1347,16079,-436,29,-48,-436,29,-48
$GPRMC,040512.000,A,3533.5143,N,13942.7730,E,0.98,6.10,051016,,,A*62
$MOTION,130.00,-2440,1379,16001,-459,56,-46,-459,56,-46
$MOTION,454.00,-2451,1295,16063,-430,51,-68,-430,51,-68
$MOTION,164.00,-2448,1282,16078,-433,35,-74,-433,35,-74
$MOTION,113.00,-2446,1323,16054,-425,42,-85,-425,42,-85
$GPRMC,040513.000,A,3533.5142,N,13942.7732,E,0.93,9.38,051016,,,A*6E
$MOTION,147.00,-2467,1292,16047,-410,42,-73,-410,42,-73
$MOTION,515.00,-2469,1326,16070,-410,28,-73,-410,28,-73
$MOTION,163.00,-2465,1332,16050,-451,51,-47,-451,51,-47
$MOTION,112.00,-2450,1534,16054,-439,40,-77,-439,40,-77
$GPRMC,040514.000,A,3533.5135,N,13942.7728,E,0.59,215.48,051016,,,A*6C
$MOTION,147.00,-2464,1348,16077,-441,60,-69,-441,60,-69
$MOTION,444.00,-2470,1329,16118,-397,34,-66,-397,34,-66
$MOTION,163.00,-2490,1030,16034,-424,51,-68,-424,51,-68
$MOTION,113.00,-2491,1531,16093,-447,33,-55,-447,33,-55
$GPRMC,040515.000,A,3533.5127,N,13942.7718,E,0.86,219.75,051016,,,A*6D
$MOTION,135.00,-2501,1258,16076,-403,43,-76,-403,43,-76
$MOTION,550.00,-2441,1028,16127,-423,45,-48,-423,45,-48
$MOTION,161.00,-2493,1026,16064,-459,56,-48,-459,56,-48
$MOTION,109.00,-2463,1295,16090,-453,32,-82,-453,32,-82
$GPRMC,040516.000,A,3533.5121,N,13942.7712,E,0.29,219.75,051016,,,A*67
$MOTION,152.00,-2440,1263,16063,-438,32,-79,-438,32,-79
$MOTION,432.00,-2459,1307,16103,-441,21,-63,-441,21,-63
$MOTION,163.00,-2484,1307,16072,-424,43,-44,-424,43,-44
$MOTION,112.00,-2426,1028,16081,-440,48,-58,-440,48,-58
$GPRMC,040517.000,A,3533.5120,N,13942.7712,E,1.17,26.18,051016,,,A*5E
$MOTION,136.00,-2466,1320,16112,-412,44,-57,-412,44,-57
$MOTION,511.00,-2482,1323,16074,-418,51,-50,-418,51,-50
$MOTION,160.00,-2436,1300,16072,-407,50,-74,-407,50,-74
$MOTION,110.00,-2476,1293,16046,-459,66,-74,-459,66,-74
$GPRMC,040518.000,A,3533.5121,N,13942.7715,E,0.87,28.13,051016,,,A*5A
$MOTION,151.00,-2413,1312,16063,-463,44,-58,-463,44,-58
$MOTION,446.00,-2496,1311,16047,-431,36,-65,-431,36,-65
$MOTION,163.00,-2473,1299,16093,-432,43,-64,-432,43,-64
$MOTION,112.00,-2493,1529,16038,-376,44,-79,-376,44,-79
$GPRMC,040519.000,A,3533.5115,N,13942.7710,E,0.32,28.13,051016,,,A*57
$MOTION,148.00,-2475,1302,16053,-437,30,-75,-437,30,-75
$MOTION,530.00,-2452,1311,16074,-451,39,-50,-451,39,-50
$MOTION,163.00,-2472,1523,16055,-436,56,-61,-436,56,-61
$MOTION,113.00,-2462,1318,16107,-431,17,-56,-431,17,-56
$GPRMC,040520.000,A,3533.5112,N,13942.7709,E,0.54,28.13,051016,,,A*52
$MOTION,134.00,-2481,1255,16055,-431,66,-48,-431,66,-48
$MOTION,460.00,-2456,1330,16064,-440,28,-63,-440,28,-63
$MOTION,162.00,-2438,1079,16121,-425,31,-88,-425,31,-88
$MOTION,113.00,-2497,1535,16090,-435,25,-87,-435,25,-87
$GPRMC,040521.000,A,3533.5113,N,13942.7715,E,0.78,38.01,051016,,,A*53
$MOTION,148.00,-2415,1314,16131,-436,26,-66,-436,26,-66
$MOTION,534.00,-2444,1535,16053,-488,15,-82,-488,15,-82
$MOTION,162.00,-2453,1525,16075,-458,24,-69,-458,24,-69
$MOTION,112.00,-2506,1320,16090,-428,37,-64,-428,37,-64
$GPRMC,040522.000,A,3533.5107,N,13942.7711,E,0.76,240.61,051016,,,A*64
$MOTION,133.00,-2450,1276,16111,-439,32,-48,-439,32,-48
$MOTION,452.00,-2490,1291,16101,-430,34,-104,-430,34,-104
$MOTION,162.00,-2455,1304,16111,-443,36,-61,-443,36,-61
$MOTION,112.00,-2457,1298,16038,-463,51,-57,-463,51,-57
$GPRMC,040523.000,A,3533.5101,N,13942.7705,E,0.71,241.74,051016,,,A*64
$MOTION,151.00,-2461,1290,16004,-439,46,-51,-439,46,-51
$MOTION,504.00,-2461,1322,16065,-428,37,-47,-428,37,-47
$MOTION,160.00,-2444,1300,16097,-402,32,-48,-402,32,-48
$MOTION,111.00,-2439,1310,16343,-412,42,-64,-412,42,-64
$GPRMC,040524.000,A,3533.5093,N,13942.7703,E,0.54,241.74,051016,,,A*68
$MOTION,135.00,-2488,1302,16103,-428,42,-76,-428,42,-76
$MOTION,465.00,-2474,1528,16057,-431,48,-55,-431,48,-55
$MOTION,163.00,-2468,1290,16073,-407,49,-68,-407,49,-68
$MOTION,112.00,-2456,1280,16102,-424,36,-63,-424,36,-63
$GPRMC,040525.000,A,3533.5092,N,13942.7705,E,0.49,241.74,051016,,,A*62
$MOTION,151.00,-2463,1302,16123,-440,35,-69,-440,35,-69
$MOTION,476.00,-2526,1303,16106,-448,52,-51,-448,52,-51
$MOTION,160.00,-2473,1309,16091,-460,26,-45,-460,26,-45
$MOTION,111.00,-2468,1042,16117,-441,57,-40,-441,57,-40
$GPRMC,040526.000,A,3533.5087,N,13942.7703,E,0.65,78.85,051016,,,A*5B
$MOTION,152.00,-2505,1269,16058,-439,37,-63,-439,37,-63
$MOTION,518.00,-2473,1327,16086,-479,40,-68,-479,40,-68
$MOTION,161.00,-2468,1039,16081,-482,16,-56,-482,16,-56
$MOTION,111.00,-2462,1292,16074,-426,28,-45,-426,28,-45
$GPRMC,040527.000,A,3533.5084,N,13942.7705,E,0.64,194.85,051016,,,A*6D
$MOTION,132.00,-2501,1303,16076,-424,36,-55,-424,36,-55
$MOTION,496.00,-2486,1297,16110,-439,55,-47,-439,55,-47
$MOTION,160.00,-2484,1049,16091,-408,41,-64,-408,41,-64
$MOTION,109.00,-2489,1313,16081,-443,32,-62,-443,32,-62
$GPRMC,040528.000,A,3533.5079,N,13942.7701,E,1.17,197.82,051016,,,A*65
$MOTION,151.00,-2503,1322,16078,-421,51,-54,-421,51,-54
$MOTION,469.00,-2449,1305,15880,-426,35,-45,-426,35,-45
$MOTION,158.00,-2407,1260,16304,-467,31,-41,-467,31,-41
$MOTION,106.00,-2469,1282,16117,-438,25,-55,-438,25,-55
$GPRMC,040529.000,A,3533.5074,N,13942.7700,E,1.45,199.88,051016,,,A*6B
$MOTION,121.00,-2484,1312,16170,-453,51,-81,-453,51,-81
$MOTION,525.00,-2501,1025,16120,-434,37,-76,-434,37,-76
$MOTION,160.00,-2461,1299,16376,-454,33,-64,-454,33,-64
$MOTION,106.00,-2453,1264,16126,-478,79,-78,-478,79,-78
$GPRMC,040530.000,A,3533.5070,N,13942.7696,E,1.24,204.40,051016,,,A*6D
$MOTION,136.00,-2447,1336,16104,-415,62,-69,-415,62,-69
$MOTION,463.00,-2453,1035,16049,-447,36,-86,-447,36,-86
$MOTION,160.00,-2449,1320,16079,-405,32,-62,-405,32,-62
$MOTION,110.00,-2476,1535,16105,-440,48,-62,-440,48,-62
$GPRMC,040531.000,A,3533.5069,N,13942.7694,E,0.53,204.40,051016,,,A*67
$MOTION,121.00,-2462,1316,16101,-451,31,-59,-451,31,-59
$MOTION,478.00,-2464,1527,16350,-455,49,-68,-455,49,-68
$MOTION,159.00,-2395,1286,16073,-423,16,-36,-423,16,-36
$MOTION,107.00,-2506,1298,16076,-475,40,-51,-475,40,-51
$GPRMC,040532.000,A,3533.5070,N,13942.7693,E,0.51,204.40,051016,,,A*69
$MOTION,138.00,-2440,1311,16374,-434,25,-71,-434,25,-71
$MOTION,500.00,-2439,1301,16107,-487,22,-56,-487,22,-56
$MOTION,160.00,-2439,1055,15882,-458,46,-50,-458,46,-50
$MOTION,106.00,-2517,1324,16069,-425,34,-80,-425,34,-80
$GPRMC,040533.000,A,3533.5075,N,13942.7701,E,2.23,42.31,051016,,,A*56
$MOTION,137.00,-2497,1039,16058,-468,37,-37,-468,37,-37
$MOTION,520.00,-2481,1245,16056,-443,34,-73,-443,34,-73
$MOTION,161.00,-2496,1030,15877,-451,51,-57,-451,51,-57
$MOTION,110.00,-2463,1268,16043,-425,41,-77,-425,41,-77
$GPRMC,040534.000,A,3533.5075,N,13942.7699,E,1.80,41.41,051016,,,A*5F
$MOTION,127.00,-2476,1296,16098,-438,49,-55,-438,49,-55
$MOTION,470.00,-2494,1352,16120,-462,43,-43,-462,43,-43
$MOTION,161.00,-2473,1302,16122,-449,52,-68,-449,52,-68
$MOTION,110.00,-2514,1313,16121,-445,32,-49,-445,32,-49
$GPRMC,040535.000,A,3533.5071,N,13942.7695,E,0.75,335.01,051016,,,A*69
$MOTION,149.00,-2456,1301,16119,-427,20,-69,-427,20,-69
$MOTION,514.00,-2471,1272,16034,-447,13,-52,-447,13,-52
$MOTION,155.00,-2456,1302,16122,-428,42,-51,-428,42,-51
$MOTION,107.00,-2487,1043,16114,-454,33,-60,-454,33,-60
$GPRMC,040536.000,A,3533.5071,N,13942.7693,E,0.28,335.01,051016,,,A*64
$MOTION,128.00,-2509,1047,15892,-428,41,-64,-428,41,-64
$MOTION,538.00,-2447,1293,16149,-443,43,-76,-443,43,-76
$MOTION,159.00,-2493,1040,16087,-446,50,-65,-446,50,-65
$MOTION,105.00,-2493,1342,16067,-405,45,-75,-405,45,-75
$GPRMC,040537.000,A,3533.5071,N,13942.7689,E,0.90,337.06,051016,,,A*68
$MOTION,145.00,-2501,1292,16114,-446,35,-60,-446,35,-60
$MOTION,524.00,-2427,1304,15872,-434,62,-72,-434,62,-72
$MOTION,162.00,-2474,1025,16068,-461,22,-54,-461,22,-54
$MOTION,109.00,-2452,1259,16102,-461,43,-84,-461,43,-84
$GPRMC,040538.000,A,3533.5067,N,13942.7681,E,0.90,329.51,051016,,,A*65
$MOTION,129.00,-2458,1528,16027,-429,57,-64,-429,57,-64
$MOTION,492.00,-2502,1292,16086,-416,31,-59,-416,31,-59
$MOTION,156.00,-2480,1301,16109,-449,22,-53,-449,22,-53
$MOTION,109.00,-2516,1267,16047,-435,34,-55,-435,34,-55
$GPRMC,040539.000,A,3533.5065,N,13942.7679,E,1.28,239.36,051016,,,A*62
$MOTION,147.00,-2506,1381,16011,-470,36,-73,-470,36,-73
$MOTION,413.00,-2450,1277,15883,-425,14,-60,-425,14,-60
$MOTION,162.00,-2419,1345,16117,-452,62,-64,-452,62,-64
$MOTION,108.00,-2454,1308,16087,-456,21,-58,-456,21,-58
$GPRMC,040540.000,A,3533.5060,N,13942.7681,E,0.78,149.23,051016,,,A*6A
$MOTION,149.00,-2458,1280,16108,-459,19,-70,-459,19,-70
$MOTION,531.00,-2493,1199,16049,-475,44,-65,-475,44,-65
$MOTION,155.00,-2473,1308,16118,-411,3,-96,-411,3,-96
$MOTION,108.00,-2450,1242,16120,-466,26,-65,-466,26,-65
$GPRMC,040541.000,A,3533.5057,N,13942.7698,E,0.80,148.56,051016,,,A*63
$MOTION,120.00,-2487,1273,16136,-485,39,-80,-485,39,-80
$MOTION,452.00,-2443,1255,16277,-467,50,-81,-467,50,-81
$MOTION,160.00,-2494,1269,15999,-413,45,-66,-413,45,-66
$MOTION,111.00,-2480,1027,16076,-455,41,-64,-455,41,-64
$GPRMC,040542.000,A,3533.5056,N,13942.7703,E,0.85,152.49,051016,,,A*62
$MOTION,137.00,-2472,1222,16025,-449,13,-88,-449,13,-88
$MOTION,548.00,-2440,1260,15996,-425,29,-69,-425,29,-69
$MOTION,156.00,-2464,1037,16070,-428,42,-78,-428,42,-78
$MOTION,108.00,-2482,1326,16106,-417,26,-58,-417,26,-58
$GPRMC,040543.000,A,3533.5055,N,13942.7699,E,0.82,160.78,051016,,,A*66
$MOTION,121.00,-2511,1314,16060,-439,56,-89,-439,56,-89
$MOTION,520.00,-2473,1290,16073,-429,44,-43,-429,44,-43
$MOTION,164.00,-2511,1283,15877,-447,54,-74,-447,54,-74
$MOTION,111.00,-2464,1341,16115,-418,24,-52,-418,24,-52
$GPRMC,040544.000,A,3533.5054,N,13942.7692,E,0.26,160.78,051016,,,A*65
$MOTION,146.00,-2466,1054,16102,-430,37,-69,-430,37,-69
$MOTION,470.00,-2472,1296,16099,-415,27,-64,-415,27,-64
$MOTION,162.00,-2470,1301,16074,-401,30,-62,-401,30,-62
$MOTION,112.00,-2531,1307,16159,-406,55,-71,-406,55,-71
$GPRMC,040545.000,A,3533.5051,N,13942.7685,E,0.23,160.78,051016,,,A*62
$MOTION,147.00,-2475,1272,16377,-409,16,-76,-409,16,-76
$MOTION,507.00,-2442,1260,16139,-411,36,-60,-411,36,-60
$MOTION,163.00,-2539,1037,16063,-418,27,-74,-418,27,-74
$MOTION,111.00,-2445,1289,16071,-401,19,-54,-401,19,-54
$GPRMC,040546.000,A,3533.5059,N,13942.7689,E,1.79,28.39,051016,,,A*53
$MOTION,128.00,-2465,1300,16054,-459,31,-65,-459,31,-65
$MOTION,483.00,-2527,1213,16000,-431,29,-61,-431,29,-61
$MOTION,164.00,-2491,1302,16026,-402,41,-62,-402,41,-62
$MOTION,112.00,-2484,1319,16377,-454,39,-58,-454,39,-58
$GPRMC,040547.000,A,3533.5063,N,13942.7688,E,0.69,358.19,051016,,,A*6C
$MOTION,146.00,-2453,1365,16045,-462,14,-72,-462,14,-72
$MOTION,468.00,-2448,1300,16173,-475,36,-65,-475,36,-65
$MOTION,163.00,-2458,1531,16003,-386,33,-68,-386,33,-68
$MOTION,111.00,-2498,1044,16134,-431,30,-54,-431,30,-54
$GPRMC,040548.000,A,3533.5057,N,13942.7684,E,1.27,226.66,051016,,,A*63
$MOTION,131.00,-2448,1326,15953,-415,54,-92,-415,54,-92
$MOTION,497.00,-2512,1259,16049,-410,50,-54,-410,50,-54
$MOTION,163.00,-2489,1530,16076,-430,46,-63,-430,46,-63
$MOTION,113.00,-2444,1304,16063,-416,26,-61,-416,26,-61
$GPRMC,040549.000,A,3533.5053,N,13942.7681,E,1.54,228.46,051016,,,A*6B
$MOTION,146.00,-2438,1263,16087,-456,31,-77,-456,31,-77
$MOTION,508.00,-2447,1349,16170,-422,29,-52,-422,29,-52
$MOTION,163.00,-2440,1044,16097,-446,31,-71,-446,31,-71
$MOTION,113.00,-2479,1535,16070,-429,23,-92,-429,23,-92
$GPRMC,040550.000,A,3533.5054,N,13942.7679,E,0.50,228.46,051016,,,A*66
$MOTION,129.00,-2492,1048,16073,-435,25,-66,-435,25,-66
$MOTION,503.00,-2466,1357,16090,-413,30,-70,-413,30,-70
$MOTION,164.00,-2464,1326,16116,-437,40,-47,-437,40,-47
$MOTION,112.00,-2473,1317,16046,-423,43,-54,-423,43,-54
$GPRMC,040551.000,A,3533.5060,N,13942.7683,E,0.53,228.46,051016,,,A*66
$MOTION,148.00,-2468,1526,16083,-443,26,-79,-443,26,-79
$MOTION,495.00,-2487,1234,16303,-447,43,-56,-447,43,-56
$MOTION,164.00,-2515,1506,16116,-482,40,-58,-482,40,-58
$MOTION,112.00,-2514,1196,16072,-433,34,-74,-433,34,-74
$GPRMC,040552.000,A,3533.5059,N,13942.7682,E,0.98,181.01,051016,,,A*6A
$MOTION,146.00,-2426,1291,16114,-425,40,-90,-425,40,-90
$MOTION,430.00,-2423,1351,16137,-401,46,-59,-401,46,-59
$MOTION,163.00,-2388,1283,16157,-407,47,-73,-407,47,-73
$MOTION,112.00,-2472,1345,16070,-418,41,-79,-418,41,-79
$GPRMC,040553.000,A,3533.5063,N,13942.7685,E,0.92,1.61,051016,,,A*60
$MOTION,129.00,-2592,1135,16172,-416,9,-78,-416,9,-78
$MOTION,535.00,-2391,1370,16095,-472,42,-68,-472,42,-68
$MOTION,158.00,-2424,1345,16066,-440,26,-65,-440,26,-65
$MOTION,111.00,-2481,1299,15880,-441,41,-85,-441,41,-85
$GPRMC,040554.000,A,3533.5066,N,13942.7689,E,0.56,1.61,051016,,,A*66
$MOTION,147.00,-2489,1308,16097,-406,32,-79,-406,32,-79
$MOTION,450.00,-2474,1238,16047,-466,19,-50,-466,19,-50
$MOTION,164.00,-2498,1240,16017,-446,24,-35,-446,24,-35
$MOTION,112.00,-2478,1371,16050,-439,31,-58,-439,31,-58
$GPRMC,040555.000,A,3533.5062,N,13942.7684,E,1.66,212.49,051016,,,A*66
$MOTION,125.00,-2454,1344,16076,-442,73,-55,-442,73,-55
$MOTION,522.00,-2467,1352,16081,-443,33,-75,-443,33,-75
$MOTION,162.00,-2505,1296,16112,-470,28,-76,-470,28,-76
$MOTION,110.00,-2484,1301,16089,-443,50,-72,-443,50,-72
$GPRMC,040556.000,A,3533.5050,N,13942.7682,E,2.63,210.50,051016,,,A*6E
$MOTION,151.00,-2453,1302,16050,-469,30,-52,-469,30,-52
$MOTION,464.00,-2483,1297,16083,-418,24,-71,-418,24,-71
$MOTION,164.00,-2499,1354,16055,-407,34,-66,-407,34,-66
$MOTION,113.00,-2504,1358,16271,-418,41,-62,-418,41,-62
$GPRMC,040557.000,A,3533.5047,N,13942.7686,E,2.03,209.59,051016,,,A*6A
$MOTION,129.00,-2456,1280,16033,-429,40,-58,-429,40,-58
$MOTION,521.00,-2476,1331,16065,-474,58,-26,-474,58,-26
$MOTION,160.00,-2462,1321,16148,-430,17,-39,-430,17,-39
$MOTION,111.00,-2481,1308,15881,-443,26,-77,-443,26,-77
$GPRMC,040558.000,A,3533.5045,N,13942.7685,E,1.81,210.16,051016,,,A*6E
$MOTION,149.00,-2457,1309,16062,-420,41,-66,-420,41,-66
$MOTION,500.00,-2477,1281,16070,-407,41,-64,-407,41,-64
$MOTION,159.00,-2485,1280,16066,-449,44,-67,-449,44,-67
$MOTION,111.00,-2480,1064,16126,-408,42,-72,-408,42,-72
$GPRMC,040559.000,A,3533.5045,N,13942.7689,E,1.18,211.33,051016,,,A*65
$MOTION,150.00,-2493,1518,16086,-475,26,-55,-475,26,-55
$MOTION,444.00,-2450,1286,16326,-424,30,-67,-424,30,-67
$MOTION,159.00,-2474,1284,16058,-464,16,-63,-464,16,-63
$MOTION,110.00,-2489,1299,16037,-440,34,-57,-440,34,-57
$GPRMC,040600.000,A,3533.5045,N,13942.7692,E,1.14,241.20,051016,,,A*6B
$MOTION,128.00,-2470,1251,15887,-460,36,-69,-460,36,-69
$MOTION,536.00,-2495,1336,16068,-481,19,-44,-481,19,-44
$MOTION,158.00,-2469,1509,16063,-455,46,-42,-455,46,-42
$MOTION,110.00,-2451,1246,16125,-439,40,-81,-439,40,-81
$GPRMC,040601.000,A,3533.5046,N,13942.7692,E,0.74,234.91,051016,,,A*66
$MOTION,149.00,-2443,1347,16127,-426,35,-50,-426,35,-50
$MOTION,513.00,-2456,1269,15890,-441,52,-82,-441,52,-82
$MOTION,158.00,-2506,1253,15939,-401,24,-63,-401,24,-63
$MOTION,110.00,-2474,1229,15767,-447,8,-65,-447,8,-65
$GPRMC,040602.000,A,3533.5050,N,13942.7701,E,0.73,129.14,051016,,,A*6C
$MOTION,129.00,-2464,1295,16212,-424,29,-72,-424,29,-72
$MOTION,436.00,-2449,1410,16040,-437,29,-77,-437,29,-77
$MOTION,159.00,-2522,1032,16087,-421,40,-64,-421,40,-64
$MOTION,110.00,-2540,1235,16111,-436,36,-77,-436,36,-77
$GPRMC,040603.000,A,3533.5049,N,13942.7704,E,0.78,137.59,051016,,,A*6D
$MOTION,149.00,-2478,1292,16044,-456,22,-73,-456,22,-73
$MOTION,471.00,-2480,1325,16121,-371,31,-74,-371,31,-74
$MOTION,155.00,-2453,1298,16117,-390,26,-61,-390,26,-61
$MOTION,108.00,-2477,1460,15960,-432,26,-62,-432,26,-62
$GPRMC,040604.000,A,3533.5054,N,13942.7708,E,0.44,137.59,051016,,,A*65
$MOTION,136.00,-2425,1307,16060,-463,67,-73,-463,67,-73
$MOTION,533.00,-2473,1330,16112,-413,48,-58,-413,48,-58
$MOTION,156.00,-2454,1438,16076,-479,27,-67,-479,27,-67
$MOTION,109.00,-2450,1294,16086,-437,50,-55,-437,50,-55
$GPRMC,040605.000,A,3533.5054,N,13942.7708,E,0.49,137.59,051016,,,A*69
$MOTION,121.00,-2454,1274,15938,-470,44,-39,-470,44,-39
$MOTION,527.00,-2472,1524,16069,-440,38,-71,-440,38,-71
$MOTION,156.00,-2441,1290,16062,-412,42,-72,-412,42,-72
$MOTION,107.00,-2459,1271,16026,-432,41,-64,-432,41,-64
$GPRMC,040606.000,A,3533.5059,N,13942.7712,E,1.76,41.33,051016,,,A*5D
$MOTION,140.00,-2471,1199,15985,-454,49,-42,-454,49,-42
$MOTION,469.00,-2491,1290,15876,-429,47,-59,-429,47,-59
$MOTION,157.00,-2442,1290,16017,-431,50,-66,-431,50,-66
$MOTION,108.00,-2514,1293,16041,-422,45,-64,-422,45,-64
$GPRMC,040607.000,A,3533.5064,N,13942.7717,E,1.79,43.51,051016,,,A*5E
$MOTION,119.00,-2453,1268,16056,-432,37,-76,-432,37,-76
$MOTION,535.00,-2535,1232,16049,-428,52,-65,-428,52,-65
$MOTION,157.00,-2409,1300,16096,-444,32,-93,-444,32,-93
$MOTION,108.00,-2477,1497,16024,-437,27,-66,-437,27,-66
