$GPRMC,032609.000,A,3533.5009,N,13942.7823,E,1.00,277.60,191016,,,A*62
$GPRMC,032610.000,A,3533.5010,N,13942.7822,E,1.01,279.29,191016,,,A*61
$MOTION,16882.00,210,-4300,15124,4155,18,-10,4155,18,-10
$MOTION,202.00,554,-5693,15547,1434,185,517,1434,185,517
$MOTION,222.00,324,-7394,14927,816,247,-154,816,247,-154
$MOTION,232.00,1413,-4607,14452,-8190,5508,1909,-8190,5508,1909
$GPRMC,032611.000,A,3533.5014,N,13942.7823,E,0.99,280.41,191016,,,A*6D
$MOTION,220.00,3873,1347,14846,-12205,-70,1917,-12205,-70,1917
$MOTION,202.00,2304,4469,7859,-13733,-6767,1298,-13733,-6767,1298
$MOTION,201.00,1997,10089,13235,-5391,-1401,-218,-5391,-1401,-218
$MOTION,201.00,383,10313,12513,-45,-1385,572,-45,-1385,572
$MOTION,212.00,-1189,9738,13977,3203,-1576,44,3203,-1576,44
$GPRMC,032612.000,A,3533.5014,N,13942.7821,E,0.97,279.72,191016,,,A*64
$MOTION,213.00,-2,3593,14308,12382,2613,462,12382,2613,462
$MOTION,201.00,91,3840,15590,1074,-628,-29,1074,-628,-29
$MOTION,203.00,-437,2270,16047,281,-294,-1124,281,-294,-1124
$MOTION,206.00,-1444,1294,15529,-126,522,-3304,-126,522,-3304
$MOTION,231.00,-1152,733,15629,955,-689,-677,955,-689,-677
$GPRMC,032614.000,A,3533.5015,N,13942.7818,E,0.91,279.83,191016,,,A*61
$MOTION,212.00,-1144,1406,15903,-261,-260,-793,-261,-260,-793
$MOTION,201.00,-2332,887,16974,169,847,1809,169,847,1809
$MOTION,201.00,-1278,675,16109,1006,535,759,1006,535,759
$MOTION,209.00,-445,-427,17291,-84,117,707,-84,117,707
$GPRMC,032615.000,A,3533.5019,N,13942.7820,E,0.87,282.19,191016,,,A*67
$MOTION,1439.00,-815,2789,15690,-5783,2459,-1180,-5783,2459,-1180
$MOTION,202.00,-81,5074,15219,-7916,247,-116,-7916,247,-116
$MOTION,201.00,438,6985,14611,-2475,757,-327,-2475,757,-327
$MOTION,219.00,589,7505,15234,-2376,381,-1644,-2376,381,-1644
$GPRMC,032616.000,A,3533.5024,N,13942.7825,E,0.82,289.92,191016,,,A*62
$MOTION,240.00,741,8862,13532,-1036,-445,-277,-1036,-445,-277
$MOTION,203.00,383,8816,13349,-1413,-661,-423,-1413,-661,-423
$MOTION,201.00,386,9210,13432,600,-52,93,600,-52,93
$MOTION,201.00,469,8631,13836,1259,-94,96,1259,-94,96
$MOTION,208.00,-1053,5709,15105,6492,-125,-332,6492,-125,-332
$GPRMC,032617.000,A,3533.5028,N,13942.7825,E,0.78,294.49,191016,,,A*60
$MOTION,212.00,-335,2490,16347,4212,-2312,52,4212,-2312,52
$MOTION,202.00,-329,1101,15578,4808,-747,1110,4808,-747,1110
$MOTION,201.00,-839,-244,16736,-331,90,420,-331,90,420
$MOTION,224.00,-585,-1462,16223,-1421,1495,-323,-1421,1495,-323
$MOTION,228.00,-1065,800,16488,-395,-2727,-351,-395,-2727,-351
$GPRMC,032618.000,A,3533.5029,N,13942.7825,E,0.74,295.44,191016,,,A*6E
$MOTION,212.00,-1512,1239,16113,-299,-101,-3109,-299,-101,-3109
$MOTION,202.00,-1067,1562,15339,-2101,1196,1201,-2101,1196,1201
$MOTION,201.00,-799,1916,15704,-1229,681,1907,-1229,681,1907
$MOTION,201.00,360,4463,14906,-5026,-19,410,-5026,-19,410
$MOTION,208.00,1127,5193,13345,-6390,349,-645,-6390,349,-645
$GPRMC,032619.000,A,3533.5035,N,13942.7829,E,0.69,301.79,191016,,,A*60
$MOTION,209.00,830,8729,13435,-6139,-873,-1807,-6139,-873,-1807
$MOTION,201.00,203,10375,12914,-3306,-393,-624,-3306,-393,-624
$MOTION,201.00,408,11108,12523,-2656,575,498,-2656,575,498
$MOTION,209.00,436,11667,11519,2729,-169,91,2729,-169,91
$MOTION,220.00,84,8779,13193,2805,-32,112,2805,-32,112
$GPRMC,032620.000,A,3533.5035,N,13942.7829,E,0.65,300.35,191016,,,A*6F
$MOTION,210.00,-3506,3862,12771,7601,-3271,1166,7601,-3271,1166
$MOTION,201.00,-178,1274,15409,1172,-1643,-4634,1172,-1643,-4634
$MOTION,225.00,-1595,1348,17132,898,905,-287,898,905,-287
$MOTION,232.00,150,-2417,19260,10764,-270,218,10764,-270,218
$GPRMC,032621.000,A,3533.5034,N,13942.7828,E,0.62,298.19,191016,,,A*67
$MOTION,229.00,-167,-6893,13840,2560,-66,-63,2560,-66,-63
$MOTION,212.00,-205,-6487,14678,-515,40,-85,-515,40,-85
$MOTION,202.00,-773,-5963,15718,-3384,210,1226,-3384,210,1226
$MOTION,218.00,2053,-1914,14026,-8782,5542,406,-8782,5542,406
$MOTION,228.00,4669,2246,16130,-8409,4172,1656,-8409,4172,1656
$GPRMC,032622.000,A,3533.5038,N,13942.7837,E,0.57,298.19,191016,,,A*60
$MOTION,213.00,4870,4876,13936,-6014,1209,2629,-6014,1209,2629
$MOTION,201.00,4888,8133,11749,-7741,2555,1768,-7741,2555,1768
$MOTION,218.00,4342,9605,10893,2423,-3719,241,2423,-3719,241
$MOTION,226.00,1778,8012,15038,5245,-1168,-600,5245,-1168,-600
$GPRMC,032623.000,A,3533.5039,N,13942.7842,E,0.51,298.19,191016,,,A*64
$MOTION,262.00,2841,5487,16326,7037,610,-716,7037,610,-716
$MOTION,212.00,-167,1150,14932,4392,-7327,-1348,4392,-7327,-1348
$MOTION,202.00,-2142,-896,17356,4575,-4583,-1488,4575,-4583,-1488
$MOTION,218.00,-4880,-4272,15033,5704,-3142,-905,5704,-3142,-905
$MOTION,230.00,-7137,-6416,12442,5204,-4030,-501,5204,-4030,-501
$GPRMC,032624.000,A,3533.5035,N,13942.7842,E,0.47,298.19,191016,,,A*68
$MOTION,213.00,-8909,-8774,10735,2230,-2457,-308,2230,-2457,-308
$MOTION,201.00,-9048,-8119,12549,1451,-889,-512,1451,-889,-512
$MOTION,201.00,-9901,-8882,10311,1936,-1122,-795,1936,-1122,-795
$MOTION,201.00,-10372,-9602,9282,1291,-968,-248,1291,-968,-248
$MOTION,209.00,-10603,-9795,7562,-541,-159,-28,-541,-159,-28
$GPRMC,032625.000,A,3533.5034,N,13942.7843,E,0.42,297.77,191016,,,A*6B
$MOTION,212.00,-10994,-9841,6794,1267,-1252,-70,1267,-1252,-70
$MOTION,203.00,-10753,-10151,6632,-1009,440,9,-1009,440,9
$MOTION,202.00,-10899,-9179,5369,-3547,885,1333,-3547,885,1333
$MOTION,209.00,-9236,-9748,9846,416,-511,-11,416,-511,-11
$MOTION,212.00,-9314,-9462,9341,271,-172,-164,271,-172,-164
$GPRMC,032626.000,A,3533.5029,N,13942.7841,E,0.38,297.97,191016,,,A*65
$MOTION,208.00,-9624,-10263,8801,561,-388,-170,561,-388,-170
$MOTION,201.00,-9511,-9977,8655,-829,71,-3,-829,71,-3
$MOTION,201.00,-9331,-9802,9159,-364,103,-15,-364,103,-15
$MOTION,208.00,-9231,-9910,9784,-858,346,64,-858,346,64
$MOTION,211.00,-9138,-9479,9303,-364,534,-95,-364,534,-95
$GPRMC,032627.000,A,3533.5029,N,13942.7840,E,0.36,297.92,191016,,,A*6E
$MOTION,208.00,-9462,-10118,8845,-740,28,-67,-740,28,-67
$MOTION,201.00,-9365,-9678,10030,-516,650,132,-516,650,132
$MOTION,213.00,-8573,-8867,9088,-7098,4649,2089,-7098,4649,2089
$MOTION,230.00,-3213,-514,10720,-20870,6808,1974,-20870,6808,1974
$GPRMC,032628.000,A,3533.5031,N,13942.7841,E,0.34,297.86,191016,,,A*6E
$MOTION,229.00,1536,11648,7571,-25471,6537,2297,-25471,6537,2297
$MOTION,213.00,2206,15859,-973,-5537,136,215,-5537,136,215
$MOTION,201.00,2548,16276,904,526,-670,198,526,-670,198
$MOTION,201.00,1794,16524,4466,4258,703,-121,4258,703,-121
$MOTION,211.00,2152,8144,14073,30784,-8437,-2466,30784,-8437,-2466
$GPRMC,032629.000,A,3533.5038,N,13942.7846,E,0.33,297.82,191016,,,A*62
$MOTION,210.00,-4207,-7761,8989,15595,-7647,-3929,15595,-7647,-3929
$MOTION,201.00,-5612,-11279,9822,7571,-4227,-802,7571,-4227,-802
$MOTION,201.00,-5800,-13169,8265,2441,255,-13,2441,255,-13
$MOTION,201.00,-4868,-14504,8129,757,1486,1590,757,1486,1590
$MOTION,211.00,-3754,-16930,7563,-10438,4623,3096,-10438,4623,3096
$GPRMC,032630.000,A,3533.5039,N,13942.7849,E,0.32,297.82,191016,,,A*65
$MOTION,210.00,-1864,-7904,12017,-11989,3596,4020,-11989,3596,4020
$MOTION,201.00,1243,-298,14107,-16856,4531,4039,-16856,4531,4039
$MOTION,217.00,3570,5163,14738,-6716,2483,544,-6716,2483,544
$MOTION,231.00,4382,8824,12990,-6654,1306,1017,-6654,1306,1017
$GPRMC,032631.000,A,3533.5041,N,13942.7855,E,0.30,297.82,191016,,,A*64
$MOTION,256.00,4922,12150,10384,-11799,3128,1609,-11799,3128,1609
$MOTION,210.00,4657,14030,6435,-2102,37,-206,-2102,37,-206
$MOTION,201.00,4664,12670,7982,2831,-2126,-363,2831,-2126,-363
$MOTION,223.00,3712,7534,12649,18192,-8192,-3524,18192,-8192,-3524
$MOTION,228.00,1067,-2473,14242,10886,-3786,-2336,10886,-3786,-2336
$GPRMC,032632.000,A,3533.5040,N,13942.7858,E,0.26,297.82,191016,,,A*6C
$MOTION,213.00,-312,-9439,13269,13184,453,-3216,13184,453,-3216
$MOTION,201.00,-1568,-12727,9801,4622,-888,-1474,4622,-888,-1474
$MOTION,201.00,-2361,-13682,7262,2945,189,-1258,2945,189,-1258
$MOTION,201.00,-2140,-13479,8149,-7907,2015,4077,-7907,2015,4077
$MOTION,210.00,-214,-9441,10728,-6953,828,3314,-6953,828,3314
$GPRMC,032633.000,A,3533.5035,N,13942.7863,E,0.21,297.82,191016,,,A*60
$MOTION,209.00,3497,-4220,14878,-13349,4385,3649,-13349,4385,3649
$MOTION,201.00,6548,1837,15226,-6953,3210,1633,-6953,3210,1633
$MOTION,201.00,7323,2959,14780,-1531,1809,-583,-1531,1809,-583
$MOTION,201.00,4929,3513,13481,-1914,-3528,-3,-1914,-3528,-3
$MOTION,210.00,3742,5177,14665,-3438,-4812,-67,-3438,-4812,-67
$GPRMC,032634.000,A,3533.5033,N,13942.7867,E,0.17,297.82,191016,,,A*60
$MOTION,212.00,2305,9030,13264,-8268,-7530,-1678,-8268,-7530,-1678
$MOTION,201.00,1747,8930,12852,-5087,-605,-821,-5087,-605,-821
$MOTION,201.00,1351,9710,13187,-2055,-143,354,-2055,-143,354
$MOTION,218.00,2040,10333,11892,4361,-5231,2543,4361,-5231,2543
$GPRMC,032635.000,A,3533.5029,N,13942.7867,E,0.15,297.82,191016,,,A*68
$MOTION,237.00,-1350,6763,15163,11287,-5560,2911,11287,-5560,2911
$MOTION,213.00,-4799,943,16322,6007,-3863,887,6007,-3863,887
$MOTION,201.00,-5916,-2360,13510,5947,-3878,-46,5947,-3878,-46
$MOTION,218.00,-7735,-4731,13324,2824,-2207,803,2824,-2207,803
$MOTION,233.00,-8122,-6565,11756,-362,1081,1356,-362,1081,1356
$GPRMC,032636.000,A,3533.5025,N,13942.7869,E,0.17,297.82,191016,,,A*6B
$MOTION,212.00,-5946,-1381,19282,-16040,8603,-3954,-16040,8603,-3954
$MOTION,201.00,-4721,2506,16069,-12983,5275,-3726,-12983,5275,-3726
$MOTION,201.00,-2022,7745,14815,-5208,2601,-2857,-5208,2601,-2857
$MOTION,201.00,-2091,8328,17578,8171,-4071,2399,8171,-4071,2399
$MOTION,229.00,-5874,-1134,14393,5515,-2253,1214,5515,-2253,1214
$GPRMC,032637.000,A,3533.5023,N,13942.7872,E,0.20,297.82,191016,,,A*62
$MOTION,212.00,-6566,-3742,15499,5092,-805,1276,5092,-805,1276
$MOTION,202.00,-4868,-3548,13112,-8481,3980,-1129,-8481,3980,-1129
$MOTION,201.00,-3176,2445,17911,-11160,5306,-2602,-11160,5306,-2602
$MOTION,210.00,-1684,5270,15614,-2472,17,-402,-2472,17,-402
$MOTION,215.00,-2076,4326,16239,6465,-3627,1675,6465,-3627,1675
$GPRMC,032638.000,A,3533.5022,N,13942.7875,E,0.23,297.82,191016,,,A*68
$MOTION,211.00,-3477,2005,16847,-206,133,-266,-206,133,-266
$MOTION,201.00,-3153,-290,14054,4388,139,1471,4388,139,1471
$MOTION,224.00,-2941,-535,15018,1548,-40,-216,1548,-40,-216
$MOTION,231.00,-2730,-623,15173,-2303,2112,-891,-2303,2112,-891
$GPRMC,032639.000,A,3533.5020,N,13942.7876,E,0.25,297.82,191016,,,A*6E
$MOTION,223.00,-1814,3192,15433,-9187,1119,-1454,-9187,1119,-1454
$MOTION,201.00,-1108,6715,15839,-6180,2146,-1108,-6180,2146,-1108
$MOTION,201.00,-1045,7191,15090,-40,735,-290,-40,735,-290
$MOTION,201.00,-1139,5662,14654,3069,-719,808,3069,-719,808
$MOTION,210.00,-1014,5093,15865,-412,216,-27,-412,216,-27
$GPRMC,032640.000,A,3533.5021,N,13942.7878,E,0.25,297.82,191016,,,A*6F
$MOTION,208.00,-1322,4655,15353,-75,-174,-29,-75,-174,-29
$MOTION,201.00,-1288,3810,16460,6605,-1801,1098,6605,-1801,1098
$MOTION,201.00,-1362,-654,17053,9297,1580,1541,9297,1580,1541
$MOTION,210.00,-438,-5262,15510,4676,1906,1569,4676,1906,1569
$MOTION,232.00,536,-1062,16032,-17842,-87,-658,-17842,-87,-658
$GPRMC,032641.000,A,3533.5020,N,13942.7880,E,0.25,297.82,191016,,,A*68
$MOTION,212.00,1299,4715,15405,-2794,-828,-727,-2794,-828,-727
$MOTION,201.00,346,2408,12670,6935,-1267,2310,6935,-1267,2310
$MOTION,201.00,678,2201,15467,2815,-2819,-2442,2815,-2819,-2442
$MOTION,212.00,123,-776,16266,81,-868,-1958,81,-868,-1958
$MOTION,226.00,-97,1349,19208,-4875,-3634,718,-4875,-3634,718
$GPRMC,032642.000,A,3533.5019,N,13942.7880,E,0.25,297.82,191016,,,A*61
$MOTION,212.00,-476,825,16448,-676,-191,-1351,-676,-191,-1351
$MOTION,201.00,-1032,507,14587,-1610,-96,-354,-1610,-96,-354
$MOTION,217.00,-1176,1206,16201,-403,48,-258,-403,48,-258
$MOTION,228.00,-21,1237,16383,-487,95,-250,-487,95,-250
$GPRMC,032643.000,A,3533.5018,N,13942.7880,E,0.26,297.82,191016,,,A*62
$MOTION,229.00,-849,1020,16633,-419,40,-582,-419,40,-582
$MOTION,213.00,-1314,1525,16136,-431,37,-80,-431,37,-80
$MOTION,202.00,-1356,1141,16249,-405,33,-726,-405,33,-726
$MOTION,201.00,-1377,1429,16383,-403,34,-69,-403,34,-69
$MOTION,209.00,-1965,1871,16663,-484,240,192,-484,240,192
$GPRMC,032644.000,A,3533.5017,N,13942.7880,E,0.26,297.82,191016,,,A*6A
$MOTION,211.00,-1259,1311,16246,-365,-39,-140,-365,-39,-140
$MOTION,201.00,-1313,1235,16151,-381,21,-185,-381,21,-185
$MOTION,202.00,-1274,1293,16261,-378,90,-149,-378,90,-149
$MOTION,201.00,-1262,1142,16261,-366,133,-125,-366,133,-125
$MOTION,209.00,-1353,1386,16194,-391,73,-109,-391,73,-109
$GPRMC,032645.000,A,3533.5016,N,13942.7880,E,0.27,297.82,191016,,,A*6B
$MOTION,211.00,-1345,1380,16202,-422,54,-107,-422,54,-107
$MOTION,201.00,-1191,1159,16361,-433,25,-123,-433,25,-123
$MOTION,201.00,-1257,1321,16259,-458,8,-117,-458,8,-117
$MOTION,201.00,-1224,1175,16218,-355,86,-155,-355,86,-155
$MOTION,211.00,-1254,1200,16237,-331,130,-97,-331,130,-97
$GPRMC,032646.000,A,3533.5016,N,13942.7880,E,0.27,297.82,191016,,,A*68
$MOTION,208.00,-1044,1269,16170,-376,62,-94,-376,62,-94
$MOTION,201.00,-1253,1240,16248,-409,55,-124,-409,55,-124
$MOTION,227.00,-1280,1039,16202,-436,30,-90,-436,30,-90
$MOTION,230.00,-1060,1261,16210,-402,39,-105,-402,39,-105
$GPRMC,032647.000,A,3533.5015,N,13942.7880,E,0.27,297.82,191016,,,A*6A
$MOTION,217.00,-1245,1219,16201,-412,44,-81,-412,44,-81
$MOTION,202.00,-1255,1199,16183,-431,12,-119,-431,12,-119
$MOTION,201.00,-1262,1257,16163,-393,15,-71,-393,15,-71
$MOTION,201.00,-1214,1204,16220,-427,27,-77,-427,27,-77
$MOTION,212.00,-1207,1225,16233,-420,40,-96,-420,40,-96
$GPRMC,032648.000,A,3533.5015,N,13942.7881,E,0.26,297.82,191016,,,A*65
$MOTION,210.00,-1235,1226,16299,-417,34,-81,-417,34,-81
$MOTION,201.00,-1274,1245,16195,-430,13,-97,-430,13,-97
$MOTION,202.00,-1159,1116,16138,-414,12,-297,-414,12,-297
$MOTION,202.00,-1185,1227,16123,-343,139,-386,-343,139,-386
$MOTION,212.00,-1330,1262,16180,-426,15,-643,-426,15,-643
$GPRMC,032654.000,A,3533.5005,N,13942.7878,E,0.28,297.82,191016,,,A*61
$MOTION,216.00,-1198,1523,16014,-454,-2,-438,-454,-2,-438
$MOTION,202.00,-1278,1243,16303,-431,12,-145,-431,12,-145
$MOTION,201.00,-1288,1254,16289,-417,37,-103,-417,37,-103
$MOTION,201.00,-1670,1493,16206,-379,55,-99,-379,55,-99
$MOTION,224.00,-1249,1135,16203,-394,42,-112,-394,42,-112
$GPRMC,032655.000,A,3533.4998,N,13942.7876,E,0.30,297.82,191016,,,A*6B
$MOTION,5295.00,2946,12897,12191,11127,-4351,-921,11127,-4351,-921
$MOTION,201.00,-184,1296,14325,24488,-11322,-719,24488,-11322,-719
$MOTION,202.00,-4283,-8131,15216,11961,-6570,-908,11961,-6570,-908
$MOTION,210.00,-7286,-12763,7610,12861,-8022,-96,12861,-8022,-96
$GPRMC,032656.000,A,3533.4998,N,13942.7876,E,0.31,297.82,191016,,,A*69
$MOTION,232.00,-8489,-12402,-4245,-8828,-2767,2474,-8828,-2767,2474
$MOTION,202.00,-6735,-10588,14071,-30821,8028,216,-30821,8028,216
$MOTION,201.00,-2553,7102,16489,-32084,9561,-7299,-32084,9561,-7299
$MOTION,201.00,355,12292,10546,-6220,1349,-3569,-6220,1349,-3569
$MOTION,210.00,-531,5754,16546,32763,-7617,2823,32763,-7617,2823
$GPRMC,032657.000,A,3533.4991,N,13942.7871,E,0.33,297.82,191016,,,A*64
$MOTION,210.00,-4115,-5733,11670,3516,-334,944,3516,-334,944
$MOTION,202.00,-3589,-8624,10395,12230,-5152,1324,12230,-5152,1324
$MOTION,202.00,-4874,-13594,5917,8311,-3076,2153,8311,-3076,2153
$MOTION,201.00,-5014,-14647,4854,-8346,1006,280,-8346,1006,280
$MOTION,209.00,-2711,-3854,14395,-32768,7079,-3148,-32768,7079,-3148
$GPRMC,032658.000,A,3533.4989,N,13942.7867,E,0.34,297.82,191016,,,A*62
$MOTION,214.00,681,13128,10088,-13840,2687,-3542,-13840,2687,-3542
$MOTION,201.00,1468,14617,9158,-4843,242,-1350,-4843,242,-1350
$MOTION,201.00,1708,14389,7028,492,-653,-445,492,-653,-445
$MOTION,201.00,517,13305,11786,13612,-224,769,13612,-224,769
$MOTION,212.00,719,-1931,21027,22344,-4593,-1049,22344,-4593,-1049
$GPRMC,032659.000,A,3533.4990,N,13942.7864,E,0.35,297.82,191016,,,A*69
$MOTION,211.00,-4058,-5966,14758,9380,-5340,-1577,9380,-5340,-1577
$MOTION,201.00,-5496,-11045,8670,-6722,1682,1895,-6722,1682,1895
$MOTION,212.00,-651,7293,16942,-32768,8525,-5008,-32768,8525,-5008
$MOTION,225.00,7040,4420,7013,-4582,3168,-2526,-4582,3168,-2526
$GPRMC,032700.000,A,3533.4991,N,13942.7862,E,0.33,297.82,191016,,,A*65
$MOTION,260.00,1,11545,12793,7435,-1189,-121,7435,-1189,-121
$MOTION,206.00,-10,10402,14163,21662,-7679,8252,21662,-7679,8252
$MOTION,201.00,-3119,-4607,17280,21791,-3148,2798,21791,-3148,2798
$MOTION,224.00,-3046,-8988,6699,-3487,363,4099,-3487,363,4099
$MOTION,231.00,-772,6362,15363,-26909,323,-4437,-26909,323,-4437
$GPRMC,032701.000,A,3533.4992,N,13942.7860,E,0.32,297.82,191016,,,A*64
$MOTION,212.00,-868,13474,14085,-4530,432,-3605,-4530,432,-3605
$MOTION,201.00,-821,11661,11576,-4955,-4647,-1643,-4955,-4647,-1643
$MOTION,201.00,-2007,11668,10113,-2534,-9160,1134,-2534,-9160,1134
$MOTION,201.00,-4579,11658,9114,5326,-7583,3980,5326,-7583,3980
$MOTION,211.00,-10703,5308,9930,10387,-9282,13083,10387,-9282,13083
$GPRMC,032702.000,A,3533.4991,N,13942.7859,E,0.31,297.82,191016,,,A*6D
$MOTION,212.00,-13692,-3987,7642,15378,-6830,12548,15378,-6830,12548
$MOTION,201.00,-8687,-6868,-1463,14451,-3833,16538,14451,-3833,16538
$MOTION,202.00,-12953,-12949,7410,-13048,5402,-6481,-13048,5402,-6481
$MOTION,203.00,-10068,-5781,3846,-282,651,140,-282,651,140
$MOTION,209.00,-10754,10178,15255,-15962,5672,-12914,-15962,5672,-12914
$GPRMC,032703.000,A,3533.4991,N,13942.7858,E,0.30,297.82,191016,,,A*6C
$MOTION,214.00,-6249,10730,12286,6542,2268,993,6542,2268,993
$MOTION,201.00,-7548,3265,19539,10060,2411,6529,10060,2411,6529
$MOTION,201.00,-5229,-408,17278,-4999,3315,-1309,-4999,3315,-1309
$MOTION,208.00,-3127,2956,15587,-10823,2445,-2449,-10823,2445,-2449
$MOTION,230.00,-2699,5334,16139,-859,1333,-205,-859,1333,-205
