$GPGGA,014438.000,1513.1908,N,14543.0586,E,1,,,0.00,M,,,,*11
$GPRMC,014438.000,A,1513.1908,N,14543.0586,E,1.05,0.00,040217,,*07
$GPGGA,014439.000,1513.1772,N,14543.0506,E,1,,,0.00,M,,,,*1B
$GPRMC,014439.000,A,1513.1772,N,14543.0506,E,0.82,209.58,040217,,*05
$GPGGA,014440.000,1513.1651,N,14543.0458,E,1,,,0.00,M,,,,*1F
$GPRMC,014440.000,A,1513.1651,N,14543.0458,E,0.91,200.95,040217,,*0B
$GPGGA,014441.000,1513.1595,N,14543.0423,E,1,,,0.00,M,,,,*19
$GPRMC,014441.000,A,1513.1595,N,14543.0423,E,1.03,211.09,040217,,*02
$GPGGA,014443.000,1513.1625,N,14543.042,E,1,,,0.00,M,,,,*20
$GPRMC,014443.000,A,1513.1625,N,14543.042,E,0.82,354.49,040217,,*37
$GPGGA,014444.000,1513.1626,N,14543.0424,E,1,,,0.00,M,,,,*10
$GPRMC,014444.000,A,1513.1626,N,14543.0424,E,1.17,75.47,040217,,*34
$GPGGA,014446.000,1513.1626,N,14543.0412,E,1,,,0.00,M,,,,*17
$GPRMC,014446.000,A,1513.1626,N,14543.0412,E,0.43,270.00,040217,,*07
$GPGGA,014448.000,1513.1627,N,14543.038,E,1,,,0.00,M,,,,*24
$GPRMC,014448.000,A,1513.1627,N,14543.038,E,0.29,271.85,040217,,*34
$GPGGA,014450.000,1513.163,N,14543.038,E,1,,,0.00,M,,,,*1B
$GPRMC,014450.000,A,1513.163,N,14543.038,E,0.35,0.00,040217,,*0F
$GPGGA,014452.000,1513.1634,N,14543.0411,E,1,,,0.00,M,,,,*12
$GPRMC,014452.000,A,1513.1634,N,14543.0411,E,0.25,82.38,040217,,*36
$GPGGA,014454.000,1513.1639,N,14543.04,E,1,,,0.00,M,,,,*19
$GPRMC,014454.000,A,1513.1639,N,14543.04,E,0.47,295.22,040217,,*06
$GPGGA,014456.000,1513.1641,N,14543.0397,E,1,,,0.00,M,,,,*1D
$GPRMC,014456.000,A,1513.1641,N,14543.0397,E,0.58,304.64,040217,,*07
$GPGGA,014458.000,1513.1643,N,14543.0392,E,1,,,0.00,M,,,,*14
$GPRMC,014458.000,A,1513.1643,N,14543.0392,E,0.37,292.52,040217,,*0C
$GPGGA,014459.000,1513.1641,N,14543.0397,E,1,,,0.00,M,,,,*12
$GPRMC,014459.000,A,1513.1641,N,14543.0397,E,0.70,112.52,040217,,*02
$GPGGA,014500.000,1513.1641,N,14543.038,E,1,,,0.00,M,,,,*29
$GPRMC,014500.000,A,1513.1641,N,14543.038,E,0.78,270.00,040217,,*31
$GPGGA,014501.000,1513.164,N,14543.0392,E,1,,,0.00,M,,,,*2A
$GPRMC,014501.000,A,1513.164,N,14543.0392,E,0.41,94.94,040217,,*0D
$GPGGA,014502.000,1513.1637,N,14543.0394,E,1,,,0.00,M,,,,*1F
$GPRMC,014502.000,A,1513.1637,N,14543.0394,E,0.43,147.25,040217,,*0F
$GPGGA,014503.000,1513.1633,N,14543.0393,E,1,,,0.00,M,,,,*1D
$GPRMC,014503.000,A,1513.1633,N,14543.0393,E,0.49,193.56,040217,,*0A
$GPGGA,014504.000,1513.1629,N,14543.039,E,1,,,0.00,M,,,,*22
$GPRMC,014504.000,A,1513.1629,N,14543.039,E,0.54,215.89,040217,,*36
$GPGGA,014505.000,1513.1626,N,14543.0387,E,1,,,0.00,M,,,,*1A
$GPRMC,014505.000,A,1513.1626,N,14543.0387,E,1.05,223.98,040217,,*0E
$GPGGA,014506.000,1513.1625,N,14543.038,E,1,,,0.00,M,,,,*2D
$GPRMC,014506.000,A,1513.1625,N,14543.038,E,1.28,261.58,040217,,*3C
$GPGGA,014507.000,1513.1624,N,14543.02,E,1,,,0.00,M,,,,*14
$GPRMC,014507.000,A,1513.1624,N,14543.02,E,1.07,269.67,040217,,*0C
$GPGGA,014508.000,1513.1623,N,14543.0378,E,1,,,0.00,M,,,,*12
$GPRMC,014508.000,A,1513.1623,N,14543.0378,E,1.11,90.33,040217,,*38
$GPGGA,014509.000,1513.1621,N,14543.0374,E,1,,,0.00,M,,,,*1D
$GPRMC,014509.000,A,1513.1621,N,14543.0374,E,0.89,242.61,040217,,*0D
$GPGGA,014510.000,1513.1619,N,14543.0376,E,1,,,0.00,M,,,,*1C
$GPRMC,014510.000,A,1513.1619,N,14543.0376,E,0.72,136.02,040217,,*0D
$GPGGA,014511.000,1513.1618,N,14543.0375,E,1,,,0.00,M,,,,*1F
$GPRMC,014511.000,A,1513.1618,N,14543.0375,E,0.56,223.98,040217,,*0C
$GPGGA,014512.000,1513.1618,N,14543.032,E,1,,,0.00,M,,,,*2C
$GPRMC,014512.000,A,1513.1618,N,14543.032,E,0.86,270.00,040217,,*35
$GPGGA,014513.000,1513.1619,N,14543.0373,E,1,,,0.00,M,,,,*1A
$GPRMC,014513.000,A,1513.1619,N,14543.0373,E,0.99,88.88,040217,,*38
$GPGGA,014514.000,1513.1619,N,14543.0372,E,1,,,0.00,M,,,,*1C
$GPRMC,014514.000,A,1513.1619,N,14543.0372,E,1.11,270.00,040217,,*0A
$GPGGA,014515.000,1513.1617,N,14543.0368,E,1,,,0.00,M,,,,*18
$GPRMC,014515.000,A,1513.1617,N,14543.0368,E,1.17,242.61,040217,,*0E
$GPGGA,014516.000,1513.1615,N,14543.0368,E,1,,,0.00,M,,,,*19
$GPRMC,014516.000,A,1513.1615,N,14543.0368,E,1.15,180.00,040217,,*07
$GPGGA,014517.000,1513.1613,N,14543.0372,E,1,,,0.00,M,,,,*15
$GPRMC,014517.000,A,1513.1613,N,14543.0372,E,0.99,117.39,040217,,*0A
$GPGGA,014518.000,1513.1613,N,14543.0368,E,1,,,0.00,M,,,,*11
$GPRMC,014518.000,A,1513.1613,N,14543.0368,E,0.99,270.00,040217,,*06
$GPGGA,014519.000,1513.1612,N,14543.0369,E,1,,,0.00,M,,,,*10
$GPRMC,014519.000,A,1513.1612,N,14543.0369,E,0.97,136.02,040217,,*0A
$GPGGA,014520.000,1513.161,N,14543.032,E,1,,,0.00,M,,,,*15
$GPRMC,014520.000,A,1513.161,N,14543.032,E,1.07,267.58,040217,,*0F
$GPGGA,014521.000,1513.1609,N,14543.0367,E,1,,,0.00,M,,,,*1F
$GPRMC,014521.000,A,1513.1609,N,14543.0367,E,1.07,91.26,040217,,*37
$GPGGA,014522.000,1513.1608,N,14543.0366,E,1,,,0.00,M,,,,*1C
$GPRMC,014522.000,A,1513.1608,N,14543.0366,E,0.84,223.98,040217,,*00
$GPGGA,014523.000,1513.1607,N,14543.0362,E,1,,,0.00,M,,,,*16
$GPRMC,014523.000,A,1513.1607,N,14543.0362,E,0.87,255.47,040217,,*0A
$GPGGA,014524.000,1513.1606,N,14543.0362,E,1,,,0.00,M,,,,*10
$GPRMC,014524.000,A,1513.1606,N,14543.0362,E,0.62,180.00,040217,,*0F
$GPGGA,014525.000,1513.1605,N,14543.0362,E,1,,,0.00,M,,,,*12
$GPRMC,014525.000,A,1513.1605,N,14543.0362,E,0.68,180.00,040217,,*07
$GPGGA,014526.000,1513.1604,N,14543.0364,E,1,,,0.00,M,,,,*16
$GPRMC,014526.000,A,1513.1604,N,14543.0364,E,0.52,117.39,040217,,*0E
$GPGGA,014527.000,1513.1604,N,14543.0364,E,1,,,0.00,M,,,,*17
$GPRMC,014527.000,A,1513.1604,N,14543.0364,E,0.52,0.00,040217,,*02
$GPGGA,014528.000,1513.1603,N,14543.0363,E,1,,,0.00,M,,,,*18
$GPRMC,014528.000,A,1513.1603,N,14543.0363,E,0.58,223.98,040217,,*05
$GPGGA,014529.000,1513.1604,N,14543.032,E,1,,,0.00,M,,,,*29
$GPRMC,014529.000,A,1513.1604,N,14543.032,E,0.66,271.38,040217,,*34
$GPGGA,014530.000,1513.1603,N,14543.0363,E,1,,,0.00,M,,,,*11
$GPRMC,014530.000,A,1513.1603,N,14543.0363,E,0.60,91.38,040217,,*36
$GPGGA,014531.000,1513.1603,N,14543.0363,E,1,,,0.00,M,,,,*10
$GPRMC,014531.000,A,1513.1603,N,14543.0363,E,0.56,0.00,040217,,*01
$GPGGA,014532.000,1513.1605,N,14543.0363,E,1,,,0.00,M,,,,*15
$GPRMC,014532.000,A,1513.1605,N,14543.0363,E,0.54,0.00,040217,,*06
$GPGGA,014533.000,1513.1604,N,14543.032,E,1,,,0.00,M,,,,*22
$GPRMC,014533.000,A,1513.1604,N,14543.032,E,0.51,268.62,040217,,*3C
$GPGGA,014534.000,1513.1603,N,14543.032,E,1,,,0.00,M,,,,*22
$GPRMC,014534.000,A,1513.1603,N,14543.032,E,0.70,180.00,040217,,*3E
$GPGGA,014535.000,1513.1602,N,14543.032,E,1,,,0.00,M,,,,*22
$GPRMC,014535.000,A,1513.1602,N,14543.032,E,0.72,180.00,040217,,*3C
$GPGGA,014536.000,1513.1601,N,14543.0361,E,1,,,0.00,M,,,,*17
$GPRMC,014536.000,A,1513.1601,N,14543.0361,E,0.70,91.45,040217,,*3B
$GPGGA,014537.000,1513.1599,N,14543.032,E,1,,,0.00,M,,,,*21
$GPRMC,014537.000,A,1513.1599,N,14543.032,E,0.80,267.11,040217,,*38
$GPGGA,014538.000,1513.1596,N,14543.0362,E,1,,,0.00,M,,,,*17
$GPRMC,014538.000,A,1513.1596,N,14543.0362,E,0.89,94.23,040217,,*38
$GPGGA,014539.000,1513.1594,N,14543.0366,E,1,,,0.00,M,,,,*10
$GPRMC,014539.000,A,1513.1594,N,14543.0366,E,0.91,117.39,040217,,*07
$GPGGA,014540.000,1513.1593,N,14543.0367,E,1,,,0.00,M,,,,*18
$GPRMC,014540.000,A,1513.1593,N,14543.0367,E,0.89,136.02,040217,,*0D
$GPGGA,014541.000,1513.1591,N,14543.0367,E,1,,,0.00,M,,,,*1B
$GPRMC,014541.000,A,1513.1591,N,14543.0367,E,0.87,180.00,040217,,*0F
$GPGGA,014542.000,1513.159,N,14543.0367,E,1,,,0.00,M,,,,*29
$GPRMC,014542.000,A,1513.159,N,14543.0367,E,0.62,180.00,040217,,*36
$GPGGA,014543.000,1513.1589,N,14543.0367,E,1,,,0.00,M,,,,*10
$GPRMC,014543.000,A,1513.1589,N,14543.0367,E,0.60,180.00,040217,,*0D
$GPGGA,014544.000,1513.1588,N,14543.0367,E,1,,,0.00,M,,,,*16
$GPRMC,014544.000,A,1513.1588,N,14543.0367,E,0.72,180.00,040217,,*08
$GPGGA,014545.000,1513.1588,N,14543.032,E,1,,,0.00,M,,,,*24
$GPRMC,014545.000,A,1513.1588,N,14543.032,E,0.72,270.00,040217,,*36
$GPGGA,014546.000,1513.1587,N,14543.032,E,1,,,0.00,M,,,,*28
$GPRMC,014546.000,A,1513.1587,N,14543.032,E,0.91,180.00,040217,,*3B
$GPGGA,014547.000,1513.1585,N,14543.032,E,1,,,0.00,M,,,,*2B
$GPRMC,014547.000,A,1513.1585,N,14543.032,E,0.91,180.00,040217,,*38
$GPGGA,014548.000,1513.1584,N,14543.032,E,1,,,0.00,M,,,,*25
$GPRMC,014548.000,A,1513.1584,N,14543.032,E,0.87,180.00,040217,,*31
$GPGGA,014549.000,1513.1583,N,14543.032,E,1,,,0.00,M,,,,*23
$GPRMC,014549.000,A,1513.1583,N,14543.032,E,0.76,180.00,040217,,*39
$GPGGA,014550.000,1513.1582,N,14543.0367,E,1,,,0.00,M,,,,*19
$GPRMC,014550.000,A,1513.1582,N,14543.0367,E,0.58,91.26,040217,,*3A
$GPGGA,014551.000,1513.1581,N,14543.0367,E,1,,,0.00,M,,,,*1B
$GPRMC,014551.000,A,1513.1581,N,14543.0367,E,0.58,180.00,040217,,*0D
$GPGGA,014552.000,1513.1581,N,14543.0366,E,1,,,0.00,M,,,,*19
$GPRMC,014552.000,A,1513.1581,N,14543.0366,E,0.56,270.00,040217,,*0D
$GPGGA,014553.000,1513.158,N,14543.0366,E,1,,,0.00,M,,,,*29
$GPRMC,014553.000,A,1513.158,N,14543.0366,E,0.49,180.00,040217,,*3F
$GPGGA,014554.000,1513.158,N,14543.0362,E,1,,,0.00,M,,,,*2A
$GPRMC,014554.000,A,1513.158,N,14543.0362,E,0.49,270.00,040217,,*30
$GPGGA,014555.000,1513.158,N,14543.0364,E,1,,,0.00,M,,,,*2D
$GPRMC,014555.000,A,1513.158,N,14543.0364,E,0.12,90.00,040217,,*05
$GPGGA,014556.000,1513.158,N,14543.0364,E,1,,,0.00,M,,,,*2E
$GPRMC,014556.000,A,1513.158,N,14543.0364,E,0.29,0.00,040217,,*37
$GPGGA,014557.000,1513.158,N,14543.0364,E,1,,,0.00,M,,,,*2F
$GPRMC,014557.000,A,1513.158,N,14543.0364,E,0.45,0.00,040217,,*3C
$GPGGA,014558.000,1513.1581,N,14543.0364,E,1,,,0.00,M,,,,*11
$GPRMC,014558.000,A,1513.1581,N,14543.0364,E,0.51,0.00,040217,,*07
$GPGGA,014559.000,1513.1581,N,14543.0363,E,1,,,0.00,M,,,,*17
$GPRMC,014559.000,A,1513.1581,N,14543.0363,E,0.54,270.00,040217,,*01
$GPGGA,014600.000,1513.1582,N,14543.032,E,1,,,0.00,M,,,,*2C
$GPRMC,014600.000,A,1513.1582,N,14543.032,E,0.66,271.38,040217,,*31
$GPGGA,014601.000,1513.1582,N,14543.032,E,1,,,0.00,M,,,,*2D
$GPRMC,014601.000,A,1513.1582,N,14543.032,E,0.60,0.00,040217,,*39
$GPGGA,014602.000,1513.1582,N,14543.0361,E,1,,,0.00,M,,,,*1B
$GPRMC,014602.000,A,1513.1582,N,14543.0361,E,0.78,90.00,040217,,*3F
$GPGGA,014603.000,1513.1583,N,14543.036,E,1,,,0.00,M,,,,*2A
$GPRMC,014603.000,A,1513.1583,N,14543.036,E,0.97,316.02,040217,,*30
$GPGGA,014604.000,1513.1583,N,14543.0358,E,1,,,0.00,M,,,,*16
$GPRMC,014604.000,A,1513.1583,N,14543.0358,E,0.56,270.00,040217,,*02
$GPGGA,014605.000,1513.1583,N,14543.0357,E,1,,,0.00,M,,,,*18
$GPRMC,014605.000,A,1513.1583,N,14543.0357,E,0.62,270.00,040217,,*0B
$GPGGA,014606.000,1513.1582,N,14543.0357,E,1,,,0.00,M,,,,*1A
$GPRMC,014606.000,A,1513.1582,N,14543.0357,E,0.56,180.00,040217,,*02
$GPGGA,014607.000,1513.1582,N,14543.032,E,1,,,0.00,M,,,,*2B
$GPRMC,014607.000,A,1513.1582,N,14543.032,E,0.58,270.00,040217,,*31
$GPGGA,014608.000,1513.1582,N,14543.0355,E,1,,,0.00,M,,,,*16
$GPRMC,014608.000,A,1513.1582,N,14543.0355,E,0.45,90.00,040217,,*3C
$GPGGA,014609.000,1513.1582,N,14543.0354,E,1,,,0.00,M,,,,*16
$GPRMC,014609.000,A,1513.1582,N,14543.0354,E,0.64,270.00,040217,,*03
$GPGGA,014610.000,1513.1583,N,14543.0354,E,1,,,0.00,M,,,,*1F
$GPRMC,014610.000,A,1513.1583,N,14543.0354,E,0.64,0.00,040217,,*0F
$GPGGA,014611.000,1513.1582,N,14543.035,E,1,,,0.00,M,,,,*2B
$GPRMC,014611.000,A,1513.1582,N,14543.035,E,0.64,255.47,040217,,*3A
$GPGGA,014612.000,1513.1582,N,14543.0352,E,1,,,0.00,M,,,,*1A
$GPRMC,014612.000,A,1513.1582,N,14543.0352,E,0.43,90.00,040217,,*36
$GPGGA,014613.000,1513.1589,N,14543.0354,E,1,,,0.00,M,,,,*16
$GPRMC,014613.000,A,1513.1589,N,14543.0354,E,0.35,15.41,040217,,*33
$GPGGA,014614.000,1513.1589,N,14543.0355,E,1,,,0.00,M,,,,*10
$GPRMC,014614.000,A,1513.1589,N,14543.0355,E,0.37,90.00,040217,,*3F
$GPGGA,014615.000,1513.1588,N,14543.0357,E,1,,,0.00,M,,,,*12
$GPRMC,014615.000,A,1513.1588,N,14543.0357,E,0.76,117.39,040217,,*0C
$GPGGA,014616.000,1513.159,N,14543.0355,E,1,,,0.00,M,,,,*2A
$GPRMC,014616.000,A,1513.159,N,14543.0355,E,0.45,316.02,040217,,*3F
$GPGGA,014617.000,1513.159,N,14543.0355,E,1,,,0.00,M,,,,*2B
$GPRMC,014617.000,A,1513.159,N,14543.0355,E,0.56,0.00,040217,,*3A
$GPGGA,014618.000,1513.1589,N,14543.0354,E,1,,,0.00,M,,,,*1D
$GPRMC,014618.000,A,1513.1589,N,14543.0354,E,0.62,223.98,040217,,*09
$GPGGA,014619.000,1513.1589,N,14543.0354,E,1,,,0.00,M,,,,*1C
$GPRMC,014619.000,A,1513.1589,N,14543.0354,E,0.51,0.00,040217,,*0A
$GPGGA,014620.000,1513.1589,N,14543.035,E,1,,,0.00,M,,,,*22
$GPRMC,014620.000,A,1513.1589,N,14543.035,E,0.56,270.00,040217,,*36
$GPGGA,014621.000,1513.1588,N,14543.0352,E,1,,,0.00,M,,,,*10
$GPRMC,014621.000,A,1513.1588,N,14543.0352,E,0.66,117.39,040217,,*0F
$GPGGA,014622.000,1513.1588,N,14543.0352,E,1,,,0.00,M,,,,*13
$GPRMC,014622.000,A,1513.1588,N,14543.0352,E,0.51,0.00,040217,,*05
$GPGGA,014623.000,1513.1587,N,14543.0351,E,1,,,0.00,M,,,,*1E
$GPRMC,014623.000,A,1513.1587,N,14543.0351,E,0.33,223.98,040217,,*0E
$GPGGA,014624.000,1513.1587,N,14543.0351,E,1,,,0.00,M,,,,*19
$GPRMC,014624.000,A,1513.1587,N,14543.0351,E,0.25,0.00,040217,,*0C
$GPGGA,014625.000,1513.1732,N,14543.0325,E,1,,,0.00,M,,,,*17
$GPRMC,014625.000,A,1513.1732,N,14543.0325,E,0.37,350.18,040217,,*0E
$GPGGA,014626.000,1513.1756,N,14543.0333,E,1,,,0.00,M,,,,*11
$GPRMC,014626.000,A,1513.1756,N,14543.0333,E,0.06,17.83,040217,,*38
$GPGGA,014627.000,1513.1743,N,14543.0338,E,1,,,0.00,M,,,,*1F
$GPRMC,014627.000,A,1513.1743,N,14543.0338,E,0.12,159.64,040217,,*01
$GPGGA,014628.000,1513.1735,N,14543.032,E,1,,,0.00,M,,,,*28
$GPRMC,014628.000,A,1513.1735,N,14543.032,E,0.49,245.27,040217,,*31
$GPGGA,014629.000,1513.1737,N,14543.0345,E,1,,,0.00,M,,,,*18
$GPRMC,014629.000,A,1513.1737,N,14543.0345,E,0.39,85.26,040217,,*39
$GPGGA,014630.000,1513.1742,N,14543.0344,E,1,,,0.00,M,,,,*13
$GPRMC,014630.000,A,1513.1742,N,14543.0344,E,0.43,349.08,040217,,*00
$GPGGA,014631.000,1513.1714,N,14543.0334,E,1,,,0.00,M,,,,*16
$GPRMC,014631.000,A,1513.1714,N,14543.0334,E,0.51,199.01,040217,,*00
$GPGGA,014632.000,1513.1685,N,14543.0321,E,1,,,0.00,M,,,,*18
$GPRMC,014632.000,A,1513.1685,N,14543.0321,E,0.62,203.39,040217,,*05
$GPGGA,014633.000,1513.1686,N,14543.0297,E,1,,,0.00,M,,,,*16
$GPRMC,014633.000,A,1513.1686,N,14543.0297,E,0.78,272.47,040217,,*0F
$GPGGA,014634.000,1513.1687,N,14543.026,E,1,,,0.00,M,,,,*28
$GPRMC,014634.000,A,1513.1687,N,14543.026,E,0.86,271.60,040217,,*36
$GPGGA,014635.000,1513.1691,N,14543.0294,E,1,,,0.00,M,,,,*15
$GPRMC,014635.000,A,1513.1691,N,14543.0294,E,0.86,83.05,040217,,*37
$GPGGA,014636.000,1513.1688,N,14543.029,E,1,,,0.00,M,,,,*2A
$GPRMC,014636.000,A,1513.1688,N,14543.029,E,0.86,232.14,040217,,*30
$GPGGA,014637.000,1513.1687,N,14543.0292,E,1,,,0.00,M,,,,*16
$GPRMC,014637.000,A,1513.1687,N,14543.0292,E,0.91,117.39,040217,,*01
$GPGGA,014638.000,1513.1688,N,14543.0292,E,1,,,0.00,M,,,,*16
$GPRMC,014638.000,A,1513.1688,N,14543.0292,E,1.09,0.00,040217,,*0C
$GPGGA,014639.000,1513.169,N,14543.0292,E,1,,,0.00,M,,,,*2E
$GPRMC,014639.000,A,1513.169,N,14543.0292,E,0.95,0.00,040217,,*30
$GPGGA,014640.000,1513.1691,N,14543.0291,E,1,,,0.00,M,,,,*12
$GPRMC,014640.000,A,1513.1691,N,14543.0291,E,0.74,316.02,040217,,*05
$GPGGA,014641.000,1513.1692,N,14543.0292,E,1,,,0.00,M,,,,*13
$GPRMC,014641.000,A,1513.1692,N,14543.0292,E,0.86,43.98,040217,,*39
$GPGGA,014642.000,1513.1693,N,14543.0292,E,1,,,0.00,M,,,,*11
$GPRMC,014642.000,A,1513.1693,N,14543.0292,E,0.78,0.00,040217,,*0C
$GPGGA,014643.000,1513.1695,N,14543.0292,E,1,,,0.00,M,,,,*16
$GPRMC,014643.000,A,1513.1695,N,14543.0292,E,0.76,0.00,040217,,*05
$GPGGA,014644.000,1513.1696,N,14543.0292,E,1,,,0.00,M,,,,*12
$GPRMC,014644.000,A,1513.1696,N,14543.0292,E,0.99,0.00,040217,,*00
$GPGGA,014645.000,1513.1697,N,14543.0292,E,1,,,0.00,M,,,,*12
$GPRMC,014645.000,A,1513.1697,N,14543.0292,E,0.91,0.00,040217,,*08
$GPGGA,014646.000,1513.1699,N,14543.0292,E,1,,,0.00,M,,,,*1F
$GPRMC,014646.000,A,1513.1699,N,14543.0292,E,0.89,0.00,040217,,*0C
$GPGGA,014647.000,1513.17,N,14543.0292,E,1,,,0.00,M,,,,*1F
$GPRMC,014647.000,A,1513.17,N,14543.0292,E,1.15,0.00,040217,,*08
$GPGGA,014648.000,1513.1704,N,14543.03,E,1,,,0.00,M,,,,*1E
$GPRMC,014648.000,A,1513.1704,N,14543.03,E,1.22,62.61,040217,,*3E
$GPGGA,014649.000,1513.1707,N,14543.0307,E,1,,,0.00,M,,,,*1B
$GPRMC,014649.000,A,1513.1707,N,14543.0307,E,1.21,66.05,040217,,*3E
$GPGGA,014650.000,1513.1709,N,14543.0313,E,1,,,0.00,M,,,,*18
$GPRMC,014650.000,A,1513.1709,N,14543.0313,E,1.17,70.94,040217,,*37
$GPGGA,014651.000,1513.1712,N,14543.0316,E,1,,,0.00,M,,,,*16
$GPRMC,014651.000,A,1513.1712,N,14543.0316,E,1.17,43.98,040217,,*35
$GPGGA,014652.000,1513.1714,N,14543.02,E,1,,,0.00,M,,,,*15
$GPRMC,014652.000,A,1513.1714,N,14543.02,E,1.17,271.02,040217,,*06
$GPGGA,014653.000,1513.1714,N,14543.0322,E,1,,,0.00,M,,,,*15
$GPRMC,014653.000,A,1513.1714,N,14543.0322,E,1.09,90.00,040217,,*36
$GPGGA,014654.000,1513.1714,N,14543.032,E,1,,,0.00,M,,,,*20
$GPRMC,014654.000,A,1513.1714,N,14543.032,E,0.66,270.00,040217,,*37
$GPGGA,014655.000,1513.1714,N,14543.0331,E,1,,,0.00,M,,,,*11
$GPRMC,014655.000,A,1513.1714,N,14543.0331,E,0.70,90.00,040217,,*3D
$GPGGA,014656.000,1513.1714,N,14543.0332,E,1,,,0.00,M,,,,*11
$GPRMC,014656.000,A,1513.1714,N,14543.0332,E,0.76,90.00,040217,,*3B
$GPGGA,014657.000,1513.1715,N,14543.0332,E,1,,,0.00,M,,,,*11
$GPRMC,014657.000,A,1513.1715,N,14543.0332,E,0.80,0.00,040217,,*0B
$GPGGA,014658.000,1513.1717,N,14543.0332,E,1,,,0.00,M,,,,*1C
$GPRMC,014658.000,A,1513.1717,N,14543.0332,E,0.74,0.00,040217,,*0D
$GPGGA,014659.000,1513.1718,N,14543.0332,E,1,,,0.00,M,,,,*12
$GPRMC,014659.000,A,1513.1718,N,14543.0332,E,0.84,0.00,040217,,*0C
$GPGGA,014700.000,1513.1719,N,14543.0332,E,1,,,0.00,M,,,,*1E
$GPRMC,014700.000,A,1513.1719,N,14543.0332,E,0.70,0.00,040217,,*0B
$GPGGA,014701.000,1513.172,N,14543.0332,E,1,,,0.00,M,,,,*25
$GPRMC,014701.000,A,1513.172,N,14543.0332,E,0.82,0.00,040217,,*3D
$GPGGA,014702.000,1513.1721,N,14543.0332,E,1,,,0.00,M,,,,*17
$GPRMC,014702.000,A,1513.1721,N,14543.0332,E,0.74,0.00,040217,,*06
$GPGGA,014703.000,1513.1722,N,14543.0332,E,1,,,0.00,M,,,,*15
$GPRMC,014703.000,A,1513.1722,N,14543.0332,E,0.60,0.00,040217,,*01
$GPGGA,014704.000,1513.1723,N,14543.0332,E,1,,,0.00,M,,,,*13
$GPRMC,014704.000,A,1513.1723,N,14543.0332,E,0.87,0.00,040217,,*0E
$GPGGA,014705.000,1513.1724,N,14543.0332,E,1,,,0.00,M,,,,*15
$GPRMC,014705.000,A,1513.1724,N,14543.0332,E,0.99,0.00,040217,,*07
$GPGGA,014706.000,1513.1725,N,14543.0332,E,1,,,0.00,M,,,,*17
$GPRMC,014706.000,A,1513.1725,N,14543.0332,E,1.09,0.00,040217,,*0D
$GPGGA,014707.000,1513.1727,N,14543.0334,E,1,,,0.00,M,,,,*12
$GPRMC,014707.000,A,1513.1727,N,14543.0334,E,0.91,43.98,040217,,*3E
$GPGGA,014708.000,1513.1728,N,14543.0334,E,1,,,0.00,M,,,,*12
$GPRMC,014708.000,A,1513.1728,N,14543.0334,E,0.76,0.00,040217,,*01
$GPGGA,014709.000,1513.1729,N,14543.0333,E,1,,,0.00,M,,,,*15
$GPRMC,014709.000,A,1513.1729,N,14543.0333,E,0.68,316.02,040217,,*0F
$GPGGA,014710.000,1513.173,N,14543.0333,E,1,,,0.00,M,,,,*25
$GPRMC,014710.000,A,1513.173,N,14543.0333,E,0.72,0.00,040217,,*32
$GPGGA,014711.000,1513.1731,N,14543.0333,E,1,,,0.00,M,,,,*15
$GPRMC,014711.000,A,1513.1731,N,14543.0333,E,0.68,0.00,040217,,*09
$GPGGA,014712.000,1513.1732,N,14543.0333,E,1,,,0.00,M,,,,*15
$GPRMC,014712.000,A,1513.1732,N,14543.0333,E,0.58,0.00,040217,,*0A
$GPGGA,014713.000,1513.1732,N,14543.032,E,1,,,0.00,M,,,,*26
$GPRMC,014713.000,A,1513.1732,N,14543.032,E,0.68,270.00,040217,,*3F
$GPGGA,014714.000,1513.1733,N,14543.032,E,1,,,0.00,M,,,,*20
$GPRMC,014714.000,A,1513.1733,N,14543.032,E,0.93,0.00,040217,,*38
$GPGGA,014715.000,1513.1735,N,14543.0333,E,1,,,0.00,M,,,,*15
$GPRMC,014715.000,A,1513.1735,N,14543.0333,E,0.95,80.94,040217,,*3E
$GPGGA,014716.000,1513.1736,N,14543.0333,E,1,,,0.00,M,,,,*15
$GPRMC,014716.000,A,1513.1736,N,14543.0333,E,0.89,0.00,040217,,*06
$GPGGA,014717.000,1513.1737,N,14543.0334,E,1,,,0.00,M,,,,*12
$GPRMC,014717.000,A,1513.1737,N,14543.0334,E,0.70,43.98,040217,,*31
$GPGGA,014718.000,1513.1738,N,14543.0334,E,1,,,0.00,M,,,,*12
$GPRMC,014718.000,A,1513.1738,N,14543.0334,E,0.84,0.00,040217,,*0C
$GPGGA,014719.000,1513.1739,N,14543.0334,E,1,,,0.00,M,,,,*12
$GPRMC,014719.000,A,1513.1739,N,14543.0334,E,0.66,0.00,040217,,*00
$GPGGA,014720.000,1513.174,N,14543.0332,E,1,,,0.00,M,,,,*20
$GPRMC,014720.000,A,1513.174,N,14543.0332,E,0.68,297.39,040217,,*3A
$GPGGA,014721.000,1513.1741,N,14543.0332,E,1,,,0.00,M,,,,*10
$GPRMC,014721.000,A,1513.1741,N,14543.0332,E,0.68,0.00,040217,,*0C
$GPGGA,014722.000,1513.1741,N,14543.0336,E,1,,,0.00,M,,,,*17
$GPRMC,014722.000,A,1513.1741,N,14543.0336,E,0.58,90.00,040217,,*31
$GPGGA,014723.000,1513.1742,N,14543.0336,E,1,,,0.00,M,,,,*15
$GPRMC,014723.000,A,1513.1742,N,14543.0336,E,0.64,0.00,040217,,*05
$GPGGA,014724.000,1513.1743,N,14543.0336,E,1,,,0.00,M,,,,*13
$GPRMC,014724.000,A,1513.1743,N,14543.0336,E,0.54,0.00,040217,,*00
$GPGGA,014725.000,1513.1744,N,14543.0336,E,1,,,0.00,M,,,,*15
$GPRMC,014725.000,A,1513.1744,N,14543.0336,E,0.54,0.00,040217,,*06
$GPGGA,014726.000,1513.1745,N,14543.0336,E,1,,,0.00,M,,,,*17
$GPRMC,014726.000,A,1513.1745,N,14543.0336,E,0.62,0.00,040217,,*01
$GPGGA,014727.000,1513.1745,N,14543.0336,E,1,,,0.00,M,,,,*16
$GPRMC,014727.000,A,1513.1745,N,14543.0336,E,0.64,0.00,040217,,*06
$GPGGA,014728.000,1513.1746,N,14543.0336,E,1,,,0.00,M,,,,*1A
$GPRMC,014728.000,A,1513.1746,N,14543.0336,E,1.13,0.00,040217,,*0B
$GPGGA,014729.000,1513.1748,N,14543.0336,E,1,,,0.00,M,,,,*15
$GPRMC,014729.000,A,1513.1748,N,14543.0336,E,0.97,0.00,040217,,*09
$GPGGA,014730.000,1513.1749,N,14543.0332,E,1,,,0.00,M,,,,*18
$GPRMC,014730.000,A,1513.1749,N,14543.0332,E,1.07,284.53,040217,,*04
$GPGGA,014731.000,1513.175,N,14543.0334,E,1,,,0.00,M,,,,*27
$GPRMC,014731.000,A,1513.175,N,14543.0334,E,1.07,62.61,040217,,*00
$GPGGA,014732.000,1513.1751,N,14543.0333,E,1,,,0.00,M,,,,*12
$GPRMC,014732.000,A,1513.1751,N,14543.0333,E,1.11,316.02,040217,,*07
$GPGGA,014733.000,1513.1753,N,14543.032,E,1,,,0.00,M,,,,*23
$GPRMC,014733.000,A,1513.1753,N,14543.032,E,1.15,279.06,040217,,*3E
$GPGGA,014734.000,1513.175,N,14543.0336,E,1,,,0.00,M,,,,*20
$GPRMC,014734.000,A,1513.175,N,14543.0336,E,0.72,101.00,040217,,*37
$GPGGA,014735.000,1513.1747,N,14543.0339,E,1,,,0.00,M,,,,*18
$GPRMC,014735.000,A,1513.1747,N,14543.0339,E,0.62,136.02,040217,,*08
$GPGGA,014736.000,1513.1744,N,14543.0338,E,1,,,0.00,M,,,,*19
$GPRMC,014736.000,A,1513.1744,N,14543.0338,E,0.21,197.83,040217,,*0C
$GPGGA,014737.000,1513.1742,N,14543.0342,E,1,,,0.00,M,,,,*13
$GPRMC,014737.000,A,1513.1742,N,14543.0342,E,0.29,117.39,040217,,*07
$GPGGA,014738.000,1513.1742,N,14543.0342,E,1,,,0.00,M,,,,*1C
$GPRMC,014738.000,A,1513.1742,N,14543.0342,E,0.27,0.00,040217,,*0B
$GPGGA,014739.000,1513.1742,N,14543.0342,E,1,,,0.00,M,,,,*1D
$GPRMC,014739.000,A,1513.1742,N,14543.0342,E,0.41,0.00,040217,,*0A
$GPGGA,014740.000,1513.1743,N,14543.0342,E,1,,,0.00,M,,,,*12
$GPRMC,014740.000,A,1513.1743,N,14543.0342,E,0.56,0.00,040217,,*03
$GPGGA,014741.000,1513.1744,N,14543.0342,E,1,,,0.00,M,,,,*14
$GPRMC,014741.000,A,1513.1744,N,14543.0342,E,0.33,0.00,040217,,*06
$GPGGA,014742.000,1513.1744,N,14543.0342,E,1,,,0.00,M,,,,*17
$GPRMC,014742.000,A,1513.1744,N,14543.0342,E,0.19,0.00,040217,,*0D
$GPGGA,014743.000,1513.1744,N,14543.0342,E,1,,,0.00,M,,,,*16
$GPRMC,014743.000,A,1513.1744,N,14543.0342,E,0.14,0.00,040217,,*01
$GPGGA,014744.000,1513.1744,N,14543.0342,E,1,,,0.00,M,,,,*11
$GPRMC,014744.000,A,1513.1744,N,14543.0342,E,0.43,0.00,040217,,*04
$GPGGA,014745.000,1513.1745,N,14543.0338,E,1,,,0.00,M,,,,*1C
$GPRMC,014745.000,A,1513.1745,N,14543.0338,E,0.66,284.53,040217,,*06
$GPGGA,014746.000,1513.1745,N,14543.0338,E,1,,,0.00,M,,,,*1F
$GPRMC,014746.000,A,1513.1745,N,14543.0338,E,0.56,0.00,040217,,*0E
$GPGGA,014747.000,1513.1746,N,14543.034,E,1,,,0.00,M,,,,*22
$GPRMC,014747.000,A,1513.1746,N,14543.034,E,0.54,62.61,040217,,*02
$GPGGA,014748.000,1513.1747,N,14543.034,E,1,,,0.00,M,,,,*2C
$GPRMC,014748.000,A,1513.1747,N,14543.034,E,0.45,0.00,040217,,*3F
$GPGGA,014749.000,1513.1747,N,14543.034,E,1,,,0.00,M,,,,*2D
$GPRMC,014749.000,A,1513.1747,N,14543.034,E,0.51,0.00,040217,,*3B
$GPGGA,014750.000,1513.1748,N,14543.034,E,1,,,0.00,M,,,,*2A
$GPRMC,014750.000,A,1513.1748,N,14543.034,E,0.60,0.00,040217,,*3E
$GPGGA,014751.000,1513.1749,N,14543.034,E,1,,,0.00,M,,,,*2A
$GPRMC,014751.000,A,1513.1749,N,14543.034,E,0.58,0.00,040217,,*35
$GPGGA,014752.000,1513.1749,N,14543.0338,E,1,,,0.00,M,,,,*16
$GPRMC,014752.000,A,1513.1749,N,14543.0338,E,0.68,270.00,040217,,*0F
$GPGGA,014753.000,1513.175,N,14543.0338,E,1,,,0.00,M,,,,*2F
$GPRMC,014753.000,A,1513.175,N,14543.0338,E,0.74,0.00,040217,,*3E
$GPGGA,014754.000,1513.1751,N,14543.0338,E,1,,,0.00,M,,,,*19
$GPRMC,014754.000,A,1513.1751,N,14543.0338,E,0.64,0.00,040217,,*09
$GPGGA,014755.000,1513.1752,N,14543.0338,E,1,,,0.00,M,,,,*1B
$GPRMC,014755.000,A,1513.1752,N,14543.0338,E,0.80,0.00,040217,,*01
$GPGGA,014756.000,1513.1753,N,14543.034,E,1,,,0.00,M,,,,*26
$GPRMC,014756.000,A,1513.1753,N,14543.034,E,0.84,62.61,040217,,*0B
$GPGGA,014757.000,1513.1754,N,14543.034,E,1,,,0.00,M,,,,*20
$GPRMC,014757.000,A,1513.1754,N,14543.034,E,0.89,0.00,040217,,*33
$GPGGA,014758.000,1513.1755,N,14543.0339,E,1,,,0.00,M,,,,*10
$GPRMC,014758.000,A,1513.1755,N,14543.0339,E,0.76,316.02,040217,,*05
$GPGGA,014759.000,1513.1756,N,14543.0339,E,1,,,0.00,M,,,,*12
$GPRMC,014759.000,A,1513.1756,N,14543.0339,E,0.58,0.00,040217,,*0D
$GPGGA,014800.000,1513.1757,N,14543.032,E,1,,,0.00,M,,,,*28
$GPRMC,014800.000,A,1513.1757,N,14543.032,E,0.39,273.12,040217,,*35
$GPGGA,014801.000,1513.1757,N,14543.032,E,1,,,0.00,M,,,,*29
$GPRMC,014801.000,A,1513.1757,N,14543.032,E,0.43,0.00,040217,,*3C
$GPGGA,014802.000,1513.1757,N,14543.0337,E,1,,,0.00,M,,,,*1C
$GPRMC,014802.000,A,1513.1757,N,14543.0337,E,0.37,90.00,040217,,*33
$GPGGA,014803.000,1513.1757,N,14543.0337,E,1,,,0.00,M,,,,*1D
$GPRMC,014803.000,A,1513.1757,N,14543.0337,E,0.45,0.00,040217,,*0E
$GPGGA,014804.000,1513.1758,N,14543.0337,E,1,,,0.00,M,,,,*15
$GPRMC,014804.000,A,1513.1758,N,14543.0337,E,0.47,0.00,040217,,*04
$GPGGA,014805.000,1513.1758,N,14543.0336,E,1,,,0.00,M,,,,*15
$GPRMC,014805.000,A,1513.1758,N,14543.0336,E,0.39,270.00,040217,,*08
$GPGGA,014806.000,1513.1759,N,14543.0337,E,1,,,0.00,M,,,,*16
$GPRMC,014806.000,A,1513.1759,N,14543.0337,E,0.52,43.98,040217,,*35
$GPGGA,014807.000,1513.1759,N,14543.0337,E,1,,,0.00,M,,,,*17
$GPRMC,014807.000,A,1513.1759,N,14543.0337,E,0.49,0.00,040217,,*08
$GPGGA,014808.000,1513.176,N,14543.032,E,1,,,0.00,M,,,,*14
$GPRMC,014808.000,A,1513.176,N,14543.032,E,0.76,273.49,040217,,*0C
$GPGGA,014809.000,1513.1761,N,14543.032,E,1,,,0.00,M,,,,*24
$GPRMC,014809.000,A,1513.1761,N,14543.032,E,1.32,0.00,040217,,*36
$GPGGA,014810.000,1513.1759,N,14543.034,E,1,,,0.00,M,,,,*21
$GPRMC,014810.000,A,1513.1759,N,14543.034,E,1.28,95.92,040217,,*0F
$GPGGA,014811.000,1513.1758,N,14543.0338,E,1,,,0.00,M,,,,*1E
$GPRMC,014811.000,A,1513.1758,N,14543.0338,E,0.89,242.61,040217,,*0E
$GPGGA,014812.000,1513.1758,N,14543.0342,E,1,,,0.00,M,,,,*10
$GPRMC,014812.000,A,1513.1758,N,14543.0342,E,0.99,90.00,040217,,*3B
$GPGGA,014813.000,1513.1757,N,14543.0343,E,1,,,0.00,M,,,,*1F
$GPRMC,014813.000,A,1513.1757,N,14543.0343,E,0.91,136.02,040217,,*03
$GPGGA,014814.000,1513.1757,N,14543.032,E,1,,,0.00,M,,,,*2D
$GPRMC,014814.000,A,1513.1757,N,14543.032,E,0.84,270.00,040217,,*36
$GPGGA,014815.000,1513.1758,N,14543.032,E,1,,,0.00,M,,,,*23
$GPRMC,014815.000,A,1513.1758,N,14543.032,E,0.56,0.00,040217,,*32
$GPGGA,014816.000,1513.1758,N,14543.032,E,1,,,0.00,M,,,,*20
$GPRMC,014816.000,A,1513.1758,N,14543.032,E,0.68,0.00,040217,,*3C
$GPGGA,014817.000,1513.1759,N,14543.032,E,1,,,0.00,M,,,,*20
$GPRMC,014817.000,A,1513.1759,N,14543.032,E,0.84,0.00,040217,,*3E
$GPGGA,014818.000,1513.176,N,14543.032,E,1,,,0.00,M,,,,*15
$GPRMC,014818.000,A,1513.176,N,14543.032,E,0.74,0.00,040217,,*04
$GPGGA,014819.000,1513.1762,N,14543.032,E,1,,,0.00,M,,,,*26
$GPRMC,014819.000,A,1513.1762,N,14543.032,E,0.64,0.00,040217,,*36
$GPGGA,014820.000,1513.1762,N,14543.032,E,1,,,0.00,M,,,,*2C
$GPRMC,014820.000,A,1513.1762,N,14543.032,E,0.54,0.00,040217,,*3F
$GPGGA,014821.000,1513.1763,N,14543.032,E,1,,,0.00,M,,,,*2C
$GPRMC,014821.000,A,1513.1763,N,14543.032,E,0.19,0.00,040217,,*36
$GPGGA,014822.000,1513.1763,N,14543.032,E,1,,,0.00,M,,,,*2F
$GPRMC,014822.000,A,1513.1763,N,14543.032,E,0.19,0.00,040217,,*35
$GPGGA,014823.000,1513.1763,N,14543.0343,E,1,,,0.00,M,,,,*1B
$GPRMC,014823.000,A,1513.1763,N,14543.0343,E,0.31,90.00,040217,,*32
$GPGGA,014824.000,1513.1764,N,14543.0343,E,1,,,0.00,M,,,,*1B
$GPRMC,014824.000,A,1513.1764,N,14543.0343,E,0.29,0.00,040217,,*02
$GPGGA,014825.000,1513.1764,N,14543.0343,E,1,,,0.00,M,,,,*1A
$GPRMC,014825.000,A,1513.1764,N,14543.0343,E,0.33,0.00,040217,,*08
$GPGGA,014826.000,1513.1764,N,14543.0343,E,1,,,0.00,M,,,,*19
$GPRMC,014826.000,A,1513.1764,N,14543.0343,E,0.23,0.00,040217,,*0A
$GPGGA,014827.000,1513.1765,N,14543.0343,E,1,,,0.00,M,,,,*19
$GPRMC,014827.000,A,1513.1765,N,14543.0343,E,0.49,0.00,040217,,*06
$GPGGA,014828.000,1513.1765,N,14543.032,E,1,,,0.00,M,,,,*23
$GPRMC,014828.000,A,1513.1765,N,14543.032,E,0.47,270.00,040217,,*37
$GPGGA,014829.000,1513.1766,N,14543.032,E,1,,,0.00,M,,,,*21
$GPRMC,014829.000,A,1513.1766,N,14543.032,E,0.51,0.00,040217,,*37
$GPGGA,014830.000,1513.1766,N,14543.032,E,1,,,0.00,M,,,,*29
$GPRMC,014830.000,A,1513.1766,N,14543.032,E,0.12,0.00,040217,,*38
$GPGGA,014831.000,1513.1767,N,14543.032,E,1,,,0.00,M,,,,*29
$GPRMC,014831.000,A,1513.1767,N,14543.032,E,0.14,0.00,040217,,*3E
$GPGGA,014832.000,1513.1767,N,14543.032,E,1,,,0.00,M,,,,*2A
$GPRMC,014832.000,A,1513.1767,N,14543.032,E,0.14,0.00,040217,,*3D
$GPGGA,014833.000,1513.1766,N,14543.032,E,1,,,0.00,M,,,,*2A
$GPRMC,014833.000,A,1513.1766,N,14543.032,E,0.31,180.00,040217,,*33
$GPGGA,014834.000,1513.1767,N,14543.032,E,1,,,0.00,M,,,,*2C
$GPRMC,014834.000,A,1513.1767,N,14543.032,E,0.35,0.00,040217,,*38
$GPGGA,014835.000,1513.1767,N,14543.0343,E,1,,,0.00,M,,,,*18
$GPRMC,014835.000,A,1513.1767,N,14543.0343,E,0.25,90.00,040217,,*34
$GPGGA,014836.000,1513.1767,N,14543.0343,E,1,,,0.00,M,,,,*1B
$GPRMC,014836.000,A,1513.1767,N,14543.0343,E,0.19,0.00,040217,,*01
$GPGGA,014837.000,1513.1767,N,14543.0343,E,1,,,0.00,M,,,,*1A
$GPRMC,014837.000,A,1513.1767,N,14543.0343,E,0.58,0.00,040217,,*05
$GPGGA,014838.000,1513.1768,N,14543.0342,E,1,,,0.00,M,,,,*1B
$GPRMC,014838.000,A,1513.1768,N,14543.0342,E,0.58,316.02,040217,,*02
$GPGGA,014839.000,1513.1769,N,14543.0342,E,1,,,0.00,M,,,,*1B
$GPRMC,014839.000,A,1513.1769,N,14543.0342,E,0.52,0.00,040217,,*0E
$GPGGA,014840.000,1513.1769,N,14543.0338,E,1,,,0.00,M,,,,*18
$GPRMC,014840.000,A,1513.1769,N,14543.0338,E,0.60,270.00,040217,,*09
$GPGGA,014841.000,1513.177,N,14543.0338,E,1,,,0.00,M,,,,*21
$GPRMC,014841.000,A,1513.177,N,14543.0338,E,0.78,0.00,040217,,*3C
$GPGGA,014842.000,1513.1768,N,14543.0343,E,1,,,0.00,M,,,,*17
$GPRMC,014842.000,A,1513.1768,N,14543.0343,E,0.70,112.52,040217,,*07
$GPGGA,014843.000,1513.1767,N,14543.032,E,1,,,0.00,M,,,,*2C
$GPRMC,014843.000,A,1513.1767,N,14543.032,E,0.70,267.42,040217,,*3C
$GPGGA,014844.000,1513.1765,N,14543.0345,E,1,,,0.00,M,,,,*1A
$GPRMC,014844.000,A,1513.1765,N,14543.0345,E,0.60,94.74,040217,,*30
$GPGGA,014845.000,1513.1762,N,14543.0346,E,1,,,0.00,M,,,,*1F
$GPRMC,014845.000,A,1513.1762,N,14543.0346,E,0.52,162.17,040217,,*09
$GPGGA,014846.000,1513.1762,N,14543.0345,E,1,,,0.00,M,,,,*1F
$GPRMC,014846.000,A,1513.1762,N,14543.0345,E,0.08,270.00,040217,,*00
$GPGGA,014847.000,1513.1762,N,14543.0345,E,1,,,0.00,M,,,,*1E
$GPRMC,014847.000,A,1513.1762,N,14543.0345,E,0.02,0.00,040217,,*0E
$GPGGA,014848.000,1513.1762,N,14543.0345,E,1,,,0.00,M,,,,*11
$GPRMC,014848.000,A,1513.1762,N,14543.0345,E,0.16,0.00,040217,,*04
$GPGGA,014849.000,1513.1762,N,14543.0345,E,1,,,0.00,M,,,,*10
$GPRMC,014849.000,A,1513.1762,N,14543.0345,E,0.14,0.00,040217,,*07
$GPGGA,014850.000,1513.1762,N,14543.0346,E,1,,,0.00,M,,,,*1B
$GPRMC,014850.000,A,1513.1762,N,14543.0346,E,0.17,90.00,040217,,*36
$GPGGA,014851.000,1513.1762,N,14543.0346,E,1,,,0.00,M,,,,*1A
$GPRMC,014851.000,A,1513.1762,N,14543.0346,E,0.31,0.00,040217,,*0A
$GPGGA,014852.000,1513.1762,N,14543.0346,E,1,,,0.00,M,,,,*19
$GPRMC,014852.000,A,1513.1762,N,14543.0346,E,0.35,0.00,040217,,*0D
$GPGGA,014853.000,1513.1762,N,14543.0344,E,1,,,0.00,M,,,,*1A
$GPRMC,014853.000,A,1513.1762,N,14543.0344,E,0.21,270.00,040217,,*0E
$GPGGA,014854.000,1513.1762,N,14543.0344,E,1,,,0.00,M,,,,*1D
$GPRMC,014854.000,A,1513.1762,N,14543.0344,E,0.29,0.00,040217,,*04
$GPGGA,014855.000,1513.1762,N,14543.0344,E,1,,,0.00,M,,,,*1C
$GPRMC,014855.000,A,1513.1762,N,14543.0344,E,0.51,0.00,040217,,*0A
$GPGGA,014856.000,1513.1761,N,14543.0348,E,1,,,0.00,M,,,,*10
$GPRMC,014856.000,A,1513.1761,N,14543.0348,E,0.54,104.53,040217,,*00
$GPGGA,014857.000,1513.176,N,14543.0348,E,1,,,0.00,M,,,,*20
$GPRMC,014857.000,A,1513.176,N,14543.0348,E,0.58,180.00,040217,,*36
$GPGGA,014858.000,1513.1759,N,14543.0348,E,1,,,0.00,M,,,,*15
$GPRMC,014858.000,A,1513.1759,N,14543.0348,E,0.82,180.00,040217,,*04
$GPGGA,014859.000,1513.1756,N,14543.035,E,1,,,0.00,M,,,,*22
$GPRMC,014859.000,A,1513.1756,N,14543.035,E,0.84,147.25,040217,,*39
$GPGGA,014900.000,1513.1756,N,14543.035,E,1,,,0.00,M,,,,*2F
$GPRMC,014900.000,A,1513.1756,N,14543.035,E,0.76,0.00,040217,,*3C
$GPGGA,014901.000,1513.1756,N,14543.035,E,1,,,0.00,M,,,,*2E
$GPRMC,014901.000,A,1513.1756,N,14543.035,E,0.39,0.00,040217,,*36
$GPGGA,014902.000,1513.1757,N,14543.035,E,1,,,0.00,M,,,,*2C
$GPRMC,014902.000,A,1513.1757,N,14543.035,E,0.27,0.00,040217,,*3B
$GPGGA,014903.000,1513.1757,N,14543.0354,E,1,,,0.00,M,,,,*19
$GPRMC,014903.000,A,1513.1757,N,14543.0354,E,0.14,90.00,040217,,*37
$GPGGA,014904.000,1513.1755,N,14543.035,E,1,,,0.00,M,,,,*28
$GPRMC,014904.000,A,1513.1755,N,14543.035,E,0.16,242.61,040217,,*3E
$GPGGA,014905.000,1513.1752,N,14543.0355,E,1,,,0.00,M,,,,*1B
$GPRMC,014905.000,A,1513.1752,N,14543.0355,E,0.21,121.87,040217,,*07
$GPGGA,014906.000,1513.1751,N,14543.032,E,1,,,0.00,M,,,,*29
$GPRMC,014906.000,A,1513.1751,N,14543.032,E,0.19,268.30,040217,,*3C
$GPGGA,014907.000,1513.1751,N,14543.0355,E,1,,,0.00,M,,,,*1A
$GPRMC,014907.000,A,1513.1751,N,14543.0355,E,0.21,90.00,040217,,*32
$GPGGA,014908.000,1513.175,N,14543.032,E,1,,,0.00,M,,,,*16
$GPRMC,014908.000,A,1513.175,N,14543.032,E,0.16,268.30,040217,,*0C
$GPGGA,014909.000,1513.1749,N,14543.032,E,1,,,0.00,M,,,,*2F
$GPRMC,014909.000,A,1513.1749,N,14543.032,E,0.17,180.00,040217,,*32
$GPGGA,014910.000,1513.1748,N,14543.0355,E,1,,,0.00,M,,,,*14
$GPRMC,014910.000,A,1513.1748,N,14543.0355,E,0.17,91.70,040217,,*3F
$GPGGA,014911.000,1513.1746,N,14543.032,E,1,,,0.00,M,,,,*29
$GPRMC,014911.000,A,1513.1746,N,14543.032,E,0.19,266.61,040217,,*36
$GPGGA,014912.000,1513.1745,N,14543.0355,E,1,,,0.00,M,,,,*1B
$GPRMC,014912.000,A,1513.1745,N,14543.0355,E,0.19,91.70,040217,,*3E
$GPGGA,014913.000,1513.1745,N,14543.0355,E,1,,,0.00,M,,,,*1A
$GPRMC,014913.000,A,1513.1745,N,14543.0355,E,0.10,0.00,040217,,*09
$GPGGA,014914.000,1513.1745,N,14543.0355,E,1,,,0.00,M,,,,*1D
$GPRMC,014914.000,A,1513.1745,N,14543.0355,E,0.21,0.00,040217,,*0C
$GPGGA,014915.000,1513.1745,N,14543.032,E,1,,,0.00,M,,,,*2E
$GPRMC,014915.000,A,1513.1745,N,14543.032,E,0.33,270.00,040217,,*39
$GPGGA,014916.000,1513.1745,N,14543.032,E,1,,,0.00,M,,,,*2D
$GPRMC,014916.000,A,1513.1745,N,14543.032,E,0.19,0.00,040217,,*37
$GPGGA,014917.000,1513.1745,N,14543.032,E,1,,,0.00,M,,,,*2C
$GPRMC,014917.000,A,1513.1745,N,14543.032,E,0.39,0.00,040217,,*34
$GPGGA,014918.000,1513.1745,N,14543.032,E,1,,,0.00,M,,,,*23
$GPRMC,014918.000,A,1513.1745,N,14543.032,E,0.43,0.00,040217,,*36
$GPGGA,014919.000,1513.1746,N,14543.0355,E,1,,,0.00,M,,,,*13
$GPRMC,014919.000,A,1513.1746,N,14543.0355,E,0.21,88.30,040217,,*31
$GPGGA,014920.000,1513.1746,N,14543.0355,E,1,,,0.00,M,,,,*19
$GPRMC,014920.000,A,1513.1746,N,14543.0355,E,0.21,0.00,040217,,*08
$GPGGA,014921.000,1513.1746,N,14543.0355,E,1,,,0.00,M,,,,*18
$GPRMC,014921.000,A,1513.1746,N,14543.0355,E,0.17,0.00,040217,,*0C
$GPGGA,014922.000,1513.1746,N,14543.0355,E,1,,,0.00,M,,,,*1B
$GPRMC,014922.000,A,1513.1746,N,14543.0355,E,0.19,0.00,040217,,*01
$GPGGA,014923.000,1513.1746,N,14543.0355,E,1,,,0.00,M,,,,*1A
$GPRMC,014923.000,A,1513.1746,N,14543.0355,E,0.19,0.00,040217,,*00
$GPGGA,014924.000,1513.1747,N,14543.0355,E,1,,,0.00,M,,,,*1C
$GPRMC,014924.000,A,1513.1747,N,14543.0355,E,0.12,0.00,040217,,*0D
$GPGGA,014925.000,1513.1747,N,14543.0355,E,1,,,0.00,M,,,,*1D
$GPRMC,014925.000,A,1513.1747,N,14543.0355,E,0.39,0.00,040217,,*05
$GPGGA,014926.000,1513.1747,N,14543.0354,E,1,,,0.00,M,,,,*1F
$GPRMC,014926.000,A,1513.1747,N,14543.0354,E,0.37,270.00,040217,,*0C
$GPGGA,014927.000,1513.1747,N,14543.0354,E,1,,,0.00,M,,,,*1E
$GPRMC,014927.000,A,1513.1747,N,14543.0354,E,0.39,0.00,040217,,*06
$GPGGA,014928.000,1513.1746,N,14543.0354,E,1,,,0.00,M,,,,*10
$GPRMC,014928.000,A,1513.1746,N,14543.0354,E,0.29,180.00,040217,,*00
$GPGGA,014929.000,1513.1744,N,14543.0355,E,1,,,0.00,M,,,,*12
$GPRMC,014929.000,A,1513.1744,N,14543.0355,E,0.19,154.24,040217,,*0E
$GPGGA,014930.000,1513.1744,N,14543.0355,E,1,,,0.00,M,,,,*1A
$GPRMC,014930.000,A,1513.1744,N,14543.0355,E,0.14,0.00,040217,,*0D
$GPGGA,014931.000,1513.1744,N,14543.0355,E,1,,,0.00,M,,,,*1B
$GPRMC,014931.000,A,1513.1744,N,14543.0355,E,0.21,0.00,040217,,*0A
$GPGGA,014932.000,1513.1744,N,14543.0355,E,1,,,0.00,M,,,,*18
$GPRMC,014932.000,A,1513.1744,N,14543.0355,E,0.16,0.00,040217,,*0D
$GPGGA,014933.000,1513.1745,N,14543.0355,E,1,,,0.00,M,,,,*18
$GPRMC,014933.000,A,1513.1745,N,14543.0355,E,0.39,0.00,040217,,*00
$GPGGA,014934.000,1513.1745,N,14543.0355,E,1,,,0.00,M,,,,*1F
$GPRMC,014934.000,A,1513.1745,N,14543.0355,E,0.45,0.00,040217,,*0C
$GPGGA,014935.000,1513.1745,N,14543.0354,E,1,,,0.00,M,,,,*1F
$GPRMC,014935.000,A,1513.1745,N,14543.0354,E,0.21,270.00,040217,,*0B
$GPGGA,014936.000,1513.1745,N,14543.0354,E,1,,,0.00,M,,,,*1C
$GPRMC,014936.000,A,1513.1745,N,14543.0354,E,0.17,0.00,040217,,*08
$GPGGA,014937.000,1513.1745,N,14543.0354,E,1,,,0.00,M,,,,*1D
$GPRMC,014937.000,A,1513.1745,N,14543.0354,E,0.12,0.00,040217,,*0C
$GPGGA,014938.000,1513.1745,N,14543.0354,E,1,,,0.00,M,,,,*12
$GPRMC,014938.000,A,1513.1745,N,14543.0354,E,0.14,0.00,040217,,*05
$GPGGA,014939.000,1513.1745,N,14543.0354,E,1,,,0.00,M,,,,*13
$GPRMC,014939.000,A,1513.1745,N,14543.0354,E,0.17,0.00,040217,,*07
$GPGGA,014940.000,1513.1745,N,14543.0354,E,1,,,0.00,M,,,,*1D
$GPRMC,014940.000,A,1513.1745,N,14543.0354,E,0.23,0.00,040217,,*0E
$GPGGA,014941.000,1513.1745,N,14543.035,E,1,,,0.00,M,,,,*28
$GPRMC,014941.000,A,1513.1745,N,14543.035,E,0.43,270.00,040217,,*38
$GPGGA,014942.000,1513.1745,N,14543.035,E,1,,,0.00,M,,,,*2B
$GPRMC,014942.000,A,1513.1745,N,14543.035,E,0.51,0.00,040217,,*3D
$GPGGA,014943.000,1513.1746,N,14543.0352,E,1,,,0.00,M,,,,*1B
$GPRMC,014943.000,A,1513.1746,N,14543.0352,E,0.35,62.61,040217,,*3C
$GPGGA,014944.000,1513.1746,N,14543.0352,E,1,,,0.00,M,,,,*1C
$GPRMC,014944.000,A,1513.1746,N,14543.0352,E,0.12,0.00,040217,,*0D
$GPGGA,014945.000,1513.1746,N,14543.0352,E,1,,,0.00,M,,,,*1D
$GPRMC,014945.000,A,1513.1746,N,14543.0352,E,0.29,0.00,040217,,*04
$GPGGA,014946.000,1513.1747,N,14543.0352,E,1,,,0.00,M,,,,*1F
$GPRMC,014946.000,A,1513.1747,N,14543.0352,E,0.51,0.00,040217,,*09
$GPGGA,014947.000,1513.1747,N,14543.0352,E,1,,,0.00,M,,,,*1E
$GPRMC,014947.000,A,1513.1747,N,14543.0352,E,0.39,0.00,040217,,*06
$GPGGA,014948.000,1513.1748,N,14543.0351,E,1,,,0.00,M,,,,*1D
$GPRMC,014948.000,A,1513.1748,N,14543.0351,E,0.49,316.02,040217,,*04
$GPGGA,014949.000,1513.1748,N,14543.0351,E,1,,,0.00,M,,,,*1C
$GPRMC,014949.000,A,1513.1748,N,14543.0351,E,0.45,0.00,040217,,*0F
$GPGGA,014950.000,1513.1749,N,14543.0351,E,1,,,0.00,M,,,,*15
$GPRMC,014950.000,A,1513.1749,N,14543.0351,E,0.33,0.00,040217,,*07
$GPGGA,014951.000,1513.1749,N,14543.0351,E,1,,,0.00,M,,,,*14
$GPRMC,014951.000,A,1513.1749,N,14543.0351,E,0.68,0.00,040217,,*08
$GPGGA,014952.000,1513.175,N,14543.0351,E,1,,,0.00,M,,,,*2F
$GPRMC,014952.000,A,1513.175,N,14543.0351,E,0.68,0.00,040217,,*33
$GPGGA,014953.000,1513.1751,N,14543.032,E,1,,,0.00,M,,,,*29
$GPRMC,014953.000,A,1513.1751,N,14543.032,E,0.33,271.91,040217,,*37
$GPGGA,014954.000,1513.1752,N,14543.032,E,1,,,0.00,M,,,,*2D
$GPRMC,014954.000,A,1513.1752,N,14543.032,E,0.37,0.00,040217,,*3B
$GPGGA,014955.000,1513.1752,N,14543.032,E,1,,,0.00,M,,,,*2C
$GPRMC,014955.000,A,1513.1752,N,14543.032,E,0.47,0.00,040217,,*3D
$GPGGA,014956.000,1513.1753,N,14543.032,E,1,,,0.00,M,,,,*2E
$GPRMC,014956.000,A,1513.1753,N,14543.032,E,0.51,0.00,040217,,*38
$GPGGA,014957.000,1513.1753,N,14543.032,E,1,,,0.00,M,,,,*2F
$GPRMC,014957.000,A,1513.1753,N,14543.032,E,0.35,0.00,040217,,*3B
$GPGGA,014958.000,1513.1753,N,14543.0349,E,1,,,0.00,M,,,,*1F
$GPRMC,014958.000,A,1513.1753,N,14543.0349,E,0.29,90.00,040217,,*3F
$GPGGA,014959.000,1513.1753,N,14543.0349,E,1,,,0.00,M,,,,*1E
$GPRMC,014959.000,A,1513.1753,N,14543.0349,E,0.23,0.00,040217,,*0D
$GPGGA,015000.000,1513.1753,N,14543.0349,E,1,,,0.00,M,,,,*1A
$GPRMC,015000.000,A,1513.1753,N,14543.0349,E,0.21,0.00,040217,,*0B
$GPGGA,015001.000,1513.1752,N,14543.0349,E,1,,,0.00,M,,,,*1A
$GPRMC,015001.000,A,1513.1752,N,14543.0349,E,0.25,180.00,040217,,*06
$GPGGA,015002.000,1513.1752,N,14543.0348,E,1,,,0.00,M,,,,*18
$GPRMC,015002.000,A,1513.1752,N,14543.0348,E,0.19,270.00,040217,,*07
$GPGGA,015003.000,1513.1752,N,14543.0348,E,1,,,0.00,M,,,,*19
$GPRMC,015003.000,A,1513.1752,N,14543.0348,E,0.12,0.00,040217,,*08
$GPGGA,015004.000,1513.1752,N,14543.0348,E,1,,,0.00,M,,,,*1E
$GPRMC,015004.000,A,1513.1752,N,14543.0348,E,0.08,0.00,040217,,*04
$GPGGA,015005.000,1513.1752,N,14543.0349,E,1,,,0.00,M,,,,*1E
$GPRMC,015005.000,A,1513.1752,N,14543.0349,E,0.14,90.00,040217,,*30
$GPGGA,015006.000,1513.1752,N,14543.0349,E,1,,,0.00,M,,,,*1D
$GPRMC,015006.000,A,1513.1752,N,14543.0349,E,0.39,0.00,040217,,*05
$GPGGA,015007.000,1513.1751,N,14543.0349,E,1,,,0.00,M,,,,*1F
$GPRMC,015007.000,A,1513.1751,N,14543.0349,E,0.17,180.00,040217,,*02
$GPGGA,015008.000,1513.1751,N,14543.0349,E,1,,,0.00,M,,,,*10
$GPRMC,015008.000,A,1513.1751,N,14543.0349,E,0.35,0.00,040217,,*04
$GPGGA,015009.000,1513.1752,N,14543.0349,E,1,,,0.00,M,,,,*12
$GPRMC,015009.000,A,1513.1752,N,14543.0349,E,0.25,0.00,040217,,*07
$GPGGA,015010.000,1513.1752,N,14543.032,E,1,,,0.00,M,,,,*25
$GPRMC,015010.000,A,1513.1752,N,14543.032,E,0.37,270.00,040217,,*36
$GPGGA,015011.000,1513.1752,N,14543.032,E,1,,,0.00,M,,,,*24
$GPRMC,015011.000,A,1513.1752,N,14543.032,E,0.76,0.00,040217,,*37
$GPGGA,015012.000,1513.1753,N,14543.0351,E,1,,,0.00,M,,,,*10
$GPRMC,015012.000,A,1513.1753,N,14543.0351,E,0.78,88.09,040217,,*34
$GPGGA,015013.000,1513.1754,N,14543.0351,E,1,,,0.00,M,,,,*16
$GPRMC,015013.000,A,1513.1754,N,14543.0351,E,0.51,0.00,040217,,*00
$GPGGA,015014.000,1513.1755,N,14543.0352,E,1,,,0.00,M,,,,*13
$GPRMC,015014.000,A,1513.1755,N,14543.0352,E,0.43,43.98,040217,,*30
$GPGGA,015015.000,1513.1755,N,14543.0352,E,1,,,0.00,M,,,,*12
$GPRMC,015015.000,A,1513.1755,N,14543.0352,E,0.43,0.00,040217,,*07
$GPGGA,015016.000,1513.1756,N,14543.0352,E,1,,,0.00,M,,,,*12
$GPRMC,015016.000,A,1513.1756,N,14543.0352,E,0.49,0.00,040217,,*0D
$GPGGA,015017.000,1513.1756,N,14543.035,E,1,,,0.00,M,,,,*21
$GPRMC,015017.000,A,1513.1756,N,14543.035,E,0.33,270.00,040217,,*36
$GPGGA,015018.000,1513.1756,N,14543.035,E,1,,,0.00,M,,,,*2E
$GPRMC,015018.000,A,1513.1756,N,14543.035,E,0.31,0.00,040217,,*3E
$GPGGA,015019.000,1513.1756,N,14543.0354,E,1,,,0.00,M,,,,*1B
$GPRMC,015019.000,A,1513.1756,N,14543.0354,E,0.08,90.00,040217,,*38
$GPGGA,015020.000,1513.1756,N,14543.0354,E,1,,,0.00,M,,,,*11
$GPRMC,015020.000,A,1513.1756,N,14543.0354,E,0.14,0.00,040217,,*06
$GPGGA,015021.000,1513.1756,N,14543.0354,E,1,,,0.00,M,,,,*10
$GPRMC,015021.000,A,1513.1756,N,14543.0354,E,0.47,0.00,040217,,*01
$GPGGA,015022.000,1513.1756,N,14543.0354,E,1,,,0.00,M,,,,*13
$GPRMC,015022.000,A,1513.1756,N,14543.0354,E,0.39,0.00,040217,,*0B
$GPGGA,015023.000,1513.1755,N,14543.0354,E,1,,,0.00,M,,,,*11
$GPRMC,015023.000,A,1513.1755,N,14543.0354,E,0.16,180.00,040217,,*0D
$GPGGA,015024.000,1513.1755,N,14543.0354,E,1,,,0.00,M,,,,*16
$GPRMC,015024.000,A,1513.1755,N,14543.0354,E,0.17,0.00,040217,,*02
$GPGGA,015025.000,1513.1755,N,14543.0355,E,1,,,0.00,M,,,,*16
$GPRMC,015025.000,A,1513.1755,N,14543.0355,E,0.23,90.00,040217,,*3C
$GPGGA,015026.000,1513.1755,N,14543.0355,E,1,,,0.00,M,,,,*15
$GPRMC,015026.000,A,1513.1755,N,14543.0355,E,0.31,0.00,040217,,*05
$GPGGA,015027.000,1513.1755,N,14543.032,E,1,,,0.00,M,,,,*26
$GPRMC,015027.000,A,1513.1755,N,14543.032,E,0.31,270.00,040217,,*33
$GPGGA,015028.000,1513.1755,N,14543.032,E,1,,,0.00,M,,,,*29
$GPRMC,015028.000,A,1513.1755,N,14543.032,E,0.25,0.00,040217,,*3C
$GPGGA,015029.000,1513.1754,N,14543.032,E,1,,,0.00,M,,,,*29
$GPRMC,015029.000,A,1513.1754,N,14543.032,E,0.21,180.00,040217,,*31
$GPGGA,015030.000,1513.1754,N,14543.032,E,1,,,0.00,M,,,,*21
$GPRMC,015030.000,A,1513.1754,N,14543.032,E,0.25,0.00,040217,,*34
$GPGGA,015031.000,1513.1754,N,14543.032,E,1,,,0.00,M,,,,*20
$GPRMC,015031.000,A,1513.1754,N,14543.032,E,0.33,0.00,040217,,*32
$GPGGA,015032.000,1513.1754,N,14543.0355,E,1,,,0.00,M,,,,*11
$GPRMC,015032.000,A,1513.1754,N,14543.0355,E,0.25,90.00,040217,,*3D
$GPGGA,015033.000,1513.1754,N,14543.0355,E,1,,,0.00,M,,,,*10
$GPRMC,015033.000,A,1513.1754,N,14543.0355,E,0.21,0.00,040217,,*01
$GPGGA,015034.000,1513.1754,N,14543.0355,E,1,,,0.00,M,,,,*17
$GPRMC,015034.000,A,1513.1754,N,14543.0355,E,0.17,0.00,040217,,*03
$GPGGA,015035.000,1513.1753,N,14543.0354,E,1,,,0.00,M,,,,*10
$GPRMC,015035.000,A,1513.1753,N,14543.0354,E,0.29,223.98,040217,,*0B
$GPGGA,015036.000,1513.1753,N,14543.0354,E,1,,,0.00,M,,,,*13
$GPRMC,015036.000,A,1513.1753,N,14543.0354,E,0.39,0.00,040217,,*0B
$GPGGA,015037.000,1513.1753,N,14543.0354,E,1,,,0.00,M,,,,*12
$GPRMC,015037.000,A,1513.1753,N,14543.0354,E,0.21,0.00,040217,,*03
$GPGGA,015038.000,1513.1753,N,14543.035,E,1,,,0.00,M,,,,*29
$GPRMC,015038.000,A,1513.1753,N,14543.035,E,0.37,270.00,040217,,*3A
$GPGGA,015039.000,1513.1752,N,14543.035,E,1,,,0.00,M,,,,*29
$GPRMC,015039.000,A,1513.1752,N,14543.035,E,0.27,180.00,040217,,*37
$GPGGA,015040.000,1513.1752,N,14543.035,E,1,,,0.00,M,,,,*27
$GPRMC,015040.000,A,1513.1752,N,14543.035,E,0.37,0.00,040217,,*31
$GPGGA,015041.000,1513.1753,N,14543.0352,E,1,,,0.00,M,,,,*15
$GPRMC,015041.000,A,1513.1753,N,14543.0352,E,0.35,62.61,040217,,*32
$GPGGA,015042.000,1513.1753,N,14543.035,E,1,,,0.00,M,,,,*24
$GPRMC,015042.000,A,1513.1753,N,14543.035,E,0.19,270.00,040217,,*3B
$GPGGA,015043.000,1513.1753,N,14543.035,E,1,,,0.00,M,,,,*25
$GPRMC,015043.000,A,1513.1753,N,14543.035,E,0.31,0.00,040217,,*35
$GPGGA,015044.000,1513.1754,N,14543.035,E,1,,,0.00,M,,,,*25
$GPRMC,015044.000,A,1513.1754,N,14543.035,E,0.43,0.00,040217,,*30
$GPGGA,015045.000,1513.1754,N,14543.035,E,1,,,0.00,M,,,,*24
$GPRMC,015045.000,A,1513.1754,N,14543.035,E,0.45,0.00,040217,,*37
$GPGGA,015046.000,1513.1755,N,14543.035,E,1,,,0.00,M,,,,*26
$GPRMC,015046.000,A,1513.1755,N,14543.035,E,0.45,0.00,040217,,*35
$GPGGA,015047.000,1513.1755,N,14543.035,E,1,,,0.00,M,,,,*27
$GPRMC,015047.000,A,1513.1755,N,14543.035,E,0.39,0.00,040217,,*3F
$GPGGA,015048.000,1513.1755,N,14543.035,E,1,,,0.00,M,,,,*28
$GPRMC,015048.000,A,1513.1755,N,14543.035,E,0.33,0.00,040217,,*3A
$GPGGA,015049.000,1513.1753,N,14543.0354,E,1,,,0.00,M,,,,*1B
$GPRMC,015049.000,A,1513.1753,N,14543.0354,E,0.27,117.39,040217,,*01
$GPGGA,015050.000,1513.1753,N,14543.0355,E,1,,,0.00,M,,,,*12
$GPRMC,015050.000,A,1513.1753,N,14543.0355,E,0.21,90.00,040217,,*3A
$GPGGA,015051.000,1513.1753,N,14543.0355,E,1,,,0.00,M,,,,*13
$GPRMC,015051.000,A,1513.1753,N,14543.0355,E,0.23,0.00,040217,,*00
$GPGGA,015052.000,1513.1754,N,14543.0354,E,1,,,0.00,M,,,,*16
$GPRMC,015052.000,A,1513.1754,N,14543.0354,E,0.12,316.02,040217,,*01
$GPGGA,015053.000,1513.1754,N,14543.0354,E,1,,,0.00,M,,,,*17
$GPRMC,015053.000,A,1513.1754,N,14543.0354,E,0.19,0.00,040217,,*0D
$GPGGA,015054.000,1513.1753,N,14543.0355,E,1,,,0.00,M,,,,*16
$GPRMC,015054.000,A,1513.1753,N,14543.0355,E,0.17,136.02,040217,,*04
$GPGGA,015055.000,1513.1753,N,14543.0355,E,1,,,0.00,M,,,,*17
$GPRMC,015055.000,A,1513.1753,N,14543.0355,E,0.31,0.00,040217,,*07
$GPGGA,015056.000,1513.1753,N,14543.0355,E,1,,,0.00,M,,,,*14
$GPRMC,015056.000,A,1513.1753,N,14543.0355,E,0.25,0.00,040217,,*01
$GPGGA,015057.000,1513.1753,N,14543.0355,E,1,,,0.00,M,,,,*15
$GPRMC,015057.000,A,1513.1753,N,14543.0355,E,0.33,0.00,040217,,*07
$GPGGA,015058.000,1513.1753,N,14543.032,E,1,,,0.00,M,,,,*28
$GPRMC,015058.000,A,1513.1753,N,14543.032,E,0.47,270.00,040217,,*3C
$GPGGA,015059.000,1513.1754,N,14543.032,E,1,,,0.00,M,,,,*2E
$GPRMC,015059.000,A,1513.1754,N,14543.032,E,0.37,0.00,040217,,*38
$GPGGA,015100.000,1513.1754,N,14543.032,E,1,,,0.00,M,,,,*23
$GPRMC,015100.000,A,1513.1754,N,14543.032,E,0.12,0.00,040217,,*32
$GPGGA,015101.000,1513.1754,N,14543.032,E,1,,,0.00,M,,,,*22
$GPRMC,015101.000,A,1513.1754,N,14543.032,E,0.10,0.00,040217,,*31
$GPGGA,015102.000,1513.1754,N,14543.032,E,1,,,0.00,M,,,,*21
$GPRMC,015102.000,A,1513.1754,N,14543.032,E,0.31,0.00,040217,,*31
$GPGGA,015103.000,1513.1754,N,14543.0357,E,1,,,0.00,M,,,,*10
$GPRMC,015103.000,A,1513.1754,N,14543.0357,E,0.19,90.00,040217,,*33
$GPGGA,015104.000,1513.1754,N,14543.0357,E,1,,,0.00,M,,,,*17
$GPRMC,015104.000,A,1513.1754,N,14543.0357,E,0.37,0.00,040217,,*01
$GPGGA,015105.000,1513.1755,N,14543.0357,E,1,,,0.00,M,,,,*17
$GPRMC,015105.000,A,1513.1755,N,14543.0357,E,0.51,0.00,040217,,*01
$GPGGA,015106.000,1513.1756,N,14543.0358,E,1,,,0.00,M,,,,*18
$GPRMC,015106.000,A,1513.1756,N,14543.0358,E,0.66,43.98,040217,,*3C
$GPGGA,015107.000,1513.1756,N,14543.0358,E,1,,,0.00,M,,,,*19
$GPRMC,015107.000,A,1513.1756,N,14543.0358,E,0.31,0.00,040217,,*09
$GPGGA,015108.000,1513.1757,N,14543.0358,E,1,,,0.00,M,,,,*17
$GPRMC,015108.000,A,1513.1757,N,14543.0358,E,0.16,0.00,040217,,*02
$GPGGA,015109.000,1513.1757,N,14543.0358,E,1,,,0.00,M,,,,*16
$GPRMC,015109.000,A,1513.1757,N,14543.0358,E,0.06,0.00,040217,,*02
$GPGGA,015110.000,1513.1756,N,14543.0358,E,1,,,0.00,M,,,,*1F
$GPRMC,015110.000,A,1513.1756,N,14543.0358,E,0.12,180.00,040217,,*07
$GPGGA,015111.000,1513.1757,N,14543.0356,E,1,,,0.00,M,,,,*11
$GPRMC,015111.000,A,1513.1757,N,14543.0356,E,0.06,297.39,040217,,*03
$GPGGA,015112.000,1513.1756,N,14543.0356,E,1,,,0.00,M,,,,*13
$GPRMC,015112.000,A,1513.1756,N,14543.0356,E,0.21,180.00,040217,,*0B
$GPGGA,015113.000,1513.1757,N,14543.0356,E,1,,,0.00,M,,,,*13
$GPRMC,015113.000,A,1513.1757,N,14543.0356,E,0.17,0.00,040217,,*07
$GPGGA,015114.000,1513.1757,N,14543.0356,E,1,,,0.00,M,,,,*14
$GPRMC,015114.000,A,1513.1757,N,14543.0356,E,0.06,0.00,040217,,*00
$GPGGA,015115.000,1513.1756,N,14543.0356,E,1,,,0.00,M,,,,*14
$GPRMC,015115.000,A,1513.1756,N,14543.0356,E,0.16,180.00,040217,,*08
$GPGGA,015116.000,1513.1757,N,14543.0356,E,1,,,0.00,M,,,,*16
$GPRMC,015116.000,A,1513.1757,N,14543.0356,E,0.21,0.00,040217,,*07
$GPGGA,015117.000,1513.1757,N,14543.0356,E,1,,,0.00,M,,,,*17
$GPRMC,015117.000,A,1513.1757,N,14543.0356,E,0.10,0.00,040217,,*04
$GPGGA,015118.000,1513.1757,N,14543.0356,E,1,,,0.00,M,,,,*18
$GPRMC,015118.000,A,1513.1757,N,14543.0356,E,0.29,0.00,040217,,*01
$GPGGA,015119.000,1513.1757,N,14543.0356,E,1,,,0.00,M,,,,*19
$GPRMC,015119.000,A,1513.1757,N,14543.0356,E,0.25,0.00,040217,,*0C
$GPGGA,015120.000,1513.1758,N,14543.0356,E,1,,,0.00,M,,,,*1C
$GPRMC,015120.000,A,1513.1758,N,14543.0356,E,0.31,0.00,040217,,*0C
$GPGGA,015121.000,1513.1758,N,14543.0356,E,1,,,0.00,M,,,,*1D
$GPRMC,015121.000,A,1513.1758,N,14543.0356,E,0.33,0.00,040217,,*0F
$GPGGA,015122.000,1513.1758,N,14543.0358,E,1,,,0.00,M,,,,*10
$GPRMC,015122.000,A,1513.1758,N,14543.0358,E,0.21,90.00,040217,,*38
$GPGGA,015123.000,1513.1758,N,14543.0358,E,1,,,0.00,M,,,,*11
$GPRMC,015123.000,A,1513.1758,N,14543.0358,E,0.37,0.00,040217,,*07
$GPGGA,015124.000,1513.1758,N,14543.0357,E,1,,,0.00,M,,,,*19
$GPRMC,015124.000,A,1513.1758,N,14543.0357,E,0.51,270.00,040217,,*0A
$GPGGA,015125.000,1513.1758,N,14543.0357,E,1,,,0.00,M,,,,*18
$GPRMC,015125.000,A,1513.1758,N,14543.0357,E,0.41,0.00,040217,,*0F
$GPGGA,015126.000,1513.1757,N,14543.032,E,1,,,0.00,M,,,,*24
$GPRMC,015126.000,A,1513.1757,N,14543.032,E,0.54,268.40,040217,,*3F
$GPGGA,015127.000,1513.1757,N,14543.032,E,1,,,0.00,M,,,,*25
$GPRMC,015127.000,A,1513.1757,N,14543.032,E,0.43,0.00,040217,,*30
$GPGGA,015128.000,1513.1756,N,14543.032,E,1,,,0.00,M,,,,*2B
$GPRMC,015128.000,A,1513.1756,N,14543.032,E,0.39,180.00,040217,,*3A
$GPGGA,015129.000,1513.1756,N,14543.0355,E,1,,,0.00,M,,,,*18
$GPRMC,015129.000,A,1513.1756,N,14543.0355,E,0.19,90.00,040217,,*3B
$GPGGA,015130.000,1513.1755,N,14543.0355,E,1,,,0.00,M,,,,*13
$GPRMC,015130.000,A,1513.1755,N,14543.0355,E,0.21,180.00,040217,,*0B
$GPGGA,015131.000,1513.1755,N,14543.0355,E,1,,,0.00,M,,,,*12
$GPRMC,015131.000,A,1513.1755,N,14543.0355,E,0.23,0.00,040217,,*01
$GPGGA,015132.000,1513.1755,N,14543.0355,E,1,,,0.00,M,,,,*11
$GPRMC,015132.000,A,1513.1755,N,14543.0355,E,0.08,0.00,040217,,*0B
$GPGGA,015133.000,1513.1755,N,14543.0355,E,1,,,0.00,M,,,,*10
$GPRMC,015133.000,A,1513.1755,N,14543.0355,E,0.06,0.00,040217,,*04
$GPGGA,015134.000,1513.1755,N,14543.0355,E,1,,,0.00,M,,,,*17
$GPRMC,015134.000,A,1513.1755,N,14543.0355,E,0.14,0.00,040217,,*00
$GPGGA,015135.000,1513.1755,N,14543.0355,E,1,,,0.00,M,,,,*16
$GPRMC,015135.000,A,1513.1755,N,14543.0355,E,0.08,0.00,040217,,*0C
$GPGGA,015136.000,1513.1755,N,14543.0355,E,1,,,0.00,M,,,,*15
$GPRMC,015136.000,A,1513.1755,N,14543.0355,E,0.06,0.00,040217,,*01
$GPGGA,015137.000,1513.1755,N,14543.0355,E,1,,,0.00,M,,,,*14
$GPRMC,015137.000,A,1513.1755,N,14543.0355,E,0.10,0.00,040217,,*07
$GPGGA,015138.000,1513.1755,N,14543.0355,E,1,,,0.00,M,,,,*1B
$GPRMC,015138.000,A,1513.1755,N,14543.0355,E,0.17,0.00,040217,,*0F
$GPGGA,015139.000,1513.1755,N,14543.0355,E,1,,,0.00,M,,,,*1A
$GPRMC,015139.000,A,1513.1755,N,14543.0355,E,0.25,0.00,040217,,*0F
$GPGGA,015140.000,1513.1754,N,14543.032,E,1,,,0.00,M,,,,*27
$GPRMC,015140.000,A,1513.1754,N,14543.032,E,0.21,268.30,040217,,*39
$GPGGA,015141.000,1513.1754,N,14543.032,E,1,,,0.00,M,,,,*26
$GPRMC,015141.000,A,1513.1754,N,14543.032,E,0.27,0.00,040217,,*31
$GPGGA,015142.000,1513.1754,N,14543.032,E,1,,,0.00,M,,,,*25
$GPRMC,015142.000,A,1513.1754,N,14543.032,E,0.25,0.00,040217,,*30
$GPGGA,015143.000,1513.1754,N,14543.032,E,1,,,0.00,M,,,,*24
$GPRMC,015143.000,A,1513.1754,N,14543.032,E,0.35,0.00,040217,,*30
$GPGGA,015144.000,1513.1754,N,14543.0357,E,1,,,0.00,M,,,,*13
$GPRMC,015144.000,A,1513.1754,N,14543.0357,E,0.21,90.00,040217,,*3B
$GPGGA,015145.000,1513.1754,N,14543.0357,E,1,,,0.00,M,,,,*12
$GPRMC,015145.000,A,1513.1754,N,14543.0357,E,0.06,0.00,040217,,*06
$GPGGA,015146.000,1513.1754,N,14543.0357,E,1,,,0.00,M,,,,*11
$GPRMC,015146.000,A,1513.1754,N,14543.0357,E,0.08,0.00,040217,,*0B
$GPGGA,015147.000,1513.1754,N,14543.0357,E,1,,,0.00,M,,,,*10
$GPRMC,015147.000,A,1513.1754,N,14543.0357,E,0.41,0.00,040217,,*07
$GPGGA,015148.000,1513.1753,N,14543.0357,E,1,,,0.00,M,,,,*18
$GPRMC,015148.000,A,1513.1753,N,14543.0357,E,0.37,180.00,040217,,*07
$GPGGA,015149.000,1513.1753,N,14543.0357,E,1,,,0.00,M,,,,*19
$GPRMC,015149.000,A,1513.1753,N,14543.0357,E,0.33,0.00,040217,,*0B
$GPGGA,015150.000,1513.1752,N,14543.0357,E,1,,,0.00,M,,,,*10
$GPRMC,015150.000,A,1513.1752,N,14543.0357,E,0.10,180.00,040217,,*0A
$GPGGA,015151.000,1513.1752,N,14543.0358,E,1,,,0.00,M,,,,*1E
$GPRMC,015151.000,A,1513.1752,N,14543.0358,E,0.21,90.00,040217,,*36
$GPGGA,015152.000,1513.1752,N,14543.0358,E,1,,,0.00,M,,,,*1D
$GPRMC,015152.000,A,1513.1752,N,14543.0358,E,0.23,0.00,040217,,*0E
$GPGGA,015153.000,1513.1753,N,14543.0358,E,1,,,0.00,M,,,,*1D
$GPRMC,015153.000,A,1513.1753,N,14543.0358,E,0.04,0.00,040217,,*0B
$GPGGA,015154.000,1513.1753,N,14543.0358,E,1,,,0.00,M,,,,*1A
$GPRMC,015154.000,A,1513.1753,N,14543.0358,E,0.06,0.00,040217,,*0E
$GPGGA,015155.000,1513.1753,N,14543.0358,E,1,,,0.00,M,,,,*1B
$GPRMC,015155.000,A,1513.1753,N,14543.0358,E,0.04,0.00,040217,,*0D
$GPGGA,015156.000,1513.1752,N,14543.0358,E,1,,,0.00,M,,,,*19
$GPRMC,015156.000,A,1513.1752,N,14543.0358,E,0.16,180.00,040217,,*05
$GPGGA,015157.000,1513.1753,N,14543.0358,E,1,,,0.00,M,,,,*19
$GPRMC,015157.000,A,1513.1753,N,14543.0358,E,0.17,0.00,040217,,*0D
$GPGGA,015158.000,1513.1753,N,14543.0358,E,1,,,0.00,M,,,,*16
$GPRMC,015158.000,A,1513.1753,N,14543.0358,E,0.23,0.00,040217,,*05
$GPGGA,015159.000,1513.1753,N,14543.0358,E,1,,,0.00,M,,,,*17
$GPRMC,015159.000,A,1513.1753,N,14543.0358,E,0.43,0.00,040217,,*02
$GPGGA,015200.000,1513.1754,N,14543.0358,E,1,,,0.00,M,,,,*1F
$GPRMC,015200.000,A,1513.1754,N,14543.0358,E,0.47,0.00,040217,,*0E
$GPGGA,015201.000,1513.1754,N,14543.0358,E,1,,,0.00,M,,,,*1E
$GPRMC,015201.000,A,1513.1754,N,14543.0358,E,0.27,0.00,040217,,*09
$GPGGA,015202.000,1513.1755,N,14543.0358,E,1,,,0.00,M,,,,*1C
$GPRMC,015202.000,A,1513.1755,N,14543.0358,E,0.17,0.00,040217,,*08
$GPGGA,015203.000,1513.1755,N,14543.0358,E,1,,,0.00,M,,,,*1D
$GPRMC,015203.000,A,1513.1755,N,14543.0358,E,0.31,0.00,040217,,*0D
$GPGGA,015204.000,1513.1755,N,14543.0358,E,1,,,0.00,M,,,,*1A
$GPRMC,015204.000,A,1513.1755,N,14543.0358,E,0.23,0.00,040217,,*09
$GPGGA,015205.000,1513.1755,N,14543.0357,E,1,,,0.00,M,,,,*14
$GPRMC,015205.000,A,1513.1755,N,14543.0357,E,0.17,270.00,040217,,*05
$GPGGA,015206.000,1513.1755,N,14543.0357,E,1,,,0.00,M,,,,*17
$GPRMC,015206.000,A,1513.1755,N,14543.0357,E,0.10,0.00,040217,,*04
$GPGGA,015207.000,1513.1755,N,14543.0357,E,1,,,0.00,M,,,,*16
$GPRMC,015207.000,A,1513.1755,N,14543.0357,E,0.19,0.00,040217,,*0C
$GPGGA,015208.000,1513.1755,N,14543.0357,E,1,,,0.00,M,,,,*19
$GPRMC,015208.000,A,1513.1755,N,14543.0357,E,0.31,0.00,040217,,*09
$GPGGA,015209.000,1513.1756,N,14543.0357,E,1,,,0.00,M,,,,*1B
$GPRMC,015209.000,A,1513.1756,N,14543.0357,E,0.52,0.00,040217,,*0E
$GPGGA,015210.000,1513.1756,N,14543.032,E,1,,,0.00,M,,,,*23
$GPRMC,015210.000,A,1513.1756,N,14543.032,E,0.70,270.00,040217,,*33
$GPGGA,015211.000,1513.1757,N,14543.0355,E,1,,,0.00,M,,,,*11
$GPRMC,015211.000,A,1513.1757,N,14543.0355,E,0.49,88.30,040217,,*3D
$GPGGA,015212.000,1513.1757,N,14543.0355,E,1,,,0.00,M,,,,*12
$GPRMC,015212.000,A,1513.1757,N,14543.0355,E,0.25,0.00,040217,,*07
$GPGGA,015213.000,1513.1757,N,14543.0354,E,1,,,0.00,M,,,,*12
$GPRMC,015213.000,A,1513.1757,N,14543.0354,E,0.17,270.00,040217,,*03
$GPGGA,015214.000,1513.1757,N,14543.0354,E,1,,,0.00,M,,,,*15
$GPRMC,015214.000,A,1513.1757,N,14543.0354,E,0.33,0.00,040217,,*07
$GPGGA,015215.000,1513.1756,N,14543.0354,E,1,,,0.00,M,,,,*15
$GPRMC,015215.000,A,1513.1756,N,14543.0354,E,0.35,180.00,040217,,*08
$GPGGA,015216.000,1513.1756,N,14543.0354,E,1,,,0.00,M,,,,*16
$GPRMC,015216.000,A,1513.1756,N,14543.0354,E,0.49,0.00,040217,,*09
$GPGGA,015217.000,1513.1756,N,14543.035,E,1,,,0.00,M,,,,*23
$GPRMC,015217.000,A,1513.1756,N,14543.035,E,0.33,270.00,040217,,*34
$GPGGA,015218.000,1513.1755,N,14543.035,E,1,,,0.00,M,,,,*2F
$GPRMC,015218.000,A,1513.1755,N,14543.035,E,0.21,180.00,040217,,*37
$GPGGA,015219.000,1513.1755,N,14543.0352,E,1,,,0.00,M,,,,*1C
$GPRMC,015219.000,A,1513.1755,N,14543.0352,E,0.47,90.00,040217,,*34
$GPGGA,015220.000,1513.1754,N,14543.0352,E,1,,,0.00,M,,,,*17
$GPRMC,015220.000,A,1513.1754,N,14543.0352,E,0.52,180.00,040217,,*0B
$GPGGA,015221.000,1513.1754,N,14543.0352,E,1,,,0.00,M,,,,*16
$GPRMC,015221.000,A,1513.1754,N,14543.0352,E,0.54,0.00,040217,,*05
$GPGGA,015222.000,1513.1753,N,14543.0351,E,1,,,0.00,M,,,,*11
$GPRMC,015222.000,A,1513.1753,N,14543.0351,E,0.52,223.98,040217,,*06
$GPGGA,015223.000,1513.1752,N,14543.0351,E,1,,,0.00,M,,,,*11
$GPRMC,015223.000,A,1513.1752,N,14543.0351,E,0.43,180.00,040217,,*0D
$GPGGA,015224.000,1513.1752,N,14543.0351,E,1,,,0.00,M,,,,*16
$GPRMC,015224.000,A,1513.1752,N,14543.0351,E,0.51,0.00,040217,,*00
$GPGGA,015225.000,1513.1751,N,14543.0351,E,1,,,0.00,M,,,,*14
$GPRMC,015225.000,A,1513.1751,N,14543.0351,E,0.45,180.00,040217,,*0E
$GPGGA,015226.000,1513.175,N,14543.0351,E,1,,,0.00,M,,,,*26
