$GPRMC,014438.071,A,1513.1908,N,14543.0586,E,0.54,0.00,040217,,,A*69
$GPRMC,014439.071,A,1513.1772,N,14543.0509,E,0.42,0.00,040217,,,A*6B
$GPRMC,014440.071,A,1513.1651,N,14543.0461,E,0.47,0.00,040217,,,A*6F
$GPRMC,014441.071,A,1513.1595,N,14543.0423,E,0.53,0.00,040217,,,A*66
$GPRMC,014443.000,A,1513.1625,N,14543.0420,E,0.42,0.00,040217,,,A*69
$GPRMC,014444.000,A,1513.1626,N,14543.0424,E,0.60,176.02,040217,,,A*6B
$GPRMC,014446.000,A,1513.1626,N,14543.0412,E,0.22,176.02,040217,,,A*6A
$GPRMC,014448.000,A,1513.1627,N,14543.0410,E,0.15,176.02,040217,,,A*63
$GPRMC,014450.000,A,1513.1630,N,14543.0410,E,0.18,176.02,040217,,,A*61
$GPRMC,014452.000,A,1513.1634,N,14543.0411,E,0.13,176.02,040217,,,A*6D
$GPRMC,014454.000,A,1513.1639,N,14543.0400,E,0.24,176.02,040217,,,A*62
$GPRMC,014456.000,A,1513.1641,N,14543.0397,E,0.30,176.02,040217,,,A*63
$GPRMC,014458.000,A,1513.1643,N,14543.0395,E,0.19,176.02,040217,,,A*66
$GPRMC,014459.000,A,1513.1641,N,14543.0397,E,0.36,176.02,040217,,,A*6A
$GPRMC,014500.000,A,1513.1641,N,14543.0398,E,0.40,176.02,040217,,,A*69
$GPRMC,014501.000,A,1513.1640,N,14543.0395,E,0.21,176.02,040217,,,A*63
$GPRMC,014502.000,A,1513.1637,N,14543.0394,E,0.22,176.02,040217,,,A*62
$GPRMC,014503.000,A,1513.1633,N,14543.0393,E,0.25,176.02,040217,,,A*67
$GPRMC,014504.000,A,1513.1629,N,14543.0390,E,0.28,176.02,040217,,,A*65
$GPRMC,014505.000,A,1513.1626,N,14543.0387,E,0.54,176.02,040217,,,A*66
$GPRMC,014506.000,A,1513.1625,N,14543.0383,E,0.66,213.33,040217,,,A*61
$GPRMC,014507.000,A,1513.1624,N,14543.0380,E,0.55,213.33,040217,,,A*62
$GPRMC,014508.000,A,1513.1623,N,14543.0378,E,0.57,213.33,040217,,,A*6F
$GPRMC,014509.000,A,1513.1621,N,14543.0377,E,0.46,213.33,040217,,,A*63
$GPRMC,014510.000,A,1513.1619,N,14543.0376,E,0.37,213.33,040217,,,A*67
$GPRMC,014511.000,A,1513.1618,N,14543.0375,E,0.29,213.33,040217,,,A*6B
$GPRMC,014512.000,A,1513.1618,N,14543.0374,E,0.44,213.33,040217,,,A*62
$GPRMC,014513.000,A,1513.1619,N,14543.0373,E,0.51,213.33,040217,,,A*61
$GPRMC,014514.000,A,1513.1619,N,14543.0372,E,0.57,216.68,040217,,,A*6A
$GPRMC,014515.000,A,1513.1617,N,14543.0371,E,0.60,215.44,040217,,,A*6F
$GPRMC,014516.000,A,1513.1615,N,14543.0371,E,0.59,215.44,040217,,,A*64
$GPRMC,014517.000,A,1513.1613,N,14543.0372,E,0.51,216.06,040217,,,A*6D
$GPRMC,014518.000,A,1513.1613,N,14543.0371,E,0.51,216.10,040217,,,A*66
$GPRMC,014519.000,A,1513.1612,N,14543.0369,E,0.50,215.79,040217,,,A*62
$GPRMC,014520.000,A,1513.1610,N,14543.0368,E,0.55,216.02,040217,,,A*61
$GPRMC,014521.000,A,1513.1609,N,14543.0367,E,0.55,216.02,040217,,,A*67
$GPRMC,014522.000,A,1513.1608,N,14543.0366,E,0.43,216.02,040217,,,A*63
$GPRMC,014523.000,A,1513.1607,N,14543.0365,E,0.45,216.02,040217,,,A*68
$GPRMC,014524.000,A,1513.1606,N,14543.0365,E,0.32,216.02,040217,,,A*6E
$GPRMC,014525.000,A,1513.1605,N,14543.0365,E,0.35,216.02,040217,,,A*6B
$GPRMC,014526.000,A,1513.1604,N,14543.0364,E,0.27,216.02,040217,,,A*6B
$GPRMC,014527.000,A,1513.1604,N,14543.0364,E,0.27,216.02,040217,,,A*6A
$GPRMC,014528.000,A,1513.1603,N,14543.0363,E,0.30,216.02,040217,,,A*63
$GPRMC,014529.000,A,1513.1604,N,14543.0362,E,0.34,216.02,040217,,,A*60
$GPRMC,014530.000,A,1513.1603,N,14543.0363,E,0.31,216.02,040217,,,A*6B
$GPRMC,014531.000,A,1513.1603,N,14543.0363,E,0.29,216.02,040217,,,A*63
$GPRMC,014532.000,A,1513.1605,N,14543.0363,E,0.28,216.02,040217,,,A*67
$GPRMC,014533.000,A,1513.1604,N,14543.0362,E,0.26,216.02,040217,,,A*68
$GPRMC,014534.000,A,1513.1603,N,14543.0362,E,0.36,216.02,040217,,,A*69
$GPRMC,014535.000,A,1513.1602,N,14543.0362,E,0.37,216.02,040217,,,A*68
$GPRMC,014536.000,A,1513.1601,N,14543.0361,E,0.36,216.02,040217,,,A*6A
$GPRMC,014537.000,A,1513.1599,N,14543.0362,E,0.41,216.02,040217,,,A*6A
$GPRMC,014538.000,A,1513.1596,N,14543.0365,E,0.46,216.02,040217,,,A*6A
$GPRMC,014539.000,A,1513.1594,N,14543.0366,E,0.47,216.02,040217,,,A*6B
$GPRMC,014540.000,A,1513.1593,N,14543.0367,E,0.46,216.02,040217,,,A*62
$GPRMC,014541.000,A,1513.1591,N,14543.0367,E,0.45,216.02,040217,,,A*62
$GPRMC,014542.000,A,1513.1590,N,14543.0367,E,0.32,216.02,040217,,,A*60
$GPRMC,014543.000,A,1513.1589,N,14543.0367,E,0.31,216.02,040217,,,A*6A
$GPRMC,014544.000,A,1513.1588,N,14543.0367,E,0.37,216.02,040217,,,A*6A
$GPRMC,014545.000,A,1513.1588,N,14543.0368,E,0.37,216.02,040217,,,A*64
$GPRMC,014546.000,A,1513.1587,N,14543.0368,E,0.47,216.02,040217,,,A*6F
$GPRMC,014547.000,A,1513.1585,N,14543.0368,E,0.47,216.02,040217,,,A*6C
$GPRMC,014548.000,A,1513.1584,N,14543.0368,E,0.45,216.02,040217,,,A*60
$GPRMC,014549.000,A,1513.1583,N,14543.0368,E,0.39,216.02,040217,,,A*6D
$GPRMC,014550.000,A,1513.1582,N,14543.0367,E,0.30,216.02,040217,,,A*62
$GPRMC,014551.000,A,1513.1581,N,14543.0367,E,0.30,216.02,040217,,,A*60
$GPRMC,014552.000,A,1513.1581,N,14543.0366,E,0.29,216.02,040217,,,A*6A
$GPRMC,014553.000,A,1513.1580,N,14543.0366,E,0.25,216.02,040217,,,A*66
$GPRMC,014554.000,A,1513.1580,N,14543.0365,E,0.25,216.02,040217,,,A*62
$GPRMC,014555.000,A,1513.1580,N,14543.0364,E,0.06,216.02,040217,,,A*63
$GPRMC,014556.000,A,1513.1580,N,14543.0364,E,0.15,216.02,040217,,,A*62
$GPRMC,014557.000,A,1513.1580,N,14543.0364,E,0.23,216.02,040217,,,A*66
$GPRMC,014558.000,A,1513.1581,N,14543.0364,E,0.26,216.02,040217,,,A*6D
$GPRMC,014559.000,A,1513.1581,N,14543.0363,E,0.28,216.02,040217,,,A*65
$GPRMC,014600.000,A,1513.1582,N,14543.0362,E,0.34,216.02,040217,,,A*65
$GPRMC,014601.000,A,1513.1582,N,14543.0362,E,0.31,216.02,040217,,,A*61
$GPRMC,014602.000,A,1513.1582,N,14543.0361,E,0.40,216.02,040217,,,A*67
$GPRMC,014603.000,A,1513.1583,N,14543.0360,E,0.50,216.02,040217,,,A*67
$GPRMC,014604.000,A,1513.1583,N,14543.0358,E,0.29,216.02,040217,,,A*65
$GPRMC,014605.000,A,1513.1583,N,14543.0357,E,0.32,216.02,040217,,,A*61
$GPRMC,014606.000,A,1513.1582,N,14543.0357,E,0.29,216.02,040217,,,A*69
$GPRMC,014607.000,A,1513.1582,N,14543.0356,E,0.30,216.02,040217,,,A*61
$GPRMC,014608.000,A,1513.1582,N,14543.0355,E,0.23,216.02,040217,,,A*6F
$GPRMC,014609.000,A,1513.1582,N,14543.0354,E,0.33,216.02,040217,,,A*6E
$GPRMC,014610.000,A,1513.1583,N,14543.0354,E,0.33,216.02,040217,,,A*67
$GPRMC,014611.000,A,1513.1582,N,14543.0353,E,0.33,216.02,040217,,,A*60
$GPRMC,014612.000,A,1513.1582,N,14543.0352,E,0.22,216.02,040217,,,A*62
$GPRMC,014613.000,A,1513.1589,N,14543.0354,E,0.18,216.02,040217,,,A*67
$GPRMC,014614.000,A,1513.1589,N,14543.0355,E,0.19,216.02,040217,,,A*60
$GPRMC,014615.000,A,1513.1588,N,14543.0357,E,0.39,216.02,040217,,,A*60
$GPRMC,014616.000,A,1513.1590,N,14543.0355,E,0.23,216.02,040217,,,A*63
$GPRMC,014617.000,A,1513.1590,N,14543.0355,E,0.29,216.02,040217,,,A*68
$GPRMC,014618.000,A,1513.1589,N,14543.0354,E,0.32,216.02,040217,,,A*64
$GPRMC,014619.000,A,1513.1589,N,14543.0354,E,0.26,216.02,040217,,,A*60
$GPRMC,014620.000,A,1513.1589,N,14543.0353,E,0.29,216.02,040217,,,A*62
$GPRMC,014621.000,A,1513.1588,N,14543.0352,E,0.34,216.02,040217,,,A*6F
$GPRMC,014622.000,A,1513.1588,N,14543.0352,E,0.26,216.02,040217,,,A*6F
$GPRMC,014623.000,A,1513.1587,N,14543.0351,E,0.17,216.02,040217,,,A*60
$GPRMC,014624.000,A,1513.1587,N,14543.0351,E,0.13,216.02,040217,,,A*63
$GPRMC,014625.000,A,1513.1732,N,14543.0325,E,0.19,216.02,040217,,,A*67
$GPRMC,014626.000,A,1513.1756,N,14543.0333,E,0.03,216.02,040217,,,A*6A
$GPRMC,014627.000,A,1513.1743,N,14543.0341,E,0.06,216.02,040217,,,A*6F
$GPRMC,014628.000,A,1513.1735,N,14543.0344,E,0.25,216.02,040217,,,A*65
$GPRMC,014629.000,A,1513.1737,N,14543.0345,E,0.20,216.02,040217,,,A*62
$GPRMC,014630.000,A,1513.1742,N,14543.0347,E,0.22,216.02,040217,,,A*68
$GPRMC,014631.000,A,1513.1714,N,14543.0334,E,0.26,216.02,040217,,,A*6A
$GPRMC,014632.000,A,1513.1685,N,14543.0321,E,0.32,216.02,040217,,,A*61
$GPRMC,014633.000,A,1513.1686,N,14543.0297,E,0.40,216.02,040217,,,A*6A
$GPRMC,014634.000,A,1513.1687,N,14543.0296,E,0.44,216.02,040217,,,A*69
$GPRMC,014635.000,A,1513.1691,N,14543.0294,E,0.44,216.02,040217,,,A*6D
$GPRMC,014636.000,A,1513.1688,N,14543.0293,E,0.44,216.02,040217,,,A*61
$GPRMC,014637.000,A,1513.1687,N,14543.0292,E,0.47,216.02,040217,,,A*6D
$GPRMC,014638.000,A,1513.1688,N,14543.0292,E,0.56,216.02,040217,,,A*6D
$GPRMC,014639.000,A,1513.1690,N,14543.0292,E,0.49,216.02,040217,,,A*6B
$GPRMC,014640.000,A,1513.1691,N,14543.0291,E,0.38,216.02,040217,,,A*61
$GPRMC,014641.000,A,1513.1692,N,14543.0292,E,0.44,216.02,040217,,,A*6B
$GPRMC,014642.000,A,1513.1693,N,14543.0292,E,0.40,216.02,040217,,,A*6D
$GPRMC,014643.000,A,1513.1695,N,14543.0292,E,0.39,216.02,040217,,,A*64
$GPRMC,014644.000,A,1513.1696,N,14543.0292,E,0.51,216.02,040217,,,A*6E
$GPRMC,014645.000,A,1513.1697,N,14543.0292,E,0.47,216.02,040217,,,A*69
$GPRMC,014646.000,A,1513.1699,N,14543.0292,E,0.46,216.02,040217,,,A*65
$GPRMC,014647.000,A,1513.1700,N,14543.0292,E,0.59,24.61,040217,,,A*5D
$GPRMC,014648.000,A,1513.1704,N,14543.0300,E,0.63,4.06,040217,,,A*66
$GPRMC,014649.000,A,1513.1707,N,14543.0307,E,0.62,359.58,040217,,,A*62
$GPRMC,014650.000,A,1513.1709,N,14543.0313,E,0.60,358.55,040217,,,A*6F
$GPRMC,014651.000,A,1513.1712,N,14543.0316,E,0.60,348.95,040217,,,A*6C
$GPRMC,014652.000,A,1513.1714,N,14543.0320,E,0.60,344.12,040217,,,A*6F
$GPRMC,014653.000,A,1513.1714,N,14543.0322,E,0.56,344.12,040217,,,A*69
$GPRMC,014654.000,A,1513.1714,N,14543.0326,E,0.34,344.12,040217,,,A*6E
$GPRMC,014655.000,A,1513.1714,N,14543.0331,E,0.36,344.12,040217,,,A*6B
$GPRMC,014656.000,A,1513.1714,N,14543.0335,E,0.39,344.12,040217,,,A*63
$GPRMC,014657.000,A,1513.1715,N,14543.0335,E,0.41,344.12,040217,,,A*6C
$GPRMC,014658.000,A,1513.1717,N,14543.0335,E,0.38,344.12,040217,,,A*6F
$GPRMC,014659.000,A,1513.1718,N,14543.0335,E,0.43,344.12,040217,,,A*6D
$GPRMC,014700.000,A,1513.1719,N,14543.0335,E,0.36,344.12,040217,,,A*63
$GPRMC,014701.000,A,1513.1720,N,14543.0335,E,0.42,344.12,040217,,,A*6B
$GPRMC,014702.000,A,1513.1721,N,14543.0335,E,0.38,344.12,040217,,,A*64
$GPRMC,014703.000,A,1513.1722,N,14543.0335,E,0.31,344.12,040217,,,A*6F
$GPRMC,014704.000,A,1513.1723,N,14543.0335,E,0.45,344.12,040217,,,A*6A
$GPRMC,014705.000,A,1513.1724,N,14543.0335,E,0.51,344.12,040217,,,A*69
$GPRMC,014706.000,A,1513.1725,N,14543.0335,E,0.56,344.12,040217,,,A*6C
$GPRMC,014707.000,A,1513.1727,N,14543.0334,E,0.47,344.12,040217,,,A*6E
$GPRMC,014708.000,A,1513.1728,N,14543.0334,E,0.39,344.12,040217,,,A*67
$GPRMC,014709.000,A,1513.1729,N,14543.0333,E,0.35,344.12,040217,,,A*6C
$GPRMC,014710.000,A,1513.1730,N,14543.0333,E,0.37,344.12,040217,,,A*6E
$GPRMC,014711.000,A,1513.1731,N,14543.0333,E,0.35,344.12,040217,,,A*6C
$GPRMC,014712.000,A,1513.1732,N,14543.0333,E,0.30,344.12,040217,,,A*69
$GPRMC,014713.000,A,1513.1732,N,14543.0332,E,0.35,344.12,040217,,,A*6C
$GPRMC,014714.000,A,1513.1733,N,14543.0332,E,0.48,344.12,040217,,,A*60
$GPRMC,014715.000,A,1513.1735,N,14543.0333,E,0.49,344.12,040217,,,A*67
$GPRMC,014716.000,A,1513.1736,N,14543.0333,E,0.46,344.12,040217,,,A*68
$GPRMC,014717.000,A,1513.1737,N,14543.0334,E,0.36,344.12,040217,,,A*68
$GPRMC,014718.000,A,1513.1738,N,14543.0334,E,0.43,344.12,040217,,,A*6A
$GPRMC,014719.000,A,1513.1739,N,14543.0334,E,0.34,344.12,040217,,,A*6A
$GPRMC,014720.000,A,1513.1740,N,14543.0335,E,0.35,344.12,040217,,,A*6E
$GPRMC,014721.000,A,1513.1741,N,14543.0335,E,0.35,344.12,040217,,,A*6E
$GPRMC,014722.000,A,1513.1741,N,14543.0336,E,0.30,344.12,040217,,,A*6B
$GPRMC,014723.000,A,1513.1742,N,14543.0336,E,0.33,344.12,040217,,,A*6A
$GPRMC,014724.000,A,1513.1743,N,14543.0336,E,0.28,344.12,040217,,,A*66
$GPRMC,014725.000,A,1513.1744,N,14543.0336,E,0.28,344.12,040217,,,A*60
$GPRMC,014726.000,A,1513.1745,N,14543.0336,E,0.32,344.12,040217,,,A*69
$GPRMC,014727.000,A,1513.1745,N,14543.0336,E,0.33,344.12,040217,,,A*69
$GPRMC,014728.000,A,1513.1746,N,14543.0336,E,0.58,344.12,040217,,,A*68
$GPRMC,014729.000,A,1513.1748,N,14543.0336,E,0.50,344.12,040217,,,A*6F
$GPRMC,014730.000,A,1513.1749,N,14543.0335,E,0.55,344.12,040217,,,A*60
$GPRMC,014731.000,A,1513.1750,N,14543.0334,E,0.55,344.12,040217,,,A*68
$GPRMC,014732.000,A,1513.1751,N,14543.0333,E,0.57,344.12,040217,,,A*6F
$GPRMC,014733.000,A,1513.1753,N,14543.0332,E,0.59,317.08,040217,,,A*6E
$GPRMC,014734.000,A,1513.1750,N,14543.0336,E,0.37,317.08,040217,,,A*66
$GPRMC,014735.000,A,1513.1747,N,14543.0339,E,0.32,317.08,040217,,,A*6B
$GPRMC,014736.000,A,1513.1744,N,14543.0341,E,0.11,317.08,040217,,,A*65
$GPRMC,014737.000,A,1513.1742,N,14543.0342,E,0.15,317.08,040217,,,A*65
$GPRMC,014738.000,A,1513.1742,N,14543.0342,E,0.14,317.08,040217,,,A*6B
$GPRMC,014739.000,A,1513.1742,N,14543.0342,E,0.21,317.08,040217,,,A*6C
$GPRMC,014740.000,A,1513.1743,N,14543.0342,E,0.29,317.08,040217,,,A*6B
$GPRMC,014741.000,A,1513.1744,N,14543.0342,E,0.17,317.08,040217,,,A*60
$GPRMC,014742.000,A,1513.1744,N,14543.0342,E,0.10,317.08,040217,,,A*64
$GPRMC,014743.000,A,1513.1744,N,14543.0342,E,0.07,317.08,040217,,,A*63
$GPRMC,014744.000,A,1513.1744,N,14543.0342,E,0.22,317.08,040217,,,A*63
$GPRMC,014745.000,A,1513.1745,N,14543.0341,E,0.34,317.08,040217,,,A*67
$GPRMC,014746.000,A,1513.1745,N,14543.0341,E,0.29,317.08,040217,,,A*68
$GPRMC,014747.000,A,1513.1746,N,14543.0340,E,0.28,317.08,040217,,,A*6A
$GPRMC,014748.000,A,1513.1747,N,14543.0340,E,0.23,317.08,040217,,,A*6F
$GPRMC,014749.000,A,1513.1747,N,14543.0340,E,0.26,317.08,040217,,,A*6B
$GPRMC,014750.000,A,1513.1748,N,14543.0340,E,0.31,317.08,040217,,,A*6A
$GPRMC,014751.000,A,1513.1749,N,14543.0340,E,0.30,317.08,040217,,,A*6B
$GPRMC,014752.000,A,1513.1749,N,14543.0341,E,0.35,317.08,040217,,,A*6C
$GPRMC,014753.000,A,1513.1750,N,14543.0341,E,0.38,317.08,040217,,,A*68
$GPRMC,014754.000,A,1513.1751,N,14543.0341,E,0.33,317.08,040217,,,A*65
$GPRMC,014755.000,A,1513.1752,N,14543.0341,E,0.41,317.08,040217,,,A*62
$GPRMC,014756.000,A,1513.1753,N,14543.0340,E,0.43,317.08,040217,,,A*63
$GPRMC,014757.000,A,1513.1754,N,14543.0340,E,0.46,317.08,040217,,,A*60
$GPRMC,014758.000,A,1513.1755,N,14543.0339,E,0.39,317.08,040217,,,A*68
$GPRMC,014759.000,A,1513.1756,N,14543.0339,E,0.30,317.08,040217,,,A*63
$GPRMC,014800.000,A,1513.1757,N,14543.0338,E,0.20,317.08,040217,,,A*61
$GPRMC,014801.000,A,1513.1757,N,14543.0338,E,0.22,317.08,040217,,,A*62
$GPRMC,014802.000,A,1513.1757,N,14543.0337,E,0.19,317.08,040217,,,A*66
$GPRMC,014803.000,A,1513.1757,N,14543.0337,E,0.23,317.08,040217,,,A*6E
$GPRMC,014804.000,A,1513.1758,N,14543.0337,E,0.24,317.08,040217,,,A*61
$GPRMC,014805.000,A,1513.1758,N,14543.0336,E,0.20,317.08,040217,,,A*65
$GPRMC,014806.000,A,1513.1759,N,14543.0337,E,0.27,317.08,040217,,,A*61
$GPRMC,014807.000,A,1513.1759,N,14543.0337,E,0.25,317.08,040217,,,A*62
$GPRMC,014808.000,A,1513.1760,N,14543.0338,E,0.39,317.08,040217,,,A*65
$GPRMC,014809.000,A,1513.1761,N,14543.0338,E,0.68,351.65,040217,,,A*68
$GPRMC,014810.000,A,1513.1759,N,14543.0340,E,0.66,347.66,040217,,,A*6E
$GPRMC,014811.000,A,1513.1758,N,14543.0341,E,0.46,347.66,040217,,,A*6D
$GPRMC,014812.000,A,1513.1758,N,14543.0342,E,0.51,347.66,040217,,,A*6B
$GPRMC,014813.000,A,1513.1757,N,14543.0343,E,0.47,347.66,040217,,,A*63
$GPRMC,014814.000,A,1513.1757,N,14543.0344,E,0.43,347.66,040217,,,A*67
$GPRMC,014815.000,A,1513.1758,N,14543.0344,E,0.29,347.66,040217,,,A*65
$GPRMC,014816.000,A,1513.1758,N,14543.0344,E,0.35,347.66,040217,,,A*6B
$GPRMC,014817.000,A,1513.1759,N,14543.0344,E,0.43,347.66,040217,,,A*6A
$GPRMC,014818.000,A,1513.1760,N,14543.0344,E,0.38,347.66,040217,,,A*63
$GPRMC,014819.000,A,1513.1762,N,14543.0344,E,0.33,347.66,040217,,,A*6B
$GPRMC,014820.000,A,1513.1762,N,14543.0344,E,0.28,347.66,040217,,,A*6B
$GPRMC,014821.000,A,1513.1763,N,14543.0344,E,0.10,347.66,040217,,,A*60
$GPRMC,014822.000,A,1513.1763,N,14543.0344,E,0.10,347.66,040217,,,A*63
$GPRMC,014823.000,A,1513.1763,N,14543.0343,E,0.16,347.66,040217,,,A*63
$GPRMC,014824.000,A,1513.1764,N,14543.0343,E,0.15,347.66,040217,,,A*60
$GPRMC,014825.000,A,1513.1764,N,14543.0343,E,0.17,347.66,040217,,,A*63
$GPRMC,014826.000,A,1513.1764,N,14543.0343,E,0.12,347.66,040217,,,A*65
$GPRMC,014827.000,A,1513.1765,N,14543.0343,E,0.25,347.66,040217,,,A*61
$GPRMC,014828.000,A,1513.1765,N,14543.0344,E,0.24,347.66,040217,,,A*68
$GPRMC,014829.000,A,1513.1766,N,14543.0344,E,0.26,347.66,040217,,,A*68
$GPRMC,014830.000,A,1513.1766,N,14543.0344,E,0.06,347.66,040217,,,A*62
$GPRMC,014831.000,A,1513.1767,N,14543.0344,E,0.07,347.66,040217,,,A*63
$GPRMC,014832.000,A,1513.1767,N,14543.0344,E,0.07,347.66,040217,,,A*60
$GPRMC,014833.000,A,1513.1766,N,14543.0344,E,0.16,347.66,040217,,,A*60
$GPRMC,014834.000,A,1513.1767,N,14543.0344,E,0.18,347.66,040217,,,A*68
$GPRMC,014835.000,A,1513.1767,N,14543.0343,E,0.13,347.66,040217,,,A*65
$GPRMC,014836.000,A,1513.1767,N,14543.0343,E,0.10,347.66,040217,,,A*65
$GPRMC,014837.000,A,1513.1767,N,14543.0343,E,0.30,347.66,040217,,,A*66
$GPRMC,014838.000,A,1513.1768,N,14543.0342,E,0.30,347.66,040217,,,A*67
$GPRMC,014839.000,A,1513.1769,N,14543.0342,E,0.27,347.66,040217,,,A*61
$GPRMC,014840.000,A,1513.1769,N,14543.0341,E,0.31,347.66,040217,,,A*6B
$GPRMC,014841.000,A,1513.1770,N,14543.0341,E,0.40,347.66,040217,,,A*64
$GPRMC,014842.000,A,1513.1768,N,14543.0343,E,0.36,347.66,040217,,,A*6D
$GPRMC,014843.000,A,1513.1767,N,14543.0344,E,0.36,347.66,040217,,,A*64
$GPRMC,014844.000,A,1513.1765,N,14543.0345,E,0.31,347.66,040217,,,A*67
$GPRMC,014845.000,A,1513.1762,N,14543.0346,E,0.27,347.66,040217,,,A*65
$GPRMC,014846.000,A,1513.1762,N,14543.0345,E,0.04,347.66,040217,,,A*64
$GPRMC,014847.000,A,1513.1762,N,14543.0345,E,0.01,347.66,040217,,,A*60
$GPRMC,014848.000,A,1513.1762,N,14543.0345,E,0.08,347.66,040217,,,A*66
$GPRMC,014849.000,A,1513.1762,N,14543.0345,E,0.07,347.66,040217,,,A*68
$GPRMC,014850.000,A,1513.1762,N,14543.0346,E,0.09,347.66,040217,,,A*6D
$GPRMC,014851.000,A,1513.1762,N,14543.0346,E,0.16,347.66,040217,,,A*62
$GPRMC,014852.000,A,1513.1762,N,14543.0346,E,0.18,347.66,040217,,,A*6F
$GPRMC,014853.000,A,1513.1762,N,14543.0347,E,0.11,347.66,040217,,,A*66
$GPRMC,014854.000,A,1513.1762,N,14543.0347,E,0.15,347.66,040217,,,A*65
$GPRMC,014855.000,A,1513.1762,N,14543.0347,E,0.26,347.66,040217,,,A*64
$GPRMC,014856.000,A,1513.1761,N,14543.0348,E,0.28,347.66,040217,,,A*65
$GPRMC,014857.000,A,1513.1760,N,14543.0348,E,0.30,347.66,040217,,,A*6C
$GPRMC,014858.000,A,1513.1759,N,14543.0348,E,0.42,347.66,040217,,,A*6C
$GPRMC,014859.000,A,1513.1756,N,14543.0353,E,0.43,347.66,040217,,,A*69
$GPRMC,014900.000,A,1513.1756,N,14543.0353,E,0.39,347.66,040217,,,A*69
$GPRMC,014901.000,A,1513.1756,N,14543.0353,E,0.20,347.66,040217,,,A*60
$GPRMC,014902.000,A,1513.1757,N,14543.0353,E,0.14,347.66,040217,,,A*65
$GPRMC,014903.000,A,1513.1757,N,14543.0354,E,0.07,347.66,040217,,,A*61
$GPRMC,014904.000,A,1513.1755,N,14543.0353,E,0.08,347.66,040217,,,A*6C
$GPRMC,014905.000,A,1513.1752,N,14543.0355,E,0.11,347.66,040217,,,A*64
$GPRMC,014906.000,A,1513.1751,N,14543.0356,E,0.10,347.66,040217,,,A*66
$GPRMC,014907.000,A,1513.1751,N,14543.0355,E,0.11,347.66,040217,,,A*65
$GPRMC,014908.000,A,1513.1750,N,14543.0356,E,0.08,347.66,040217,,,A*60
$GPRMC,014909.000,A,1513.1749,N,14543.0356,E,0.09,347.66,040217,,,A*68
$GPRMC,014910.000,A,1513.1748,N,14543.0355,E,0.09,347.66,040217,,,A*62
$GPRMC,014911.000,A,1513.1746,N,14543.0356,E,0.10,347.66,040217,,,A*66
$GPRMC,014912.000,A,1513.1745,N,14543.0355,E,0.10,347.66,040217,,,A*65
$GPRMC,014913.000,A,1513.1745,N,14543.0355,E,0.05,347.66,040217,,,A*60
$GPRMC,014914.000,A,1513.1745,N,14543.0355,E,0.11,347.66,040217,,,A*62
$GPRMC,014915.000,A,1513.1745,N,14543.0356,E,0.17,347.66,040217,,,A*66
$GPRMC,014916.000,A,1513.1745,N,14543.0356,E,0.10,347.66,040217,,,A*62
$GPRMC,014917.000,A,1513.1745,N,14543.0356,E,0.20,347.66,040217,,,A*60
$GPRMC,014918.000,A,1513.1745,N,14543.0356,E,0.22,347.66,040217,,,A*6D
$GPRMC,014919.000,A,1513.1746,N,14543.0355,E,0.11,347.66,040217,,,A*6C
$GPRMC,014920.000,A,1513.1746,N,14543.0355,E,0.11,347.66,040217,,,A*66
$GPRMC,014921.000,A,1513.1746,N,14543.0355,E,0.09,347.66,040217,,,A*6E
$GPRMC,014922.000,A,1513.1746,N,14543.0355,E,0.10,347.66,040217,,,A*65
$GPRMC,014923.000,A,1513.1746,N,14543.0355,E,0.10,347.66,040217,,,A*64
$GPRMC,014924.000,A,1513.1747,N,14543.0355,E,0.06,347.66,040217,,,A*65
$GPRMC,014925.000,A,1513.1747,N,14543.0355,E,0.20,347.66,040217,,,A*60
$GPRMC,014926.000,A,1513.1747,N,14543.0354,E,0.19,347.66,040217,,,A*68
$GPRMC,014927.000,A,1513.1747,N,14543.0354,E,0.20,347.66,040217,,,A*63
$GPRMC,014928.000,A,1513.1746,N,14543.0354,E,0.15,347.66,040217,,,A*6B
$GPRMC,014929.000,A,1513.1744,N,14543.0355,E,0.10,347.66,040217,,,A*6C
$GPRMC,014930.000,A,1513.1744,N,14543.0355,E,0.07,347.66,040217,,,A*62
$GPRMC,014931.000,A,1513.1744,N,14543.0355,E,0.11,347.66,040217,,,A*64
$GPRMC,014932.000,A,1513.1744,N,14543.0355,E,0.08,347.66,040217,,,A*6F
$GPRMC,014933.000,A,1513.1745,N,14543.0355,E,0.20,347.66,040217,,,A*65
$GPRMC,014934.000,A,1513.1745,N,14543.0355,E,0.23,347.66,040217,,,A*61
$GPRMC,014935.000,A,1513.1745,N,14543.0354,E,0.11,347.66,040217,,,A*60
$GPRMC,014936.000,A,1513.1745,N,14543.0354,E,0.09,347.66,040217,,,A*6A
$GPRMC,014937.000,A,1513.1745,N,14543.0354,E,0.06,347.66,040217,,,A*64
$GPRMC,014938.000,A,1513.1745,N,14543.0354,E,0.07,347.66,040217,,,A*6A
$GPRMC,014939.000,A,1513.1745,N,14543.0354,E,0.09,347.66,040217,,,A*65
$GPRMC,014940.000,A,1513.1745,N,14543.0354,E,0.12,347.66,040217,,,A*61
$GPRMC,014941.000,A,1513.1745,N,14543.0353,E,0.22,347.66,040217,,,A*64
$GPRMC,014942.000,A,1513.1745,N,14543.0353,E,0.26,347.66,040217,,,A*63
$GPRMC,014943.000,A,1513.1746,N,14543.0352,E,0.18,347.66,040217,,,A*6D
$GPRMC,014944.000,A,1513.1746,N,14543.0352,E,0.06,347.66,040217,,,A*65
$GPRMC,014945.000,A,1513.1746,N,14543.0352,E,0.15,347.66,040217,,,A*66
$GPRMC,014946.000,A,1513.1747,N,14543.0352,E,0.26,347.66,040217,,,A*64
$GPRMC,014947.000,A,1513.1747,N,14543.0352,E,0.20,347.66,040217,,,A*63
$GPRMC,014948.000,A,1513.1748,N,14543.0351,E,0.25,347.66,040217,,,A*65
$GPRMC,014949.000,A,1513.1748,N,14543.0351,E,0.23,347.66,040217,,,A*62
$GPRMC,014950.000,A,1513.1749,N,14543.0351,E,0.17,347.66,040217,,,A*6C
$GPRMC,014951.000,A,1513.1749,N,14543.0351,E,0.35,347.66,040217,,,A*6D
$GPRMC,014952.000,A,1513.1750,N,14543.0351,E,0.35,347.66,040217,,,A*66
$GPRMC,014953.000,A,1513.1751,N,14543.0350,E,0.17,347.66,040217,,,A*67
$GPRMC,014954.000,A,1513.1752,N,14543.0350,E,0.19,347.66,040217,,,A*6D
$GPRMC,014955.000,A,1513.1752,N,14543.0350,E,0.24,347.66,040217,,,A*62
$GPRMC,014956.000,A,1513.1753,N,14543.0350,E,0.26,347.66,040217,,,A*62
$GPRMC,014957.000,A,1513.1753,N,14543.0350,E,0.18,347.66,040217,,,A*6E
$GPRMC,014958.000,A,1513.1753,N,14543.0349,E,0.15,347.66,040217,,,A*64
$GPRMC,014959.000,A,1513.1753,N,14543.0349,E,0.12,347.66,040217,,,A*62
$GPRMC,015000.000,A,1513.1753,N,14543.0349,E,0.11,347.66,040217,,,A*65
$GPRMC,015001.000,A,1513.1752,N,14543.0349,E,0.13,347.66,040217,,,A*67
$GPRMC,015002.000,A,1513.1752,N,14543.0348,E,0.10,347.66,040217,,,A*66
$GPRMC,015003.000,A,1513.1752,N,14543.0348,E,0.06,347.66,040217,,,A*60
$GPRMC,015004.000,A,1513.1752,N,14543.0348,E,0.04,347.66,040217,,,A*65
$GPRMC,015005.000,A,1513.1752,N,14543.0349,E,0.07,347.66,040217,,,A*66
$GPRMC,015006.000,A,1513.1752,N,14543.0349,E,0.20,347.66,040217,,,A*60
$GPRMC,015007.000,A,1513.1751,N,14543.0349,E,0.09,347.66,040217,,,A*69
$GPRMC,015008.000,A,1513.1751,N,14543.0349,E,0.18,347.66,040217,,,A*66
$GPRMC,015009.000,A,1513.1752,N,14543.0349,E,0.13,347.66,040217,,,A*6F
$GPRMC,015010.000,A,1513.1752,N,14543.0350,E,0.19,347.66,040217,,,A*65
$GPRMC,015011.000,A,1513.1752,N,14543.0350,E,0.39,347.66,040217,,,A*66
$GPRMC,015012.000,A,1513.1753,N,14543.0351,E,0.40,347.66,040217,,,A*6B
$GPRMC,015013.000,A,1513.1754,N,14543.0351,E,0.26,347.66,040217,,,A*6D
$GPRMC,015014.000,A,1513.1755,N,14543.0352,E,0.22,347.66,040217,,,A*6C
$GPRMC,015015.000,A,1513.1755,N,14543.0352,E,0.22,347.66,040217,,,A*6D
$GPRMC,015016.000,A,1513.1756,N,14543.0352,E,0.25,347.66,040217,,,A*6A
$GPRMC,015017.000,A,1513.1756,N,14543.0353,E,0.17,347.66,040217,,,A*6B
$GPRMC,015018.000,A,1513.1756,N,14543.0353,E,0.16,347.66,040217,,,A*65
$GPRMC,015019.000,A,1513.1756,N,14543.0354,E,0.04,347.66,040217,,,A*60
$GPRMC,015020.000,A,1513.1756,N,14543.0354,E,0.07,347.66,040217,,,A*69
$GPRMC,015021.000,A,1513.1756,N,14543.0354,E,0.24,347.66,040217,,,A*69
$GPRMC,015022.000,A,1513.1756,N,14543.0354,E,0.20,347.66,040217,,,A*6E
$GPRMC,015023.000,A,1513.1755,N,14543.0354,E,0.08,347.66,040217,,,A*66
$GPRMC,015024.000,A,1513.1755,N,14543.0354,E,0.09,347.66,040217,,,A*60
$GPRMC,015025.000,A,1513.1755,N,14543.0355,E,0.12,347.66,040217,,,A*6A
$GPRMC,015026.000,A,1513.1755,N,14543.0355,E,0.16,347.66,040217,,,A*6D
$GPRMC,015027.000,A,1513.1755,N,14543.0356,E,0.16,347.66,040217,,,A*6F
$GPRMC,015028.000,A,1513.1755,N,14543.0356,E,0.13,347.66,040217,,,A*65
$GPRMC,015029.000,A,1513.1754,N,14543.0356,E,0.11,347.66,040217,,,A*67
$GPRMC,015030.000,A,1513.1754,N,14543.0356,E,0.13,347.66,040217,,,A*6D
$GPRMC,015031.000,A,1513.1754,N,14543.0356,E,0.17,347.66,040217,,,A*68
$GPRMC,015032.000,A,1513.1754,N,14543.0355,E,0.13,347.66,040217,,,A*6C
$GPRMC,015033.000,A,1513.1754,N,14543.0355,E,0.11,347.66,040217,,,A*6F
$GPRMC,015034.000,A,1513.1754,N,14543.0355,E,0.09,347.66,040217,,,A*61
$GPRMC,015035.000,A,1513.1753,N,14543.0354,E,0.15,347.66,040217,,,A*6B
$GPRMC,015036.000,A,1513.1753,N,14543.0354,E,0.20,347.66,040217,,,A*6E
$GPRMC,015037.000,A,1513.1753,N,14543.0354,E,0.11,347.66,040217,,,A*6D
$GPRMC,015038.000,A,1513.1753,N,14543.0353,E,0.19,347.66,040217,,,A*6D
$GPRMC,015039.000,A,1513.1752,N,14543.0353,E,0.14,347.66,040217,,,A*60
$GPRMC,015040.000,A,1513.1752,N,14543.0353,E,0.19,347.66,040217,,,A*63
$GPRMC,015041.000,A,1513.1753,N,14543.0352,E,0.18,347.66,040217,,,A*63
$GPRMC,015042.000,A,1513.1753,N,14543.0353,E,0.10,347.66,040217,,,A*69
$GPRMC,015043.000,A,1513.1753,N,14543.0353,E,0.16,347.66,040217,,,A*6E
$GPRMC,015044.000,A,1513.1754,N,14543.0353,E,0.22,347.66,040217,,,A*69
$GPRMC,015045.000,A,1513.1754,N,14543.0353,E,0.23,347.66,040217,,,A*69
$GPRMC,015046.000,A,1513.1755,N,14543.0353,E,0.23,347.66,040217,,,A*6B
$GPRMC,015047.000,A,1513.1755,N,14543.0353,E,0.20,347.66,040217,,,A*69
$GPRMC,015048.000,A,1513.1755,N,14543.0353,E,0.17,347.66,040217,,,A*62
$GPRMC,015049.000,A,1513.1753,N,14543.0354,E,0.14,347.66,040217,,,A*61
$GPRMC,015050.000,A,1513.1753,N,14543.0355,E,0.11,347.66,040217,,,A*6D
$GPRMC,015051.000,A,1513.1753,N,14543.0355,E,0.12,347.66,040217,,,A*6F
$GPRMC,015052.000,A,1513.1754,N,14543.0354,E,0.06,347.66,040217,,,A*6F
$GPRMC,015053.000,A,1513.1754,N,14543.0354,E,0.10,347.66,040217,,,A*69
$GPRMC,015054.000,A,1513.1753,N,14543.0355,E,0.09,347.66,040217,,,A*60
$GPRMC,015055.000,A,1513.1753,N,14543.0355,E,0.16,347.66,040217,,,A*6F
$GPRMC,015056.000,A,1513.1753,N,14543.0355,E,0.13,347.66,040217,,,A*69
$GPRMC,015057.000,A,1513.1753,N,14543.0355,E,0.17,347.66,040217,,,A*6C
$GPRMC,015058.000,A,1513.1753,N,14543.0356,E,0.24,347.66,040217,,,A*60
$GPRMC,015059.000,A,1513.1754,N,14543.0356,E,0.19,347.66,040217,,,A*68
$GPRMC,015100.000,A,1513.1754,N,14543.0356,E,0.06,347.66,040217,,,A*6B
$GPRMC,015101.000,A,1513.1754,N,14543.0356,E,0.05,347.66,040217,,,A*69
$GPRMC,015102.000,A,1513.1754,N,14543.0356,E,0.16,347.66,040217,,,A*68
$GPRMC,015103.000,A,1513.1754,N,14543.0357,E,0.10,347.66,040217,,,A*6E
$GPRMC,015104.000,A,1513.1754,N,14543.0357,E,0.19,347.66,040217,,,A*60
$GPRMC,015105.000,A,1513.1755,N,14543.0357,E,0.26,347.66,040217,,,A*6C
$GPRMC,015106.000,A,1513.1756,N,14543.0358,E,0.34,347.66,040217,,,A*60
$GPRMC,015107.000,A,1513.1756,N,14543.0358,E,0.16,347.66,040217,,,A*61
$GPRMC,015108.000,A,1513.1757,N,14543.0358,E,0.08,347.66,040217,,,A*60
$GPRMC,015109.000,A,1513.1757,N,14543.0358,E,0.03,347.66,040217,,,A*6A
$GPRMC,015110.000,A,1513.1756,N,14543.0358,E,0.06,347.66,040217,,,A*66
$GPRMC,015111.000,A,1513.1757,N,14543.0359,E,0.03,347.66,040217,,,A*62
$GPRMC,015112.000,A,1513.1756,N,14543.0359,E,0.11,347.66,040217,,,A*63
$GPRMC,015113.000,A,1513.1757,N,14543.0359,E,0.09,347.66,040217,,,A*6A
$GPRMC,015114.000,A,1513.1757,N,14543.0359,E,0.03,347.66,040217,,,A*67
$GPRMC,015115.000,A,1513.1756,N,14543.0359,E,0.08,347.66,040217,,,A*6C
$GPRMC,015116.000,A,1513.1757,N,14543.0359,E,0.11,347.66,040217,,,A*66
$GPRMC,015117.000,A,1513.1757,N,14543.0359,E,0.05,347.66,040217,,,A*62
$GPRMC,015118.000,A,1513.1757,N,14543.0359,E,0.15,347.66,040217,,,A*6C
$GPRMC,015119.000,A,1513.1757,N,14543.0359,E,0.13,347.66,040217,,,A*6B
$GPRMC,015120.000,A,1513.1758,N,14543.0359,E,0.16,347.66,040217,,,A*6B
$GPRMC,015121.000,A,1513.1758,N,14543.0359,E,0.17,347.66,040217,,,A*6B
$GPRMC,015122.000,A,1513.1758,N,14543.0358,E,0.11,347.66,040217,,,A*6F
$GPRMC,015123.000,A,1513.1758,N,14543.0358,E,0.19,347.66,040217,,,A*66
$GPRMC,015124.000,A,1513.1758,N,14543.0357,E,0.26,347.66,040217,,,A*62
$GPRMC,015125.000,A,1513.1758,N,14543.0357,E,0.21,347.66,040217,,,A*64
$GPRMC,015126.000,A,1513.1757,N,14543.0356,E,0.28,347.66,040217,,,A*60
$GPRMC,015127.000,A,1513.1757,N,14543.0356,E,0.22,347.66,040217,,,A*6B
$GPRMC,015128.000,A,1513.1756,N,14543.0356,E,0.20,347.66,040217,,,A*67
$GPRMC,015129.000,A,1513.1756,N,14543.0355,E,0.10,347.66,040217,,,A*66
$GPRMC,015130.000,A,1513.1755,N,14543.0355,E,0.11,347.66,040217,,,A*6C
$GPRMC,015131.000,A,1513.1755,N,14543.0355,E,0.12,347.66,040217,,,A*6E
$GPRMC,015132.000,A,1513.1755,N,14543.0355,E,0.04,347.66,040217,,,A*6A
$GPRMC,015133.000,A,1513.1755,N,14543.0355,E,0.03,347.66,040217,,,A*6C
$GPRMC,015134.000,A,1513.1755,N,14543.0355,E,0.07,347.66,040217,,,A*6F
$GPRMC,015135.000,A,1513.1755,N,14543.0355,E,0.04,347.66,040217,,,A*6D
$GPRMC,015136.000,A,1513.1755,N,14543.0355,E,0.03,347.66,040217,,,A*69
$GPRMC,015137.000,A,1513.1755,N,14543.0355,E,0.05,347.66,040217,,,A*6E
$GPRMC,015138.000,A,1513.1755,N,14543.0355,E,0.09,347.66,040217,,,A*6D
$GPRMC,015139.000,A,1513.1755,N,14543.0355,E,0.13,347.66,040217,,,A*67
$GPRMC,015140.000,A,1513.1754,N,14543.0356,E,0.11,347.66,040217,,,A*69
$GPRMC,015141.000,A,1513.1754,N,14543.0356,E,0.14,347.66,040217,,,A*6D
$GPRMC,015142.000,A,1513.1754,N,14543.0356,E,0.13,347.66,040217,,,A*69
$GPRMC,015143.000,A,1513.1754,N,14543.0356,E,0.18,347.66,040217,,,A*63
$GPRMC,015144.000,A,1513.1754,N,14543.0357,E,0.11,347.66,040217,,,A*6C
$GPRMC,015145.000,A,1513.1754,N,14543.0357,E,0.03,347.66,040217,,,A*6E
$GPRMC,015146.000,A,1513.1754,N,14543.0357,E,0.04,347.66,040217,,,A*6A
$GPRMC,015147.000,A,1513.1754,N,14543.0357,E,0.21,347.66,040217,,,A*6C
$GPRMC,015148.000,A,1513.1753,N,14543.0357,E,0.19,347.66,040217,,,A*6F
$GPRMC,015149.000,A,1513.1753,N,14543.0357,E,0.17,347.66,040217,,,A*60
$GPRMC,015150.000,A,1513.1752,N,14543.0357,E,0.05,347.66,040217,,,A*6A
$GPRMC,015151.000,A,1513.1752,N,14543.0358,E,0.11,347.66,040217,,,A*61
$GPRMC,015152.000,A,1513.1752,N,14543.0358,E,0.12,347.66,040217,,,A*61
$GPRMC,015153.000,A,1513.1753,N,14543.0358,E,0.02,347.66,040217,,,A*60
$GPRMC,015154.000,A,1513.1753,N,14543.0358,E,0.03,347.66,040217,,,A*66
$GPRMC,015155.000,A,1513.1753,N,14543.0358,E,0.02,347.66,040217,,,A*66
$GPRMC,015156.000,A,1513.1752,N,14543.0358,E,0.08,347.66,040217,,,A*6E
$GPRMC,015157.000,A,1513.1753,N,14543.0358,E,0.09,347.66,040217,,,A*6F
$GPRMC,015158.000,A,1513.1753,N,14543.0358,E,0.12,347.66,040217,,,A*6A
$GPRMC,015159.000,A,1513.1753,N,14543.0358,E,0.22,347.66,040217,,,A*68
$GPRMC,015200.000,A,1513.1754,N,14543.0358,E,0.24,347.66,040217,,,A*66
$GPRMC,015201.000,A,1513.1754,N,14543.0358,E,0.14,347.66,040217,,,A*64
$GPRMC,015202.000,A,1513.1755,N,14543.0358,E,0.09,347.66,040217,,,A*6A
$GPRMC,015203.000,A,1513.1755,N,14543.0358,E,0.16,347.66,040217,,,A*65
$GPRMC,015204.000,A,1513.1755,N,14543.0358,E,0.12,347.66,040217,,,A*66
$GPRMC,015205.000,A,1513.1755,N,14543.0357,E,0.09,347.66,040217,,,A*62
$GPRMC,015206.000,A,1513.1755,N,14543.0357,E,0.05,347.66,040217,,,A*6D
$GPRMC,015207.000,A,1513.1755,N,14543.0357,E,0.10,347.66,040217,,,A*68
$GPRMC,015208.000,A,1513.1755,N,14543.0357,E,0.16,347.66,040217,,,A*61
$GPRMC,015209.000,A,1513.1756,N,14543.0357,E,0.27,347.66,040217,,,A*61
$GPRMC,015210.000,A,1513.1756,N,14543.0356,E,0.36,347.66,040217,,,A*68
$GPRMC,015211.000,A,1513.1757,N,14543.0355,E,0.25,347.66,040217,,,A*69
$GPRMC,015212.000,A,1513.1757,N,14543.0355,E,0.13,347.66,040217,,,A*6F
$GPRMC,015213.000,A,1513.1757,N,14543.0354,E,0.09,347.66,040217,,,A*64
$GPRMC,015214.000,A,1513.1757,N,14543.0354,E,0.17,347.66,040217,,,A*6C
$GPRMC,015215.000,A,1513.1756,N,14543.0354,E,0.18,347.66,040217,,,A*63
$GPRMC,015216.000,A,1513.1756,N,14543.0354,E,0.25,347.66,040217,,,A*6E
$GPRMC,015217.000,A,1513.1756,N,14543.0353,E,0.17,347.66,040217,,,A*69
$GPRMC,015218.000,A,1513.1755,N,14543.0353,E,0.11,347.66,040217,,,A*63
$GPRMC,015219.000,A,1513.1755,N,14543.0352,E,0.24,347.66,040217,,,A*65
$GPRMC,015220.000,A,1513.1754,N,14543.0352,E,0.27,347.66,040217,,,A*6D
$GPRMC,015221.000,A,1513.1754,N,14543.0352,E,0.28,347.66,040217,,,A*63
$GPRMC,015222.000,A,1513.1753,N,14543.0351,E,0.27,347.66,040217,,,A*6B
$GPRMC,015223.000,A,1513.1752,N,14543.0351,E,0.22,347.66,040217,,,A*6E
$GPRMC,015224.000,A,1513.1752,N,14543.0351,E,0.26,347.66,040217,,,A*6D
$GPRMC,015225.000,A,1513.1751,N,14543.0351,E,0.23,347.66,040217,,,A*6A
$GPRMC,015226.000,A,1513.1750,N,14543.0351,E,0.27,347.66,040217,,,A*6C
$GPRMC,015227.000,A,1513.1750,N,14543.0351,E,0.33,347.66,040217,,,A*68
$GPRMC,015228.000,A,1513.1749,N,14543.0351,E,0.15,347.66,040217,,,A*6B
$GPRMC,015229.000,A,1513.1748,N,14543.0351,E,0.14,347.66,040217,,,A*6A
$GPRMC,015230.000,A,1513.1748,N,14543.0351,E,0.13,347.66,040217,,,A*65
$GPRMC,015231.000,A,1513.1747,N,14543.0351,E,0.15,347.66,040217,,,A*6D
$GPRMC,015232.000,A,1513.1747,N,14543.0351,E,0.15,347.66,040217,,,A*6E
$GPRMC,015233.000,A,1513.1746,N,14543.0351,E,0.32,347.66,040217,,,A*6B
$GPRMC,015234.000,A,1513.1746,N,14543.0350,E,0.41,347.66,040217,,,A*69
$GPRMC,015235.000,A,1513.1744,N,14543.0350,E,0.40,347.66,040217,,,A*6B
$GPRMC,015236.000,A,1513.1743,N,14543.0350,E,0.41,347.66,040217,,,A*6E
$GPRMC,015237.000,A,1513.1742,N,14543.0349,E,0.46,347.66,040217,,,A*61
$GPRMC,015238.000,A,1513.1741,N,14543.0349,E,0.49,347.66,040217,,,A*62
$GPRMC,015239.000,A,1513.1740,N,14543.0348,E,0.39,347.66,040217,,,A*64
$GPRMC,015240.000,A,1513.1739,N,14543.0347,E,0.42,347.66,040217,,,A*67
$GPRMC,015241.000,A,1513.1738,N,14543.0346,E,0.31,347.66,040217,,,A*62
$GPRMC,015242.000,A,1513.1738,N,14543.0346,E,0.23,347.66,040217,,,A*62
$GPRMC,015243.000,A,1513.1737,N,14543.0345,E,0.18,347.66,040217,,,A*67
$GPRMC,015244.000,A,1513.1737,N,14543.0345,E,0.17,347.66,040217,,,A*6F
$GPRMC,015245.000,A,1513.1736,N,14543.0346,E,0.18,347.66,040217,,,A*63
$GPRMC,015246.000,A,1513.1735,N,14543.0348,E,0.19,347.66,040217,,,A*6C
$GPRMC,015247.000,A,1513.1734,N,14543.0349,E,0.19,347.66,040217,,,A*6D
$GPRMC,015248.000,A,1513.1733,N,14543.0351,E,0.18,347.66,040217,,,A*6D
$GPRMC,015249.000,A,1513.1733,N,14543.0351,E,0.02,347.66,040217,,,A*67
$GPRMC,015250.000,A,1513.1733,N,14543.0351,E,0.09,347.66,040217,,,A*64
$GPRMC,015251.000,A,1513.1733,N,14543.0351,E,0.11,347.66,040217,,,A*6C
$GPRMC,015252.000,A,1513.1733,N,14543.0351,E,0.11,347.66,040217,,,A*6F
$GPRMC,015253.000,A,1513.1733,N,14543.0350,E,0.18,347.66,040217,,,A*66
$GPRMC,015254.000,A,1513.1733,N,14543.0350,E,0.13,347.66,040217,,,A*6A
$GPRMC,015255.000,A,1513.1734,N,14543.0350,E,0.03,347.66,040217,,,A*6D
$GPRMC,015256.000,A,1513.1733,N,14543.0349,E,0.09,347.66,040217,,,A*6B
$GPRMC,015257.000,A,1513.1734,N,14543.0349,E,0.11,347.66,040217,,,A*64
$GPRMC,015258.000,A,1513.1734,N,14543.0349,E,0.14,347.66,040217,,,A*6E
$GPRMC,015259.000,A,1513.1734,N,14543.0349,E,0.17,347.66,040217,,,A*6C
$GPRMC,015300.000,A,1513.1734,N,14543.0348,E,0.25,347.66,040217,,,A*61
$GPRMC,015301.000,A,1513.1734,N,14543.0348,E,0.14,347.66,040217,,,A*62
$GPRMC,015302.000,A,1513.1735,N,14543.0347,E,0.08,347.66,040217,,,A*62
$GPRMC,015303.000,A,1513.1735,N,14543.0348,E,0.03,347.66,040217,,,A*67
$GPRMC,015304.000,A,1513.1735,N,14543.0348,E,0.16,347.66,040217,,,A*64
$GPRMC,015305.000,A,1513.1735,N,14543.0348,E,0.21,347.66,040217,,,A*61
$GPRMC,015306.000,A,1513.1736,N,14543.0348,E,0.28,347.66,040217,,,A*68
$GPRMC,015307.000,A,1513.1737,N,14543.0348,E,0.20,347.66,040217,,,A*60
$GPRMC,015308.000,A,1513.1737,N,14543.0348,E,0.21,347.66,040217,,,A*6E
$GPRMC,015309.000,A,1513.1737,N,14543.0347,E,0.17,347.66,040217,,,A*65
$GPRMC,015310.000,A,1513.1737,N,14543.0347,E,0.20,347.66,040217,,,A*69
$GPRMC,015311.000,A,1513.1737,N,14543.0346,E,0.22,347.66,040217,,,A*6B
$GPRMC,015312.000,A,1513.1738,N,14543.0346,E,0.26,347.66,040217,,,A*63
$GPRMC,015313.000,A,1513.1738,N,14543.0345,E,0.27,347.66,040217,,,A*60
$GPRMC,015314.000,A,1513.1739,N,14543.0345,E,0.17,347.66,040217,,,A*65
$GPRMC,015315.000,A,1513.1738,N,14543.0346,E,0.13,347.66,040217,,,A*62
$GPRMC,015316.000,A,1513.1739,N,14543.0346,E,0.15,347.66,040217,,,A*66
$GPRMC,015317.000,A,1513.1740,N,14543.0347,E,0.15,347.66,040217,,,A*68
$GPRMC,015318.000,A,1513.1741,N,14543.0346,E,0.21,347.66,040217,,,A*60
$GPRMC,015319.000,A,1513.1741,N,14543.0346,E,0.14,347.66,040217,,,A*67
$GPRMC,015320.000,A,1513.1741,N,14543.0346,E,0.20,347.66,040217,,,A*6A
$GPRMC,015321.000,A,1513.1742,N,14543.0345,E,0.13,347.66,040217,,,A*6B
$GPRMC,015322.000,A,1513.1742,N,14543.0345,E,0.01,347.66,040217,,,A*6B
$GPRMC,015323.000,A,1513.1742,N,14543.0345,E,0.02,347.66,040217,,,A*69
$GPRMC,015324.000,A,1513.1742,N,14543.0345,E,0.05,347.66,040217,,,A*69
$GPRMC,015325.000,A,1513.1742,N,14543.0345,E,0.04,347.66,040217,,,A*69
$GPRMC,015326.000,A,1513.1742,N,14543.0346,E,0.11,347.66,040217,,,A*6D
$GPRMC,015327.000,A,1513.1742,N,14543.0346,E,0.15,347.66,040217,,,A*68
$GPRMC,015328.000,A,1513.1742,N,14543.0346,E,0.16,347.66,040217,,,A*64
$GPRMC,015329.000,A,1513.1743,N,14543.0347,E,0.21,347.66,040217,,,A*61
$GPRMC,015330.000,A,1513.1743,N,14543.0347,E,0.13,347.66,040217,,,A*68
$GPRMC,015331.000,A,1513.1744,N,14543.0346,E,0.13,347.66,040217,,,A*6F
$GPRMC,015332.000,A,1513.1744,N,14543.0346,E,0.11,347.66,040217,,,A*6E
$GPRMC,015333.000,A,1513.1744,N,14543.0346,E,0.07,347.66,040217,,,A*68
$GPRMC,015334.000,A,1513.1744,N,14543.0346,E,0.13,347.66,040217,,,A*6A
$GPRMC,015335.000,A,1513.1743,N,14543.0346,E,0.09,347.66,040217,,,A*67
$GPRMC,015336.000,A,1513.1743,N,14543.0346,E,0.10,347.66,040217,,,A*6C
$GPRMC,015337.000,A,1513.1743,N,14543.0346,E,0.10,347.66,040217,,,A*6D
$GPRMC,015338.000,A,1513.1743,N,14543.0346,E,0.10,347.66,040217,,,A*62
$GPRMC,015339.000,A,1513.1742,N,14543.0346,E,0.06,347.66,040217,,,A*65
$GPRMC,015340.000,A,1513.1742,N,14543.0346,E,0.14,347.66,040217,,,A*68
$GPRMC,015341.000,A,1513.1742,N,14543.0346,E,0.15,347.66,040217,,,A*68
$GPRMC,015342.000,A,1513.1743,N,14543.0346,E,0.20,347.66,040217,,,A*6C
$GPRMC,015343.000,A,1513.1743,N,14543.0346,E,0.12,347.66,040217,,,A*6C
$GPRMC,015344.000,A,1513.1743,N,14543.0346,E,0.19,347.66,040217,,,A*60
$GPRMC,015345.000,A,1513.1744,N,14543.0345,E,0.14,347.66,040217,,,A*68
$GPRMC,015346.000,A,1513.1744,N,14543.0345,E,0.20,347.66,040217,,,A*6C
$GPRMC,015347.000,A,1513.1744,N,14543.0345,E,0.19,347.66,040217,,,A*67
$GPRMC,015348.000,A,1513.1745,N,14543.0344,E,0.07,347.66,040217,,,A*67
$GPRMC,015349.000,A,1513.1745,N,14543.0344,E,0.04,347.66,040217,,,A*65
$GPRMC,015350.000,A,1513.1745,N,14543.0344,E,0.06,347.66,040217,,,A*6F
$GPRMC,015351.000,A,1513.1745,N,14543.0344,E,0.03,347.66,040217,,,A*6B
$GPRMC,015352.000,A,1513.1745,N,14543.0344,E,0.06,347.66,040217,,,A*6D
$GPRMC,015353.000,A,1513.1745,N,14543.0345,E,0.16,347.66,040217,,,A*6C
$GPRMC,015354.000,A,1513.1745,N,14543.0345,E,0.16,347.66,040217,,,A*6B
$GPRMC,015355.000,A,1513.1745,N,14543.0345,E,0.17,347.66,040217,,,A*6B
$GPRMC,015356.000,A,1513.1745,N,14543.0346,E,0.17,347.66,040217,,,A*6B
$GPRMC,015357.000,A,1513.1746,N,14543.0346,E,0.14,347.66,040217,,,A*6A
$GPRMC,015358.000,A,1513.1746,N,14543.0346,E,0.18,347.66,040217,,,A*69
$GPRMC,015359.000,A,1513.1746,N,14543.0347,E,0.22,347.66,040217,,,A*60
$GPRMC,015400.000,A,1513.1747,N,14543.0347,E,0.18,347.66,040217,,,A*63
$GPRMC,015401.000,A,1513.1747,N,14543.0347,E,0.20,347.66,040217,,,A*69
$GPRMC,015402.000,A,1513.1748,N,14543.0347,E,0.23,347.66,040217,,,A*66
$GPRMC,015403.000,A,1513.1748,N,14543.0347,E,0.28,347.66,040217,,,A*6C
$GPRMC,015404.000,A,1513.1749,N,14543.0347,E,0.28,347.66,040217,,,A*6A
$GPRMC,015405.000,A,1513.1750,N,14543.0347,E,0.34,347.66,040217,,,A*6E
$GPRMC,015406.000,A,1513.1751,N,14543.0347,E,0.36,347.66,040217,,,A*6E
$GPRMC,015407.000,A,1513.1752,N,14543.0347,E,0.28,347.66,040217,,,A*63
$GPRMC,015408.000,A,1513.1753,N,14543.0347,E,0.15,347.66,040217,,,A*63
$GPRMC,015409.000,A,1513.1753,N,14543.0348,E,0.11,347.66,040217,,,A*69
$GPRMC,015410.000,A,1513.1753,N,14543.0347,E,0.16,347.66,040217,,,A*69
$GPRMC,015411.000,A,1513.1753,N,14543.0347,E,0.07,347.66,040217,,,A*68
$GPRMC,015412.000,A,1513.1754,N,14543.0347,E,0.04,347.66,040217,,,A*6F
$GPRMC,015413.000,A,1513.1754,N,14543.0347,E,0.08,347.66,040217,,,A*62
$GPRMC,015414.000,A,1513.1754,N,14543.0347,E,0.05,347.66,040217,,,A*68
$GPRMC,015415.000,A,1513.1753,N,14543.0347,E,0.12,347.66,040217,,,A*68
$GPRMC,015416.000,A,1513.1754,N,14543.0347,E,0.14,347.66,040217,,,A*6A
$GPRMC,015417.000,A,1513.1754,N,14543.0347,E,0.18,347.66,040217,,,A*67
$GPRMC,015418.000,A,1513.1755,N,14543.0347,E,0.21,347.66,040217,,,A*63
$GPRMC,015419.000,A,1513.1753,N,14543.0349,E,0.19,347.66,040217,,,A*61
$GPRMC,015420.000,A,1513.1753,N,14543.0351,E,0.18,347.66,040217,,,A*63
$GPRMC,015421.000,A,1513.1752,N,14543.0352,E,0.11,347.66,040217,,,A*69
$GPRMC,015422.000,A,1513.1751,N,14543.0353,E,0.13,347.66,040217,,,A*6A
$GPRMC,015423.000,A,1513.1751,N,14543.0353,E,0.07,347.66,040217,,,A*6E
$GPRMC,015424.000,A,1513.1751,N,14543.0353,E,0.02,347.66,040217,,,A*6C
$GPRMC,015425.000,A,1513.1751,N,14543.0353,E,0.07,347.66,040217,,,A*68
$GPRMC,015426.000,A,1513.1751,N,14543.0353,E,0.12,347.66,040217,,,A*6F
$GPRMC,015427.000,A,1513.1751,N,14543.0352,E,0.07,347.66,040217,,,A*6B
$GPRMC,015428.000,A,1513.1751,N,14543.0352,E,0.12,347.66,040217,,,A*60
$GPRMC,015429.000,A,1513.1751,N,14543.0353,E,0.19,347.66,040217,,,A*6B
$GPRMC,015430.000,A,1513.1751,N,14543.0353,E,0.19,347.66,040217,,,A*63
$GPRMC,015431.000,A,1513.1750,N,14543.0353,E,0.11,347.66,040217,,,A*6B
$GPRMC,015432.000,A,1513.1750,N,14543.0353,E,0.23,347.66,040217,,,A*69
$GPRMC,015433.000,A,1513.1750,N,14543.0352,E,0.13,347.66,040217,,,A*6A
$GPRMC,015434.000,A,1513.1750,N,14543.0352,E,0.09,347.66,040217,,,A*66
$GPRMC,015435.000,A,1513.1749,N,14543.0352,E,0.11,347.66,040217,,,A*66
$GPRMC,015436.000,A,1513.1750,N,14543.0351,E,0.05,347.66,040217,,,A*6B
$GPRMC,015437.000,A,1513.1750,N,14543.0351,E,0.05,347.66,040217,,,A*6A
$GPRMC,015438.000,A,1513.1750,N,14543.0351,E,0.09,347.66,040217,,,A*69
$GPRMC,015439.000,A,1513.1750,N,14543.0351,E,0.13,347.66,040217,,,A*63
$GPRMC,015440.000,A,1513.1750,N,14543.0351,E,0.12,347.66,040217,,,A*6C
$GPRMC,015441.000,A,1513.1750,N,14543.0351,E,0.18,347.66,040217,,,A*67
$GPRMC,015442.000,A,1513.1750,N,14543.0352,E,0.11,347.66,040217,,,A*6E
$GPRMC,015443.000,A,1513.1750,N,14543.0352,E,0.11,347.66,040217,,,A*6F
$GPRMC,015444.000,A,1513.1750,N,14543.0352,E,0.09,347.66,040217,,,A*61
$GPRMC,015445.000,A,1513.1749,N,14543.0352,E,0.14,347.66,040217,,,A*64
$GPRMC,015446.000,A,1513.1749,N,14543.0352,E,0.26,347.66,040217,,,A*66
$GPRMC,015447.000,A,1513.1749,N,14543.0351,E,0.22,347.66,040217,,,A*60
$GPRMC,015448.000,A,1513.1748,N,14543.0351,E,0.20,347.66,040217,,,A*6C
$GPRMC,015449.000,A,1513.1748,N,14543.0350,E,0.14,347.66,040217,,,A*6B
$GPRMC,015450.000,A,1513.1748,N,14543.0350,E,0.15,347.66,040217,,,A*62
$GPRMC,015451.000,A,1513.1748,N,14543.0349,E,0.16,347.66,040217,,,A*68
$GPRMC,015452.000,A,1513.1748,N,14543.0349,E,0.23,347.66,040217,,,A*6D
$GPRMC,015453.000,A,1513.1748,N,14543.0348,E,0.17,347.66,040217,,,A*6A
$GPRMC,015454.000,A,1513.1748,N,14543.0348,E,0.15,347.66,040217,,,A*6F
$GPRMC,015455.000,A,1513.1749,N,14543.0348,E,0.19,347.66,040217,,,A*63
$GPRMC,015456.000,A,1513.1749,N,14543.0349,E,0.14,347.66,040217,,,A*6C
$GPRMC,015457.000,A,1513.1749,N,14543.0349,E,0.15,347.66,040217,,,A*6C
$GPRMC,015458.000,A,1513.1750,N,14543.0349,E,0.12,347.66,040217,,,A*6C
$GPRMC,015459.000,A,1513.1750,N,14543.0349,E,0.11,347.66,040217,,,A*6E
$GPRMC,015500.000,A,1513.1750,N,14543.0349,E,0.15,347.66,040217,,,A*67
$GPRMC,015501.000,A,1513.1750,N,14543.0349,E,0.21,347.66,040217,,,A*61
$GPRMC,015502.000,A,1513.1751,N,14543.0350,E,0.21,347.66,040217,,,A*6B
$GPRMC,015503.000,A,1513.1751,N,14543.0349,E,0.25,347.66,040217,,,A*66
$GPRMC,015504.000,A,1513.1752,N,14543.0349,E,1.23,4.74,040217,,,A*62
$GPRMC,015505.000,A,1513.1755,N,14543.0350,E,1.47,16.25,040217,,,A*59
$GPRMC,015506.000,A,1513.1760,N,14543.0353,E,2.15,27.37,040217,,,A*5A
$GPRMC,015507.000,A,1513.1764,N,14543.0360,E,2.18,40.37,040217,,,A*53
$GPRMC,015508.000,A,1513.1762,N,14543.0368,E,1.85,49.87,040217,,,A*57
$GPRMC,015509.000,A,1513.1757,N,14543.0374,E,1.78,47.49,040217,,,A*53
$GPRMC,015510.000,A,1513.1755,N,14543.0377,E,1.61,46.49,040217,,,A*53
$GPRMC,015511.000,A,1513.1759,N,14543.0379,E,1.89,13.75,040217,,,A*59
$GPRMC,015512.000,A,1513.1763,N,14543.0384,E,1.92,12.29,040217,,,A*53
$GPRMC,015513.000,A,1513.1765,N,14543.0385,E,1.87,14.33,040217,,,A*5C
$GPRMC,015514.000,A,1513.1771,N,14543.0387,E,1.87,20.95,040217,,,A*57
$GPRMC,015515.000,A,1513.1773,N,14543.0389,E,1.54,20.41,040217,,,A*5D
$GPRMC,015516.000,A,1513.1776,N,14543.0390,E,1.48,19.58,040217,,,A*5C
$GPRMC,015517.000,A,1513.1777,N,14543.0390,E,0.84,7.34,040217,,,A*68
$GPRMC,015518.000,A,1513.1778,N,14543.0391,E,0.63,9.90,040217,,,A*60
$GPRMC,015519.000,A,1513.1778,N,14543.0391,E,0.65,9.26,040217,,,A*6A
$GPRMC,015520.000,A,1513.1779,N,14543.0394,E,0.68,24.35,040217,,,A*54
$GPRMC,015521.000,A,1513.1781,N,14543.0397,E,0.75,49.28,040217,,,A*5A
$GPRMC,015522.000,A,1513.1783,N,14543.0400,E,0.80,47.89,040217,,,A*5D
$GPRMC,015523.000,A,1513.1785,N,14543.0402,E,0.75,47.48,040217,,,A*5F
$GPRMC,015524.000,A,1513.1785,N,14543.0405,E,0.77,50.37,040217,,,A*53
$GPRMC,015525.000,A,1513.1787,N,14543.0408,E,0.79,49.57,040217,,,A*5D
$GPRMC,015526.000,A,1513.1788,N,14543.0411,E,1.05,51.08,040217,,,A*50
$GPRMC,015527.000,A,1513.1790,N,14543.0414,E,1.24,52.93,040217,,,A*5F
$GPRMC,015528.000,A,1513.1792,N,14543.0419,E,1.44,56.17,040217,,,A*51
$GPRMC,015529.000,A,1513.1795,N,14543.0423,E,1.50,56.79,040217,,,A*53
$GPRMC,015530.000,A,1513.1797,N,14543.0427,E,1.32,62.13,040217,,,A*52
$GPRMC,015531.000,A,1513.1794,N,14543.0430,E,0.96,103.86,040217,,,A*63
$GPRMC,015532.000,A,1513.1792,N,14543.0429,E,0.71,109.64,040217,,,A*61
$GPRMC,015533.000,A,1513.1790,N,14543.0430,E,0.35,109.64,040217,,,A*6A
$GPRMC,015534.000,A,1513.1790,N,14543.0432,E,0.54,109.64,040217,,,A*68
$GPRMC,015535.000,A,1513.1793,N,14543.0440,E,2.13,104.37,040217,,,A*65
$GPRMC,015536.000,A,1513.1793,N,14543.0442,E,0.26,104.37,040217,,,A*60
$GPRMC,015537.000,A,1513.1795,N,14543.0442,E,0.97,356.13,040217,,,A*6E
$GPRMC,015538.000,A,1513.1799,N,14543.0439,E,1.58,354.45,040217,,,A*62
$GPRMC,015539.000,A,1513.1800,N,14543.0435,E,1.56,349.71,040217,,,A*65
$GPRMC,015540.000,A,1513.1801,N,14543.0432,E,1.18,341.76,040217,,,A*68
$GPRMC,015541.000,A,1513.1801,N,14543.0430,E,0.76,303.28,040217,,,A*6F
$GPRMC,015542.000,A,1513.1801,N,14543.0426,E,2.20,300.43,040217,,,A*64
$GPRMC,015543.000,A,1513.1802,N,14543.0418,E,3.23,298.64,040217,,,A*6C
$GPRMC,015544.000,A,1513.1811,N,14543.0411,E,3.48,300.11,040217,,,A*6F
$GPRMC,015545.000,A,1513.1821,N,14543.0405,E,3.79,302.71,040217,,,A*6E
$GPRMC,015546.000,A,1513.1832,N,14543.0401,E,4.03,307.37,040217,,,A*66
$GPRMC,015547.000,A,1513.1845,N,14543.0396,E,5.10,308.94,040217,,,A*6B
$GPRMC,015548.000,A,1513.1860,N,14543.0390,E,6.14,312.16,040217,,,A*63
$GPRMC,015549.000,A,1513.1875,N,14543.0381,E,7.06,314.47,040217,,,A*66
$GPRMC,015550.000,A,1513.1892,N,14543.0370,E,7.68,316.34,040217,,,A*67
$GPRMC,015551.000,A,1513.1911,N,14543.0354,E,9.89,316.87,040217,,,A*63
$GPRMC,015552.000,A,1513.1931,N,14543.0334,E,10.77,316.50,040217,,,A*57
$GPRMC,015554.000,A,1513.1976,N,14543.0286,E,12.58,315.32,040217,,,A*52
$GPRMC,015556.000,A,1513.2022,N,14543.0233,E,13.16,313.00,040217,,,A*59
$GPRMC,015558.000,A,1513.2076,N,14543.0169,E,15.59,316.31,040217,,,A*50
$GPRMC,015600.000,A,1513.2147,N,14543.0113,E,17.28,326.38,040217,,,A*5E
$GPRMC,015602.000,A,1513.2225,N,14543.0048,E,17.85,324.33,040217,,,A*5A
$GPRMC,015604.000,A,1513.2309,N,14542.9988,E,18.56,326.06,040217,,,A*5B
$GPRMC,015606.000,A,1513.2398,N,14542.9934,E,19.16,330.16,040217,,,A*55
$GPRMC,015608.000,A,1513.2486,N,14542.9880,E,18.96,330.76,040217,,,A*52
$GPRMC,015610.000,A,1513.2580,N,14542.9833,E,17.78,335.06,040217,,,A*59
$GPRMC,015612.000,A,1513.2668,N,14542.9782,E,19.37,329.99,040217,,,A*55
$GPRMC,015614.000,A,1513.2761,N,14542.9733,E,18.99,335.33,040217,,,A*59
$GPRMC,015616.000,A,1513.2857,N,14542.9696,E,18.11,336.52,040217,,,A*5B
$GPRMC,015618.000,A,1513.2957,N,14542.9661,E,18.55,337.82,040217,,,A*50
$GPRMC,015619.000,A,1513.3007,N,14542.9640,E,19.45,337.83,040217,,,A*5E
$GPRMC,015620.000,A,1513.3055,N,14542.9623,E,18.83,338.43,040217,,,A*5E
$GPRMC,015621.000,A,1513.3105,N,14542.9606,E,18.86,341.87,040217,,,A*5F
$GPRMC,015622.000,A,1513.3151,N,14542.9592,E,18.19,341.95,040217,,,A*56
$GPRMC,015623.000,A,1513.3199,N,14542.9579,E,18.55,344.69,040217,,,A*58
$GPRMC,015624.000,A,1513.3248,N,14542.9569,E,18.16,351.00,040217,,,A*5D
$GPRMC,015625.000,A,1513.3297,N,14542.9561,E,17.01,350.12,040217,,,A*5D
$GPRMC,015626.000,A,1513.3343,N,14542.9550,E,16.59,349.26,040217,,,A*57
$GPRMC,015627.000,A,1513.3389,N,14542.9532,E,17.05,348.12,040217,,,A*5A
$GPRMC,015628.000,A,1513.3434,N,14542.9515,E,17.79,347.38,040217,,,A*5D
$GPRMC,015629.000,A,1513.3479,N,14542.9501,E,15.94,346.83,040217,,,A*50
$GPRMC,015630.000,A,1513.3519,N,14542.9487,E,16.70,344.60,040217,,,A*56
$GPRMC,015631.000,A,1513.3563,N,14542.9474,E,16.30,343.48,040217,,,A*5F
$GPRMC,015632.000,A,1513.3607,N,14542.9459,E,16.88,341.19,040217,,,A*57
$GPRMC,015633.000,A,1513.3649,N,14542.9443,E,15.71,340.14,040217,,,A*5E
$GPRMC,015634.000,A,1513.3687,N,14542.9433,E,15.14,349.45,040217,,,A*52
$GPRMC,015635.000,A,1513.3726,N,14542.9423,E,14.70,348.78,040217,,,A*54
$GPRMC,015636.000,A,1513.3766,N,14542.9409,E,16.00,348.12,040217,,,A*52
$GPRMC,015637.000,A,1513.3805,N,14542.9394,E,14.12,347.39,040217,,,A*5D
$GPRMC,015638.000,A,1513.3844,N,14542.9379,E,16.02,346.44,040217,,,A*5C
$GPRMC,015639.000,A,1513.3886,N,14542.9362,E,16.21,345.54,040217,,,A*5A
$GPRMC,015640.000,A,1513.3927,N,14542.9343,E,15.76,344.67,040217,,,A*5D
$GPRMC,015641.000,A,1513.3967,N,14542.9325,E,16.41,343.86,040217,,,A*57
$GPRMC,015642.000,A,1513.4009,N,14542.9310,E,15.76,342.81,040217,,,A*55
$GPRMC,015643.000,A,1513.4050,N,14542.9298,E,16.15,342.78,040217,,,A*59
$GPRMC,015644.000,A,1513.4091,N,14542.9286,E,14.47,343.04,040217,,,A*53
$GPRMC,015645.000,A,1513.4130,N,14542.9271,E,15.37,337.05,040217,,,A*54
$GPRMC,015646.000,A,1513.4168,N,14542.9254,E,14.80,335.73,040217,,,A*53
$GPRMC,015648.000,A,1513.4242,N,14542.9213,E,15.35,330.71,040217,,,A*5D
$GPRMC,015649.000,A,1513.4279,N,14542.9190,E,16.01,328.64,040217,,,A*55
$GPRMC,015650.000,A,1513.4316,N,14542.9165,E,14.89,323.93,040217,,,A*5E
$GPRMC,015651.000,A,1513.4351,N,14542.9136,E,16.29,320.18,040217,,,A*52
$GPRMC,015652.000,A,1513.4385,N,14542.9106,E,17.19,320.60,040217,,,A*56
$GPRMC,015653.000,A,1513.4419,N,14542.9076,E,14.71,317.99,040217,,,A*5C
$GPRMC,015654.000,A,1513.4446,N,14542.9042,E,15.61,303.67,040217,,,A*52
$GPRMC,015655.000,A,1513.4461,N,14542.9006,E,12.48,284.05,040217,,,A*50
$GPRMC,015656.000,A,1513.4461,N,14542.8973,E,10.33,252.98,040217,,,A*58
$GPRMC,015657.000,A,1513.4450,N,14542.8954,E,6.40,210.08,040217,,,A*62
$GPRMC,015658.000,A,1513.4441,N,14542.8947,E,3.83,210.90,040217,,,A*64
$GPRMC,015659.000,A,1513.4432,N,14542.8937,E,4.01,213.23,040217,,,A*60
$GPRMC,015700.000,A,1513.4424,N,14542.8932,E,2.23,213.23,040217,,,A*69
$GPRMC,015701.000,A,1513.4419,N,14542.8929,E,1.40,213.23,040217,,,A*6A
$GPRMC,015702.000,A,1513.4417,N,14542.8927,E,1.47,213.23,040217,,,A*6E
$GPRMC,015703.000,A,1513.4413,N,14542.8924,E,1.88,213.67,040217,,,A*6B
$GPRMC,015704.000,A,1513.4409,N,14542.8921,E,0.11,213.46,040217,,,A*60
$GPRMC,015705.000,A,1513.4407,N,14542.8919,E,0.14,213.52,040217,,,A*64
$GPRMC,015706.000,A,1513.4405,N,14542.8918,E,0.09,213.52,040217,,,A*68
$GPRMC,015707.000,A,1513.4403,N,14542.8916,E,0.16,213.52,040217,,,A*6F
$GPRMC,015708.000,A,1513.4403,N,14542.8912,E,0.09,213.52,040217,,,A*6A
$GPRMC,015709.000,A,1513.4402,N,14542.8911,E,0.08,213.52,040217,,,A*68
$GPRMC,015710.000,A,1513.4402,N,14542.8911,E,0.09,213.52,040217,,,A*61
$GPRMC,015711.000,A,1513.4399,N,14542.8912,E,0.20,213.52,040217,,,A*6D
$GPRMC,015712.000,A,1513.4394,N,14542.8914,E,0.27,213.52,040217,,,A*62
$GPRMC,015713.000,A,1513.4386,N,14542.8919,E,4.45,207.01,040217,,,A*6E
$GPRMC,015714.000,A,1513.4375,N,14542.8928,E,5.39,200.50,040217,,,A*6E
$GPRMC,015715.000,A,1513.4363,N,14542.8938,E,5.78,194.66,040217,,,A*67
$GPRMC,015716.000,A,1513.4350,N,14542.8948,E,5.96,189.89,040217,,,A*6E
$GPRMC,015717.000,A,1513.4336,N,14542.8957,E,5.63,185.69,040217,,,A*69
$GPRMC,015719.000,A,1513.4310,N,14542.8976,E,6.22,177.12,040217,,,A*67
$GPRMC,015720.000,A,1513.4296,N,14542.8985,E,5.91,173.79,040217,,,A*6C
$GPRMC,015721.000,A,1513.4282,N,14542.8993,E,5.61,170.58,040217,,,A*60
$GPRMC,015722.000,A,1513.4271,N,14542.9001,E,4.18,167.64,040217,,,A*6A
$GPRMC,015723.000,A,1513.4262,N,14542.9007,E,3.78,164.91,040217,,,A*67
$GPRMC,015724.000,A,1513.4253,N,14542.9014,E,4.51,162.40,040217,,,A*66
$GPRMC,015725.000,A,1513.4242,N,14542.9021,E,5.12,150.03,040217,,,A*61
$GPRMC,015726.000,A,1513.4229,N,14542.9028,E,5.29,151.67,040217,,,A*6D
$GPRMC,015727.000,A,1513.4216,N,14542.9036,E,5.86,154.85,040217,,,A*63
$GPRMC,015728.000,A,1513.4202,N,14542.9043,E,5.52,153.03,040217,,,A*6B
$GPRMC,015729.000,A,1513.4188,N,14542.9048,E,4.64,152.18,040217,,,A*6F
$GPRMC,015730.000,A,1513.4178,N,14542.9053,E,4.00,152.43,040217,,,A*6E
$GPRMC,015731.000,A,1513.4171,N,14542.9060,E,3.05,147.02,040217,,,A*65
$GPRMC,015732.000,A,1513.4167,N,14542.9066,E,2.04,141.38,040217,,,A*68
$GPRMC,015733.000,A,1513.4163,N,14542.9071,E,2.86,143.18,040217,,,A*61
$GPRMC,015734.000,A,1513.4155,N,14542.9075,E,3.27,144.15,040217,,,A*67
$GPRMC,015735.000,A,1513.4148,N,14542.9078,E,3.05,144.75,040217,,,A*61
$GPRMC,015736.000,A,1513.4142,N,14542.9084,E,2.78,142.13,040217,,,A*66
$GPRMC,015737.000,A,1513.4136,N,14542.9089,E,3.29,143.35,040217,,,A*69
$GPRMC,015738.000,A,1513.4128,N,14542.9093,E,3.22,144.62,040217,,,A*6C
$GPRMC,015739.000,A,1513.4120,N,14542.9098,E,3.19,144.53,040217,,,A*64
$GPRMC,015740.000,A,1513.4113,N,14542.9104,E,3.41,143.99,040217,,,A*62
$GPRMC,015741.000,A,1513.4105,N,14542.9111,E,3.85,155.06,040217,,,A*69
$GPRMC,015742.000,A,1513.4095,N,14542.9114,E,3.60,161.53,040217,,,A*6B
$GPRMC,015743.000,A,1513.4086,N,14542.9117,E,3.27,164.08,040217,,,A*63
$GPRMC,015744.000,A,1513.4079,N,14542.9120,E,2.85,163.16,040217,,,A*61
$GPRMC,015745.000,A,1513.4071,N,14542.9124,E,3.29,160.33,040217,,,A*6F
$GPRMC,015746.000,A,1513.4063,N,14542.9127,E,3.72,158.16,040217,,,A*6E
$GPRMC,015747.000,A,1513.4055,N,14542.9132,E,3.12,142.52,040217,,,A*63
$GPRMC,015748.000,A,1513.4048,N,14542.9136,E,3.17,143.15,040217,,,A*63
$GPRMC,015750.000,A,1513.4027,N,14542.9149,E,4.78,143.97,040217,,,A*6F
$GPRMC,015751.000,A,1513.4015,N,14542.9157,E,5.75,144.53,040217,,,A*63
$GPRMC,015752.000,A,1513.4000,N,14542.9165,E,6.09,145.10,040217,,,A*6B
$GPRMC,015753.000,A,1513.3987,N,14542.9174,E,5.54,146.33,040217,,,A*62
$GPRMC,015754.000,A,1513.3975,N,14542.9183,E,4.96,141.58,040217,,,A*65
$GPRMC,015755.000,A,1513.3963,N,14542.9191,E,5.16,142.54,040217,,,A*66
$GPRMC,015756.000,A,1513.3951,N,14542.9198,E,4.51,143.45,040217,,,A*6E
$GPRMC,015757.000,A,1513.3939,N,14542.9203,E,3.88,145.42,040217,,,A*62
$GPRMC,015758.000,A,1513.3929,N,14542.9207,E,3.49,146.23,040217,,,A*61
$GPRMC,015759.000,A,1513.3921,N,14542.9211,E,3.16,146.81,040217,,,A*6D
$GPRMC,015800.000,A,1513.3914,N,14542.9213,E,2.64,148.25,040217,,,A*6E
$GPRMC,015801.000,A,1513.3908,N,14542.9217,E,3.28,147.66,040217,,,A*67
$GPRMC,015802.000,A,1513.3903,N,14542.9223,E,3.26,147.27,040217,,,A*63
$GPRMC,015803.000,A,1513.3897,N,14542.9227,E,3.32,147.48,040217,,,A*66
$GPRMC,015804.000,A,1513.3889,N,14542.9234,E,4.26,146.47,040217,,,A*60
$GPRMC,015805.000,A,1513.3881,N,14542.9241,E,3.81,146.56,040217,,,A*61
$GPRMC,015806.000,A,1513.3872,N,14542.9249,E,3.51,145.59,040217,,,A*67
$GPRMC,015807.000,A,1513.3865,N,14542.9255,E,3.33,144.62,040217,,,A*60
$GPRMC,015808.000,A,1513.3857,N,14542.9260,E,3.26,143.78,040217,,,A*60
$GPRMC,015809.000,A,1513.3849,N,14542.9266,E,3.70,144.03,040217,,,A*60
$GPRMC,015810.000,A,1513.3841,N,14542.9273,E,3.67,144.47,040217,,,A*62
$GPRMC,015811.000,A,1513.3834,N,14542.9279,E,3.40,136.94,040217,,,A*65
$GPRMC,015812.000,A,1513.3826,N,14542.9283,E,3.35,138.23,040217,,,A*60
$GPRMC,015813.000,A,1513.3818,N,14542.9288,E,3.96,139.18,040217,,,A*67
$GPRMC,015814.000,A,1513.3806,N,14542.9295,E,6.03,140.57,040217,,,A*6F
$GPRMC,015815.000,A,1513.3788,N,14542.9302,E,7.45,142.98,040217,,,A*6A
$GPRMC,015816.000,A,1513.3766,N,14542.9308,E,7.84,145.26,040217,,,A*6C
$GPRMC,015817.000,A,1513.3745,N,14542.9314,E,7.15,146.73,040217,,,A*6A
$GPRMC,015818.000,A,1513.3727,N,14542.9320,E,6.27,148.66,040217,,,A*6C
$GPRMC,015820.000,A,1513.3695,N,14542.9332,E,5.97,151.47,040217,,,A*6F
$GPRMC,015821.000,A,1513.3677,N,14542.9337,E,6.38,152.58,040217,,,A*6C
$GPRMC,015822.000,A,1513.3663,N,14542.9343,E,4.63,154.88,040217,,,A*6E
$GPRMC,015823.000,A,1513.3650,N,14542.9347,E,4.42,156.52,040217,,,A*6D
$GPRMC,015824.000,A,1513.3638,N,14542.9351,E,4.81,157.29,040217,,,A*61
$GPRMC,015825.000,A,1513.3625,N,14542.9355,E,4.56,157.80,040217,,,A*61
$GPRMC,015826.000,A,1513.3609,N,14542.9358,E,6.23,158.82,040217,,,A*6C
$GPRMC,015827.000,A,1513.3590,N,14542.9364,E,7.86,161.07,040217,,,A*68
$GPRMC,015828.000,A,1513.3568,N,14542.9371,E,8.23,161.56,040217,,,A*60
$GPRMC,015829.000,A,1513.3544,N,14542.9377,E,8.55,163.86,040217,,,A*67
$GPRMC,015830.000,A,1513.3521,N,14542.9383,E,8.39,165.35,040217,,,A*63
$GPRMC,015831.000,A,1513.3498,N,14542.9391,E,8.65,166.21,040217,,,A*6D
$GPRMC,015832.000,A,1513.3471,N,14542.9399,E,11.55,172.76,040217,,,A*5D
$GPRMC,015833.000,A,1513.3438,N,14542.9409,E,12.57,171.89,040217,,,A*5D
$GPRMC,015834.000,A,1513.3406,N,14542.9423,E,12.11,170.00,040217,,,A*5D
$GPRMC,015835.000,A,1513.3377,N,14542.9439,E,11.06,167.98,040217,,,A*54
$GPRMC,015836.000,A,1513.3351,N,14542.9459,E,11.79,165.62,040217,,,A*5A
$GPRMC,015837.000,A,1513.3323,N,14542.9480,E,12.45,163.99,040217,,,A*54
$GPRMC,015838.000,A,1513.3293,N,14542.9499,E,12.48,162.30,040217,,,A*56
$GPRMC,015839.000,A,1513.3259,N,14542.9515,E,13.16,161.03,040217,,,A*5D
$GPRMC,015840.000,A,1513.3225,N,14542.9535,E,15.78,159.81,040217,,,A*55
$GPRMC,015841.000,A,1513.3189,N,14542.9560,E,15.33,158.54,040217,,,A*57
$GPRMC,015842.000,A,1513.3154,N,14542.9586,E,16.20,157.34,040217,,,A*54
$GPRMC,015843.000,A,1513.3117,N,14542.9617,E,14.94,136.04,040217,,,A*50
$GPRMC,015844.000,A,1513.3086,N,14542.9644,E,14.47,135.80,040217,,,A*59
$GPRMC,015845.000,A,1513.3055,N,14542.9672,E,13.05,136.46,040217,,,A*5B
$GPRMC,015846.000,A,1513.3030,N,14542.9692,E,10.90,137.06,040217,,,A*5F
$GPRMC,015847.000,A,1513.3010,N,14542.9708,E,7.23,136.37,040217,,,A*63
$GPRMC,015848.000,A,1513.2997,N,14542.9717,E,5.77,137.57,040217,,,A*61
$GPRMC,015849.000,A,1513.2987,N,14542.9723,E,4.06,140.76,040217,,,A*62
$GPRMC,015851.000,A,1513.2973,N,14542.9738,E,4.65,141.31,040217,,,A*6D
$GPRMC,015852.000,A,1513.2964,N,14542.9745,E,4.49,141.65,040217,,,A*6D
$GPRMC,015853.000,A,1513.2955,N,14542.9752,E,3.97,141.30,040217,,,A*6C
$GPRMC,015854.000,A,1513.2947,N,14542.9760,E,4.35,140.63,040217,,,A*61
$GPRMC,015855.000,A,1513.2940,N,14542.9769,E,4.32,140.03,040217,,,A*6F
$GPRMC,015856.000,A,1513.2934,N,14542.9777,E,3.80,139.11,040217,,,A*63
